latitude,longitude,flight_time,altitude,speed,satellites,gps_level,pitch,roll,yaw,timestamp,last_updated,velocityX,velocityY,velocityZ,isflying,remainBatteryPercent,currentCurrent,batteryChargeRemaining,batteryVoltage,batteryTemperature,flightMode,istakingphoto,downlinkSignal,uplinkSignal,radioChannel,rc_elevator,rc_aileron,rc_throttle,rc_rudder,Battery_Cell1,Battery_Cell2,Battery_Cell3,Battery_Cell4,Battery_Cell5,Battery_Cell6,gimbalPitch,gimbalYaw,gimbalRoll,app_Tip,app_Warning,appVersion,AircraftComercialName,AircraftSerialNumber,RemoteSerialNumber,BatterySerialNumber,BatteryFullCapacity,dischargeCount,batteryLife,AircraftModel,sonar_altitude,isTakingVideo
-24.56178055981286,150.0420281657989,0,0.0,0.0,15,5,0.0,0.0,-59.5,2019-10-29 16:51:09.6720+0000,-0.09723997116088867,0.0,0.0,0.0,false,36,-660,1204,22842,24.150000000000034,6,false,100,100,0,0,0,0,0,3808,3817,3807,3807,3805,3797,0.0,0.0,0.0,Started waypoint mission,,Flight1_3.1.0_(3),DJI,041DE70691,03LJ7004AS,9971162700587,3345,100,75,Explore1, ,false
-24.56178055981286,150.0420281657989,0,0.0,0.0,15,5,0.0,0.0,-59.5,2019-10-29 16:51:09.7730+0000,-0.1003190279006958,0.0,0.0,0.0,false,36,-660,1204,22842,24.150000000000034,6,false,100,100,0,0,0,0,0,3808,3817,3807,3807,3805,3797,0.0,0.0,0.0,Started waypoint mission,
-24.56178055981286,150.0420281657989,0,0.0,0.0,15,5,0.0,0.0,-59.5,2019-10-29 16:51:09.8720+0000,-0.09816288948059082,0.0,0.0,0.0,false,36,-674,1204,22846,24.150000000000034,6,false,100,100,0,0,0,0,0,3807,3817,3808,3808,3804,3797,0.0,0.0,0.0,Started waypoint mission,
-24.56178055981286,150.0420281657989,0,0.0,0.0,15,5,0.0,0.0,-59.5,2019-10-29 16:51:09.8730+0000,-0.00034797191619873047,0.0,0.0,0.0,false,36,-674,1204,22846,24.150000000000034,6,false,100,100,0,0,0,0,0,3807,3817,3808,3808,3804,3797,0.0,0.0,0.0,Started waypoint mission,
-24.56178055981286,150.0420281657989,0,0.0,0.0,15,5,0.0,0.0,-59.5,2019-10-29 16:51:09.9730+0000,-0.10048294067382812,0.0,0.0,0.0,false,36,-674,1204,22846,24.150000000000034,6,false,100,100,0,0,0,0,0,3807,3817,3808,3808,3804,3797,0.0,0.0,0.0,Started waypoint mission,
-24.56178055981286,150.0420281657989,0,0.0,0.0,15,5,0.0,0.0,-59.5,2019-10-29 16:51:10.0740+0000,-0.10029804706573486,0.0,0.0,0.0,false,36,-674,1204,22846,24.150000000000034,6,false,100,100,0,0,0,0,0,3807,3817,3808,3808,3804,3797,0.0,0.0,0.0,Started waypoint mission,
-24.56178055981286,150.0420281657989,0,0.0,0.0,15,5,0.0,0.0,-59.5,2019-10-29 16:51:10.2840+0000,-0.20896399021148682,0.0,0.0,0.0,false,36,-674,1204,22846,24.150000000000034,6,false,100,100,0,0,0,0,0,3807,3817,3808,3808,3804,3797,0.0,0.0,0.0,Started waypoint mission,
-24.56178055981286,150.0420281657989,0,0.0,0.0,15,5,0.0,0.0,-59.5,2019-10-29 16:51:10.2880+0000,-0.003722071647644043,0.0,0.0,0.0,false,36,-674,1204,22846,24.150000000000034,6,false,100,100,0,0,0,0,0,0,0,0,0,0,0,0.0,0.0,0.0,Started waypoint mission,
-24.56178055981286,150.0420281657989,0,0.0,0.0,15,5,0.0,0.0,-59.5,2019-10-29 16:51:10.3840+0000,-0.0944509506225586,0.0,0.0,0.0,false,36,-674,1204,22846,24.150000000000034,6,false,100,100,0,0,0,0,0,3807,3817,3808,3808,3804,3797,0.0,0.0,0.0,Started waypoint mission,
-24.56178055981286,150.0420281657989,0,0.0,0.0,15,5,0.0,0.0,-59.5,2019-10-29 16:51:10.4840+0000,-0.09916496276855469,0.0,0.0,0.0,false,36,-674,1204,22846,24.150000000000034,6,false,100,100,0,0,0,0,0,3807,3817,3808,3808,3804,3797,0.0,0.0,0.0,Started waypoint mission,
-24.56178055981286,150.0420281657989,0,0.0,0.0,15,5,0.0,0.0,-59.5,2019-10-29 16:51:10.5860+0000,-0.10068106651306152,0.0,0.0,0.0,false,36,-674,1204,22846,24.150000000000034,6,false,100,100,0,0,0,0,0,3807,3817,3808,3808,3804,3797,0.0,0.0,0.0,Started waypoint mission,
-24.56178055981286,150.0420281657989,0,0.0,0.0,15,5,0.0,0.0,-59.5,2019-10-29 16:51:10.6950+0000,-0.10852789878845215,0.0,0.0,0.0,false,36,-674,1204,22846,24.150000000000034,6,false,100,100,0,0,0,0,0,3807,3817,3808,3808,3804,3797,0.0,0.0,0.0,Started waypoint mission,
-24.56178055981286,150.0420281657989,0,0.0,0.0,15,5,0.0,0.0,-59.5,2019-10-29 16:51:10.7940+0000,-0.09784293174743652,0.0,0.0,0.0,false,36,-691,1204,22832,24.150000000000034,6,false,100,100,0,0,0,0,0,0,0,0,0,0,0,0.0,0.0,0.0,Started waypoint mission,
-24.56178055981286,150.0420281657989,0,0.0,0.0,15,5,0.0,0.0,-59.5,2019-10-29 16:51:10.8940+0000,-0.09868896007537842,0.0,0.0,0.0,false,36,-691,1204,22832,24.150000000000034,6,false,100,100,0,0,0,0,0,3807,3817,3808,3808,3804,3797,0.0,0.0,0.0,Started waypoint mission,
-24.56178055981286,150.0420281657989,0,0.0,0.0,15,5,0.0,0.0,-59.5,2019-10-29 16:51:10.9950+0000,-0.09943997859954834,0.0,0.0,0.0,false,36,-691,1204,22832,24.150000000000034,6,false,100,100,0,0,0,0,0,3807,3817,3808,3808,3804,3797,0.0,0.0,0.0,Started waypoint mission,
-24.56178055981286,150.0420281657989,0,0.0,0.0,15,5,0.0,0.0,-59.5,2019-10-29 16:51:11.0940+0000,-0.09776294231414795,0.0,0.0,0.0,false,36,-691,1204,22832,24.150000000000034,6,false,100,100,0,0,0,0,0,3807,3817,3808,3808,3804,3797,0.0,0.0,0.0,Started waypoint mission,
-24.56178055981286,150.0420281657989,0,0.0,0.0,15,5,0.0,0.0,-59.5,2019-10-29 16:51:11.2050+0000,-0.11080694198608398,0.0,0.0,0.0,false,36,-691,1204,22832,24.150000000000034,6,false,100,100,0,0,0,0,0,3807,3817,3808,3808,3804,3797,0.0,0.0,0.0,Started waypoint mission,
-24.56178055981286,150.0420281657989,0,0.0,0.0,15,5,0.0,0.0,-59.5,2019-10-29 16:51:11.3060+0000,-0.0989999771118164,0.0,0.0,0.0,false,36,-691,1204,22832,24.150000000000034,6,false,100,100,0,0,0,0,0,0,0,0,0,0,0,0.0,0.0,0.0,Started waypoint mission,
-24.56178055981286,150.0420281657989,0,0.0,0.0,15,5,0.0,0.0,-59.5,2019-10-29 16:51:11.4050+0000,-0.09821295738220215,0.0,0.0,0.0,false,36,-691,1204,22832,24.150000000000034,6,false,100,100,0,0,0,0,0,3806,3815,3805,3806,3804,3797,0.0,0.0,0.0,Started waypoint mission,
-24.56178055981286,150.0420281657989,0,0.0,0.0,15,5,0.0,0.0,-59.5,2019-10-29 16:51:11.5040+0000,-0.098114013671875,0.0,0.0,0.0,false,36,-691,1204,22832,24.150000000000034,6,false,100,100,0,0,0,0,0,3806,3815,3805,3806,3804,3797,0.0,0.0,0.0,Started waypoint mission,
-24.56178055981286,150.0420281657989,0,0.0,0.0,15,5,0.0,0.0,-59.5,2019-10-29 16:51:11.6140+0000,-0.10822796821594238,0.0,0.0,0.0,false,36,-691,1204,22832,24.150000000000034,11,false,100,100,0,0,0,0,0,3806,3815,3805,3806,3804,3797,0.0,0.0,0.0,Started waypoint mission,
-24.56178055981286,150.0420281657989,0,0.0,0.0,15,5,0.0,0.0,-59.5,2019-10-29 16:51:11.7140+0000,-0.0988149642944336,0.0,0.0,0.0,false,36,-691,1204,22832,24.150000000000034,11,false,100,100,0,0,0,0,0,3806,3815,3805,3806,3804,3797,0.0,0.0,0.0,Started waypoint mission,
-24.56178055981286,150.0420281657989,0,0.0,0.0,15,5,0.0,0.0,-59.5,2019-10-29 16:51:11.8140+0000,-0.09929001331329346,0.0,0.0,0.0,false,36,-691,1204,22832,24.150000000000034,11,false,100,100,0,0,0,0,0,0,0,0,0,0,0,0.0,0.0,0.0,Started waypoint mission,
-24.56178055981286,150.0420281657989,0,0.0,0.0,15,5,0.0,0.0,-59.5,2019-10-29 16:51:11.9140+0000,-0.0993649959564209,0.0,0.0,0.0,false,36,-691,1204,22832,24.150000000000034,11,false,100,100,0,0,0,0,0,3806,3815,3805,3806,3804,3797,0.0,0.0,0.0,Started waypoint mission,
-24.56178055981286,150.0420281657989,0,0.0,0.0,15,5,0.0,0.0,-59.5,2019-10-29 16:51:12.0140+0000,-0.09874296188354492,0.0,0.0,0.0,false,36,-691,1204,22832,24.150000000000034,11,false,100,100,0,0,0,0,0,3806,3815,3805,3806,3804,3797,0.0,0.0,0.0,Started waypoint mission,
-24.56178055981286,150.0420281657989,0,0.0,0.0,15,5,0.0,0.0,-59.5,2019-10-29 16:51:12.1250+0000,-0.10957098007202148,0.0,0.0,0.0,false,36,-691,1204,22832,24.150000000000034,11,false,100,100,0,0,0,0,0,3806,3815,3805,3806,3804,3797,0.0,0.0,0.0,Started waypoint mission,
-24.56178055981286,150.0420281657989,0,0.0,0.0,15,5,0.0,0.0,-59.5,2019-10-29 16:51:12.2250+0000,-0.09888303279876709,0.0,0.0,0.0,false,36,-691,1204,22832,24.150000000000034,11,false,100,100,0,0,0,0,0,3806,3815,3805,3806,3804,3797,0.0,0.0,0.0,Started waypoint mission,
-24.56178055981286,150.0420281657989,0,0.0,0.0,15,5,0.0,0.0,-59.5,2019-10-29 16:51:12.3260+0000,-0.09930503368377686,0.0,0.0,0.0,false,36,-699,1204,22827,24.150000000000034,11,false,100,100,0,0,0,0,0,3806,3815,3806,3806,3803,3795,0.0,0.0,0.0,Started waypoint mission,
-24.56178055981286,150.0420281657989,0,0.0,0.0,15,5,0.0,0.0,-59.5,2019-10-29 16:51:12.4240+0000,-0.09783399105072021,0.0,0.0,0.0,false,36,-699,1204,22827,24.150000000000034,11,false,100,100,0,0,0,0,0,3806,3815,3806,3806,3803,3795,0.0,0.0,0.0,Started waypoint mission,
-24.56178055981286,150.0420281657989,0,0.0,0.0,15,5,0.0,0.0,-59.5,2019-10-29 16:51:12.5260+0000,-0.0997689962387085,0.0,0.0,0.0,false,36,-699,1204,22827,24.150000000000034,11,false,100,100,0,0,0,0,0,3806,3815,3806,3806,3803,3795,0.0,0.0,0.0,Started waypoint mission,
-24.56178055981286,150.0420281657989,0,0.0,0.0,15,5,0.0,0.0,-59.5,2019-10-29 16:51:12.6230+0000,-0.09677600860595703,0.0,0.0,0.0,false,36,-699,1204,22827,24.150000000000034,11,false,100,100,0,0,0,0,0,3806,3815,3806,3806,3803,3795,0.0,0.0,0.0,Started waypoint mission,
-24.56178055981286,150.0420281657989,0,0.0,0.0,15,5,0.0,0.0,-59.5,2019-10-29 16:51:12.7350+0000,-0.11014902591705322,0.0,0.0,0.0,false,36,-699,1204,22827,24.150000000000034,11,false,100,100,0,0,0,0,0,3806,3815,3806,3806,3803,3795,0.0,0.0,0.0,Started waypoint mission,
-24.56178055981286,150.0420281657989,0,0.0,0.0,15,5,0.0,0.0,-59.5,2019-10-29 16:51:12.8350+0000,-0.0986480712890625,0.0,0.0,0.0,false,36,-699,1204,22827,24.150000000000034,11,false,100,100,0,0,0,0,0,3806,3815,3806,3806,3803,3795,0.0,0.0,0.0,Started waypoint mission,
-24.561780559813393,150.04202816580002,0,0.0,0.0,15,5,0.0,0.0,-59.5,2019-10-29 16:51:12.9340+0000,-0.09840202331542969,0.0,0.0,0.0,false,36,-699,1204,22827,24.150000000000034,11,false,100,100,0,0,0,0,0,3806,3815,3806,3806,3803,3795,0.0,0.0,0.0,Started waypoint mission,
-24.561780559815038,150.0420281658031,0,0.0,0.1,15,5,0.0,0.0,-59.5,2019-10-29 16:51:13.0360+0000,-0.10067999362945557,0.0,0.0,-0.1,true,36,-699,1204,22827,24.150000000000034,11,false,100,100,0,0,0,0,0,3806,3815,3806,3806,3803,3795,0.0,0.0,0.0,Started waypoint mission,
-24.56178055981771,150.042028165809,3000,0.0,0.2,15,5,0.0,0.0,-59.5,2019-10-29 16:51:13.1340+0000,-0.09707498550415039,0.0,0.0,-0.2,true,36,-699,1204,22827,24.150000000000034,11,false,100,100,0,0,0,0,0,3806,3815,3806,3806,3803,3795,0.0,0.0,0.0,Started waypoint mission,
-24.561780559820388,150.04202816581486,3000,0.0,0.2,15,5,0.0,0.0,-59.5,2019-10-29 16:51:13.2440+0000,-0.10920500755310059,0.0,0.0,-0.2,true,36,-699,1204,22827,24.150000000000034,11,false,100,100,0,0,0,0,0,3806,3815,3806,3806,3803,3795,0.0,0.0,0.0,Started waypoint mission,
-24.561780559823067,150.04202816582077,3000,0.0,0.3,15,5,0.0,0.0,-59.5,2019-10-29 16:51:13.3440+0000,-0.09870696067810059,0.0,0.0,-0.3,true,36,-689,1204,22828,24.150000000000034,11,false,100,100,0,0,0,0,0,3805,3815,3806,3806,3804,3794,0.0,0.0,0.0,Started waypoint mission,
-24.561780559824907,150.04202816582458,3000,0.1,0.3,15,5,0.0,0.0,-59.5,2019-10-29 16:51:13.4450+0000,-0.09909796714782715,0.0,0.0,-0.3,true,36,-689,1204,22828,24.150000000000034,11,false,100,100,0,0,0,0,0,3805,3815,3806,3806,3804,3794,0.0,0.0,0.0,Started waypoint mission,
-24.561780559826246,150.04202816582753,3000,0.1,0.3,15,5,0.0,0.0,-59.5,2019-10-29 16:51:13.5450+0000,-0.09875202178955078,0.0,0.0,-0.3,true,36,-689,1204,22828,24.150000000000034,11,false,100,100,0,0,0,0,0,3805,3815,3806,3806,3804,3794,0.0,0.0,0.0,Started waypoint mission,
-24.561780559827586,150.04202816583046,4000,0.1,0.4,15,5,0.0,0.0,-59.5,2019-10-29 16:51:13.6450+0000,-0.09889698028564453,0.0,0.0,-0.4,true,36,-689,1204,22828,24.150000000000034,11,false,100,100,0,0,0,0,0,3805,3815,3806,3806,3804,3794,0.0,0.0,0.0,Started waypoint mission,
-24.56178055982892,150.04202816583341,4000,0.2,0.4,15,5,0.0,0.0,-59.5,2019-10-29 16:51:13.7550+0000,-0.1085360050201416,0.0,0.0,-0.4,true,36,-689,1204,22828,24.150000000000034,11,false,100,100,0,0,0,0,0,3805,3815,3806,3806,3804,3794,0.0,0.0,0.0,Started waypoint mission,
-24.56178055983026,150.04202816583637,4000,0.2,0.4,15,5,0.0,0.0,-59.5,2019-10-29 16:51:13.8540+0000,-0.09874606132507324,0.0,0.0,-0.4,true,36,-689,1204,22828,24.150000000000034,11,false,100,100,0,0,0,0,0,3805,3815,3806,3806,3804,3794,0.0,0.0,0.0,Started waypoint mission,
-24.5617805598316,150.0420281658393,4000,0.30000000000000004,0.4,15,5,0.0,0.0,-59.5,2019-10-29 16:51:13.9550+0000,-0.0988539457321167,0.0,0.0,-0.4,true,36,-689,1204,22828,24.150000000000034,11,false,100,100,0,0,0,0,0,3805,3815,3806,3806,3804,3794,0.0,0.0,0.0,Started waypoint mission,
-24.56178055983294,150.04202816584225,4000,0.30000000000000004,0.4,15,5,0.0,0.0,-59.5,2019-10-29 16:51:14.0560+0000,-0.10068309307098389,0.0,0.0,-0.4,true,36,-689,1204,22828,24.150000000000034,11,false,100,100,0,0,0,0,0,3805,3815,3806,3806,3804,3794,0.0,0.0,0.0,Started waypoint mission,
-24.56178055983304,150.0420281658423,4000,0.4,0.5,15,5,0.0,0.0,-59.5,2019-10-29 16:51:14.1540+0000,-0.09741497039794922,0.0,0.0,-0.5,true,36,-689,1204,22828,24.150000000000034,11,false,100,100,0,0,0,0,0,3805,3815,3806,3806,3804,3794,0.0,0.0,0.0,Started waypoint mission,
-24.56178055983304,150.0420281658423,4000,0.4,0.5,15,5,0.0,0.0,-59.5,2019-10-29 16:51:14.2650+0000,-0.10934901237487793,0.0,0.0,-0.5,true,36,-689,1204,22828,24.150000000000034,11,false,100,100,0,0,0,0,0,3805,3815,3806,3806,3804,3794,0.0,0.0,0.0,Started waypoint mission,
-24.56178055983304,150.0420281658423,4000,0.5,0.5,15,5,0.0,0.0,-59.5,2019-10-29 16:51:14.3700+0000,-0.10435295104980469,0.0,0.0,-0.5,true,36,-666,1204,22838,24.150000000000034,11,false,100,100,0,0,0,0,0,3807,3817,3807,3806,3804,3796,0.0,0.0,0.0,Started waypoint mission,
-24.56178055983304,150.0420281658423,4000,0.5,0.5,15,5,0.0,0.0,-59.5,2019-10-29 16:51:14.3740+0000,-0.00229799747467041,0.0,0.0,-0.5,true,36,-666,1204,22838,24.150000000000034,11,false,100,100,0,0,0,0,0,3807,3817,3807,3806,3804,3796,0.0,0.0,0.0,Started waypoint mission,
-24.56178055983304,150.0420281658423,4000,0.6000000000000001,0.5,15,5,0.0,0.0,-59.5,2019-10-29 16:51:14.5640+0000,-0.18973195552825928,0.0,0.0,-0.5,true,36,-666,1204,22838,24.150000000000034,11,false,100,100,0,0,0,0,0,3807,3817,3807,3806,3804,3796,0.0,0.0,0.0,Started waypoint mission,
-24.56178055983304,150.0420281658423,5000,0.6000000000000001,0.5,15,5,0.0,0.0,-59.5,2019-10-29 16:51:14.6650+0000,-0.09950792789459229,0.0,0.0,-0.5,true,36,-666,1204,22838,24.150000000000034,11,false,100,100,0,0,0,0,0,3807,3817,3807,3806,3804,3796,0.0,0.0,0.0,Started waypoint mission,
-24.56178055983304,150.0420281658423,5000,0.7000000000000001,0.5,15,5,0.0,0.0,-59.5,2019-10-29 16:51:14.7740+0000,-0.1079639196395874,0.0,0.0,-0.5,true,36,-666,1204,22838,24.150000000000034,11,false,100,100,0,0,0,0,0,3807,3817,3807,3806,3804,3796,0.0,0.0,0.0,Started waypoint mission,
-24.56178055983304,150.0420281658423,5000,0.8,0.5,15,5,0.0,0.0,-59.5,2019-10-29 16:51:14.8730+0000,-0.0984039306640625,0.0,0.0,-0.5,true,36,-666,1204,22838,24.150000000000034,11,false,100,100,0,0,0,0,0,3807,3817,3807,3806,3804,3796,0.0,0.0,0.0,Started waypoint mission,
-24.56178055983304,150.0420281658423,5000,0.8,0.5,15,5,0.0,0.0,-59.5,2019-10-29 16:51:14.8750+0000,-0.0009109973907470703,0.0,0.0,-0.5,true,36,-666,1204,22838,24.150000000000034,11,false,100,100,0,0,0,0,0,3807,3817,3807,3806,3804,3796,0.0,0.0,0.0,Started waypoint mission,
-24.56178055983304,150.0420281658423,5000,0.9,0.5,15,5,0.0,0.0,-59.5,2019-10-29 16:51:14.9770+0000,-0.10110700130462646,0.0,0.0,-0.5,true,36,-666,1204,22838,24.150000000000034,11,false,100,100,0,0,0,0,0,3807,3817,3807,3806,3804,3796,0.0,0.0,0.0,Started waypoint mission,
-24.56178055983304,150.0420281658423,5000,0.9,0.4,15,5,0.0,0.0,-59.5,2019-10-29 16:51:15.0830+0000,-0.10573399066925049,0.0,0.0,-0.4,true,36,-666,1204,22838,24.150000000000034,14,false,100,100,0,0,0,0,0,3807,3817,3807,3806,3804,3796,0.0,0.0,0.0,Started waypoint mission,
-24.56178055983304,150.0420281658423,5000,1.0,0.4,15,5,0.0,0.0,-59.5,2019-10-29 16:51:15.1860+0000,-0.10140299797058105,0.0,0.0,-0.4,true,36,-666,1204,22838,24.150000000000034,14,false,100,100,0,0,0,0,0,3807,3817,3807,3806,3804,3796,0.0,0.0,0.0,Started waypoint mission,
-24.56178055983304,150.0420281658423,5000,1.0,0.8,15,5,0.0,0.0,-59.5,2019-10-29 16:51:15.2870+0000,-0.09949100017547607,0.0,0.0,-0.8,true,36,-672,1204,22836,24.150000000000034,14,false,100,100,0,0,0,0,0,0,0,0,0,0,0,0.0,0.0,0.0,Started waypoint mission,
-24.56178055983304,150.0420281658423,5000,1.1,1.1,15,5,0.0,0.0,-59.5,2019-10-29 16:51:15.3850+0000,-0.09696996212005615,0.0,0.0,-1.1,true,36,-672,1204,22836,24.150000000000034,14,false,100,100,0,0,0,0,0,3806,3817,3806,3807,3803,3795,0.0,0.0,0.0,Started waypoint mission,
-24.56178055983304,150.0420281658423,5000,1.3,1.3,15,5,0.0,0.0,-59.5,2019-10-29 16:51:15.4850+0000,-0.09885501861572266,0.0,0.0,-1.3,true,36,-672,1204,22836,24.150000000000034,14,false,100,100,0,0,0,0,0,3806,3817,3806,3807,3803,3795,0.0,0.0,0.0,Started waypoint mission,
-24.56178055983304,150.0420281658423,6000,1.4000000000000001,1.4,15,5,0.0,0.0,-59.5,2019-10-29 16:51:15.5840+0000,-0.09860110282897949,0.0,0.0,-1.4,true,36,-672,1204,22836,24.150000000000034,14,false,100,100,0,0,0,0,0,3806,3817,3806,3807,3803,3795,0.0,0.0,0.0,Started waypoint mission,
-24.56178055983304,150.0420281658423,6000,1.5,1.4,15,5,0.0,0.0,-59.5,2019-10-29 16:51:15.6850+0000,-0.09918797016143799,0.0,0.0,-1.4,true,36,-672,1204,22836,24.150000000000034,14,false,100,100,0,0,0,0,0,3806,3817,3806,3807,3803,3795,0.0,0.0,0.0,Started waypoint mission,
-24.56178055983304,150.0420281658423,6000,1.7000000000000002,1.3,15,5,0.0,0.0,-59.5,2019-10-29 16:51:15.7960+0000,-0.10960805416107178,0.0,0.0,-1.3,true,36,-672,1204,22836,24.150000000000034,14,false,100,100,0,0,0,0,0,0,0,0,0,0,0,0.0,0.0,0.0,Started waypoint mission,
-24.56178055983304,150.0420281658423,6000,1.8,1.3,15,5,0.0,0.0,-59.5,2019-10-29 16:51:15.8950+0000,-0.09814298152923584,0.0,0.0,-1.3,true,36,-672,1204,22836,24.150000000000034,14,false,100,100,0,0,0,0,0,3806,3817,3806,3807,3803,3795,0.0,0.0,0.0,Started waypoint mission,
-24.56178055983304,150.0420281658423,6000,2.0,1.3,15,5,0.0,0.0,-59.5,2019-10-29 16:51:16.0000+0000,-0.10466790199279785,0.0,0.0,-1.3,true,36,-672,1204,22836,24.150000000000034,14,false,100,100,0,0,0,0,0,3806,3817,3806,3807,3803,3795,0.0,0.0,0.0,Started waypoint mission,
-24.56178055983304,150.0420281658423,6000,2.1,1.4,15,5,0.0,0.0,-59.5,2019-10-29 16:51:16.0950+0000,-0.09328305721282959,0.0,0.0,-1.4,true,36,-672,1204,22836,24.150000000000034,14,false,100,100,0,0,0,0,0,3806,3817,3806,3807,3803,3795,0.0,0.0,0.0,Started waypoint mission,
-24.56178055983304,150.0420281658423,6000,2.2,1.6,15,5,0.0,0.0,-59.5,2019-10-29 16:51:16.2050+0000,-0.10914301872253418,0.0,0.0,-1.6,true,36,-672,1204,22836,24.150000000000034,14,false,100,100,0,0,0,0,0,3806,3817,3806,3807,3803,3795,0.0,0.0,0.0,Started waypoint mission,
-24.56178055983304,150.0420281658423,6000,2.4000000000000004,1.7,15,5,0.0,0.0,-59.5,2019-10-29 16:51:16.3050+0000,-0.09950602054595947,0.0,0.0,-1.7,true,36,-685,1204,22832,24.150000000000034,14,false,100,100,0,0,0,0,0,0,0,0,0,0,0,0.0,0.0,0.0,Started waypoint mission,
-24.56178055983304,150.0420281658423,6000,2.6,1.9,15,5,0.0,0.0,-59.5,2019-10-29 16:51:16.4050+0000,-0.09847402572631836,0.0,0.0,-1.9,true,36,-685,1204,22832,24.150000000000034,14,false,100,100,0,0,0,0,0,3806,3817,3806,3807,3803,3795,0.0,0.0,0.0,Started waypoint mission,
-24.56178055983304,150.0420281658423,6000,2.8000000000000003,2.1,15,5,0.0,0.0,-59.5,2019-10-29 16:51:16.5120+0000,-0.10607492923736572,0.0,0.0,-2.1,true,36,-685,1204,22832,24.150000000000034,14,false,100,100,0,0,0,0,0,3806,3817,3806,3807,3803,3795,0.0,0.0,0.0,Started waypoint mission,
-24.56178055983304,150.0420281658423,7000,3.0,2.3,15,5,0.0,0.0,-59.5,2019-10-29 16:51:16.6040+0000,-0.0909949541091919,0.0,0.0,-2.3,true,36,-685,1204,22832,24.150000000000034,14,false,100,100,0,0,0,0,0,3806,3817,3806,3807,3803,3795,0.0,0.0,0.0,Started waypoint mission,
-24.56178055983304,150.0420281658423,7000,3.3000000000000003,2.5,15,5,0.0,0.0,-59.5,2019-10-29 16:51:16.7150+0000,-0.10948300361633301,0.0,0.0,-2.5,true,36,-685,1204,22832,24.150000000000034,14,false,100,100,0,0,0,0,0,3806,3817,3806,3807,3803,3795,0.0,0.0,0.0,Started waypoint mission,
-24.56178055983304,150.0420281658423,7000,3.6,2.7,15,5,0.0,0.0,-59.5,2019-10-29 16:51:16.8150+0000,-0.09934592247009277,0.0,0.0,-2.7,true,36,-685,1204,22832,24.150000000000034,14,false,100,100,0,0,0,0,0,0,0,0,0,0,0,0.0,0.0,0.0,Started waypoint mission,
-24.56178055983304,150.0420281658423,7000,3.8000000000000003,2.8,15,5,0.0,0.0,-59.5,2019-10-29 16:51:16.9140+0000,-0.09833204746246338,0.0,0.0,-2.8,true,36,-685,1204,22832,24.150000000000034,14,false,100,100,0,0,0,0,0,3806,3816,3806,3806,3803,3795,0.0,0.0,0.0,Started waypoint mission,
-24.56178055983304,150.0420281658423,7000,4.1000000000000005,2.9,15,5,0.0,0.0,-59.5,2019-10-29 16:51:17.0140+0000,-0.0992898941040039,0.0,0.0,-2.9,true,36,-685,1204,22832,24.150000000000034,14,false,100,100,0,0,0,0,0,3806,3816,3806,3806,3803,3795,0.0,0.0,0.0,Started waypoint mission,
-24.56178055983304,150.0420281658423,7000,4.4,2.9,15,5,0.0,0.0,-59.5,2019-10-29 16:51:17.1260+0000,-0.11022698879241943,0.0,0.0,-2.9,true,36,-685,1204,22832,24.150000000000034,14,false,100,100,0,0,0,0,0,3806,3816,3806,3806,3803,3795,0.0,0.0,0.0,Started waypoint mission,
-24.56178055983304,150.0420281658423,7000,4.7,3.0,15,5,0.0,0.0,-59.5,2019-10-29 16:51:17.2250+0000,-0.09784305095672607,0.0,0.0,-3.0,true,36,-685,1204,22832,24.150000000000034,14,false,100,100,0,0,0,0,0,3806,3816,3806,3806,3803,3795,0.0,0.0,0.0,Started waypoint mission,
-24.56178055983304,150.0420281658423,7000,5.0,3.0,15,5,0.0,0.0,-59.5,2019-10-29 16:51:17.3240+0000,-0.09821605682373047,0.0,0.0,-3.0,true,36,-685,1204,22832,24.150000000000034,14,false,100,100,0,0,0,0,0,3806,3816,3806,3806,3803,3795,0.0,0.0,0.0,Started waypoint mission,
-24.56178055983304,150.0420281658423,7000,5.300000000000001,3.0,15,5,0.0,0.0,-59.5,2019-10-29 16:51:17.4240+0000,-0.099526047706604,0.0,0.0,-3.0,true,36,-685,1204,22832,24.150000000000034,14,false,100,100,0,0,0,0,0,3806,3816,3806,3806,3803,3795,0.0,0.0,0.0,Started waypoint mission,
-24.56178055983304,150.0420281658423,7000,5.6000000000000005,3.0,15,5,0.0,0.0,-59.5,2019-10-29 16:51:17.5330+0000,-0.10840499401092529,0.0,0.0,-3.0,true,36,-685,1204,22832,24.150000000000034,14,false,100,100,0,0,0,0,0,3806,3816,3806,3806,3803,3795,0.0,0.0,0.0,Started waypoint mission,
-24.56178055983304,150.0420281658423,8000,6.0,3.1,15,5,0.0,0.0,-59.5,2019-10-29 16:51:17.6350+0000,-0.10112905502319336,0.0,0.0,-3.1,true,36,-685,1204,22832,24.150000000000034,14,false,100,100,0,0,0,0,0,3806,3816,3806,3806,3803,3795,0.0,0.0,0.0,Started waypoint mission,
-24.56178055983304,150.0420281658423,8000,6.300000000000001,3.1,15,5,0.0,0.0,-59.5,2019-10-29 16:51:17.7350+0000,-0.0990380048751831,0.0,0.0,-3.1,true,36,-685,1204,22832,24.150000000000034,14,false,100,100,0,0,0,0,0,3806,3816,3806,3806,3803,3795,0.0,0.0,0.0,Started waypoint mission,
-24.56178055983304,150.0420281658423,8000,6.6000000000000005,3.1,15,5,0.0,0.0,-59.5,2019-10-29 16:51:17.8350+0000,-0.09860897064208984,0.0,0.0,-3.1,true,36,-672,1204,22834,24.150000000000034,14,false,100,100,0,0,0,0,0,3807,3816,3807,3807,3803,3796,0.0,0.0,0.0,Started waypoint mission,
-24.56178055983304,150.0420281658423,8000,6.9,3.1,15,5,0.0,0.0,-59.5,2019-10-29 16:51:17.9360+0000,-0.09951901435852051,0.0,0.0,-3.1,true,36,-672,1204,22834,24.150000000000034,14,false,100,100,0,0,0,0,0,3807,3816,3807,3807,3803,3796,0.0,0.0,0.0,Started waypoint mission,
-24.56178055983304,150.0420281658423,8000,7.2,3.1,15,5,0.0,0.0,-59.5,2019-10-29 16:51:18.0370+0000,-0.0998690128326416,0.0,0.0,-3.1,true,36,-672,1204,22834,24.150000000000034,14,false,100,100,0,0,0,0,0,3807,3816,3807,3807,3803,3796,0.0,0.0,0.0,Started waypoint mission,
-24.56178055983304,150.0420281658423,8000,7.5,3.1,15,5,0.0,0.0,-59.5,2019-10-29 16:51:18.1460+0000,-0.10814201831817627,0.0,0.0,-3.1,true,36,-672,1204,22834,24.150000000000034,14,false,100,100,0,0,0,0,0,3807,3816,3807,3807,3803,3796,0.0,0.0,0.0,Started waypoint mission,
-24.56178055983304,150.0420281658423,8000,7.800000000000001,3.0,15,5,0.0,0.0,-59.5,2019-10-29 16:51:18.2450+0000,-0.09859097003936768,0.0,0.0,-3.0,true,36,-672,1204,22834,24.150000000000034,14,false,100,100,0,0,0,0,0,3807,3816,3807,3807,3803,3796,0.0,0.0,0.0,Started waypoint mission,
-24.56178055983304,150.0420281658423,8000,8.1,3.0,15,5,0.0,0.0,-59.5,2019-10-29 16:51:18.3440+0000,-0.09702897071838379,0.0,0.0,-3.0,true,36,-672,1204,22834,24.150000000000034,14,false,100,100,0,0,0,0,0,3807,3816,3807,3807,3803,3796,0.0,0.0,0.0,Started waypoint mission,
-24.56178055983304,150.0420281658423,8000,8.4,3.0,15,5,0.0,0.0,-59.5,2019-10-29 16:51:18.4450+0000,-0.09869098663330078,0.0,0.0,-3.0,true,36,-672,1204,22834,24.150000000000034,14,false,100,100,0,0,0,0,0,3807,3816,3807,3807,3803,3796,0.0,0.0,0.0,Started waypoint mission,
-24.56178055983304,150.0420281658423,8000,8.700000000000001,3.0,15,5,0.0,0.0,-59.5,2019-10-29 16:51:18.5540+0000,-0.10813093185424805,0.0,0.0,-3.0,true,36,-672,1204,22834,24.150000000000034,14,false,100,100,0,0,0,0,0,3807,3816,3807,3807,3803,3796,0.0,0.0,0.0,Started waypoint mission,
-24.56178055983304,150.0420281658423,9000,9.1,3.0,15,5,0.0,0.0,-59.5,2019-10-29 16:51:18.6550+0000,-0.1001429557800293,0.0,0.0,-3.0,true,36,-672,1204,22834,24.150000000000034,14,false,100,100,0,0,0,0,0,3807,3816,3807,3807,3803,3796,0.0,0.0,0.0,Started waypoint mission,
-24.56178055983304,150.0420281658423,9000,9.4,3.0,15,5,0.0,0.0,-59.5,2019-10-29 16:51:18.7550+0000,-0.09824395179748535,0.0,0.0,-3.0,true,36,-672,1204,22834,24.150000000000034,14,false,100,100,0,0,0,0,0,3807,3816,3807,3807,3803,3796,0.0,0.0,0.0,Started waypoint mission,
-24.56178055983304,150.0420281658423,9000,9.700000000000001,3.0,15,5,0.0,0.0,-59.5,2019-10-29 16:51:18.8550+0000,-0.09956896305084229,0.0,0.0,-3.0,true,36,-680,1204,22830,24.150000000000034,14,false,100,100,0,0,0,0,0,3806,3816,3806,3805,3802,3796,0.0,0.0,0.0,Started waypoint mission,
-24.56178055983304,150.0420281658423,9000,10.0,3.0,15,5,0.0,0.0,-59.5,2019-10-29 16:51:18.9580+0000,-0.10128402709960938,0.0,0.0,-3.0,true,36,-680,1204,22830,24.150000000000034,14,false,100,100,0,0,0,0,0,3806,3816,3806,3805,3802,3796,0.0,0.0,0.0,Started waypoint mission,
-24.56178055983304,150.0420281658423,9000,10.3,3.0,15,5,0.0,0.0,-59.5,2019-10-29 16:51:19.0610+0000,-0.10248899459838867,0.0,0.0,-3.0,true,36,-680,1204,22830,24.150000000000034,14,false,100,100,0,0,0,0,0,3806,3816,3806,3805,3802,3796,0.0,0.0,0.0,Started waypoint mission,
-24.56178055983304,150.0420281658423,9000,10.600000000000001,3.0,15,5,0.0,0.0,-59.5,2019-10-29 16:51:19.1650+0000,-0.10332190990447998,0.0,0.0,-3.0,true,36,-680,1204,22830,24.150000000000034,14,false,100,100,0,0,0,0,0,3806,3816,3806,3805,3802,3796,0.0,0.0,0.0,Started waypoint mission,
-24.56178055983304,150.0420281658423,9000,10.9,3.0,15,5,0.0,0.0,-59.5,2019-10-29 16:51:19.2650+0000,-0.09844005107879639,0.0,0.0,-3.0,true,36,-680,1204,22830,24.150000000000034,14,false,100,100,0,0,0,0,0,3806,3816,3806,3805,3802,3796,0.0,0.0,0.0,Started waypoint mission,
-24.56178055983304,150.0420281658423,9000,11.200000000000001,3.0,15,5,0.0,0.0,-59.5,2019-10-29 16:51:19.3710+0000,-0.10568201541900635,0.0,0.0,-3.0,true,36,-680,1204,22830,24.150000000000034,14,false,100,100,0,0,0,0,0,3806,3816,3806,3805,3802,3796,0.0,0.0,0.0,Started waypoint mission,
-24.56178055983304,150.0420281658423,9000,11.5,3.0,15,5,0.0,0.0,-59.5,2019-10-29 16:51:19.4650+0000,-0.09276401996612549,0.0,0.0,-3.0,true,36,-680,1204,22830,24.150000000000034,14,false,100,100,0,0,0,0,0,3806,3816,3806,3805,3802,3796,0.0,0.0,0.0,Started waypoint mission,
-24.56178055983304,150.0420281658423,9000,11.8,3.0,15,5,0.0,0.0,-59.5,2019-10-29 16:51:19.5650+0000,-0.09874093532562256,0.0,0.0,-3.0,true,36,-680,1204,22830,24.150000000000034,14,false,100,100,0,0,0,0,0,3806,3816,3806,3805,3802,3796,0.0,0.0,0.0,Started waypoint mission,
-24.56178055983304,150.0420281658423,10000,12.100000000000001,3.0,15,5,0.0,0.0,-59.5,2019-10-29 16:51:19.6750+0000,-0.10875308513641357,0.0,0.0,-3.0,true,36,-680,1204,22830,24.150000000000034,14,false,100,100,0,0,0,0,0,3806,3816,3806,3805,3802,3796,0.0,0.0,0.0,Started waypoint mission,
-24.56178055983304,150.0420281658423,10000,12.4,3.0,15,5,0.0,0.0,-59.5,2019-10-29 16:51:19.6770+0000,-0.0011019706726074219,0.0,0.0,-3.0,true,36,-680,1204,22830,24.150000000000034,14,false,100,100,0,0,0,0,0,3806,3816,3806,3805,3802,3796,0.0,0.0,0.0,Started waypoint mission,
-24.56178055983304,150.0420281658423,10000,12.700000000000001,3.0,15,5,0.0,0.0,-59.5,2019-10-29 16:51:19.8740+0000,-0.19539201259613037,0.0,0.0,-3.0,true,36,-682,1204,22833,24.150000000000034,14,false,100,100,0,0,0,0,0,3807,3816,3805,3806,3802,3796,0.0,0.0,0.0,Started waypoint mission,
-24.56178055983304,150.0420281658423,10000,13.0,3.0,15,5,0.0,0.0,-59.5,2019-10-29 16:51:19.8750+0000,-0.0008640289306640625,0.0,0.0,-3.0,true,36,-682,1204,22833,24.150000000000034,14,false,100,100,0,0,0,0,0,3807,3816,3805,3806,3802,3796,0.0,0.0,0.0,Started waypoint mission,
-24.56178055983304,150.0420281658423,10000,13.3,3.0,15,5,0.0,0.0,-59.5,2019-10-29 16:51:19.9750+0000,-0.09904491901397705,0.0,0.0,-3.0,true,36,-682,1204,22833,24.150000000000034,14,false,100,100,0,0,0,0,0,3807,3816,3805,3806,3802,3796,0.0,0.0,0.0,Started waypoint mission,
-24.56178055983304,150.0420281658423,10000,13.600000000000001,3.0,15,5,0.0,0.0,-59.5,2019-10-29 16:51:20.0740+0000,-0.09880197048187256,0.0,0.0,-3.0,true,36,-682,1204,22833,24.150000000000034,14,false,100,100,0,0,0,0,0,3807,3816,3805,3806,3802,3796,0.0,0.0,0.0,Started waypoint mission,
-24.56178055983304,150.0420281658423,10000,13.9,3.0,15,5,0.0,0.0,-59.5,2019-10-29 16:51:20.1850+0000,-0.11042606830596924,0.0,0.0,-3.0,true,36,-682,1204,22833,24.150000000000034,14,false,100,100,0,0,0,0,0,3807,3816,3805,3806,3802,3796,0.0,0.0,0.0,Started waypoint mission,
-24.56178055983304,150.0420281658423,10000,14.200000000000001,3.0,15,5,0.0,0.0,-59.5,2019-10-29 16:51:20.2860+0000,-0.09923005104064941,0.0,0.0,-3.0,true,36,-682,1204,22833,24.150000000000034,14,false,100,100,0,0,0,0,0,0,0,0,0,0,0,0.0,0.0,0.0,Started waypoint mission,
-24.56178055983304,150.0420281658423,10000,14.5,3.0,15,5,0.0,0.0,-59.5,2019-10-29 16:51:20.3850+0000,-0.09781503677368164,0.0,0.0,-3.0,true,36,-682,1204,22833,24.150000000000034,14,false,100,100,0,0,0,0,0,3807,3816,3805,3806,3802,3796,0.0,0.0,0.0,Started waypoint mission,
-24.56178055983304,150.0420281658423,10000,14.8,3.0,15,5,0.0,0.0,-59.5,2019-10-29 16:51:20.4930+0000,-0.10729503631591797,0.0,0.0,-3.0,true,36,-682,1204,22833,24.150000000000034,14,false,100,100,0,0,0,0,0,3807,3816,3805,3806,3802,3796,0.0,0.0,0.0,Started waypoint mission,
-24.56178055983304,150.0420281658423,11000,15.100000000000001,3.0,15,5,0.0,0.0,-59.5,2019-10-29 16:51:20.5870+0000,-0.09265792369842529,0.0,0.0,-3.0,true,36,-682,1204,22833,24.150000000000034,14,false,100,100,0,0,0,0,0,3807,3816,3805,3806,3802,3796,0.0,0.0,0.0,Started waypoint mission,
-24.56178055983304,150.0420281658423,11000,15.4,3.0,15,5,0.0,0.0,-59.5,2019-10-29 16:51:20.6960+0000,-0.10789501667022705,0.0,0.0,-3.0,true,36,-682,1204,22833,24.150000000000034,14,false,100,100,0,0,0,0,0,3807,3816,3805,3806,3802,3796,0.0,0.0,0.0,Started waypoint mission,
-24.56178055983304,150.0420281658423,11000,15.700000000000001,3.0,15,5,0.0,0.0,-59.5,2019-10-29 16:51:20.7950+0000,-0.09898507595062256,0.0,0.0,-3.0,true,36,-695,1204,22829,24.150000000000034,14,false,100,100,0,0,0,0,0,0,0,0,0,0,0,0.0,0.0,0.0,Started waypoint mission,
-24.56178055983304,150.0420281658423,11000,16.1,3.0,15,5,0.0,0.0,-59.5,2019-10-29 16:51:20.8960+0000,-0.09916496276855469,0.0,0.0,-3.0,true,36,-695,1204,22829,24.150000000000034,14,false,100,100,0,0,0,0,0,3806,3815,3805,3805,3802,3795,0.0,0.0,0.0,Started waypoint mission,
-24.56178055983304,150.0420281658423,11000,16.400000000000002,3.0,15,5,0.0,0.0,-59.5,2019-10-29 16:51:20.9950+0000,-0.09882104396820068,0.0,0.0,-3.0,true,36,-695,1204,22829,24.150000000000034,14,false,100,100,0,0,0,0,0,3806,3815,3805,3805,3802,3795,0.0,0.0,0.0,Started waypoint mission,
-24.56178055983304,150.0420281658423,11000,16.7,3.0,15,5,0.0,0.0,-59.5,2019-10-29 16:51:21.0940+0000,-0.09734809398651123,0.0,0.0,-3.0,true,36,-695,1204,22829,24.150000000000034,14,false,100,100,0,0,0,0,0,3806,3815,3805,3805,3802,3795,0.0,0.0,0.0,Started waypoint mission,
-24.56178055983304,150.0420281658423,11000,17.0,3.0,15,5,0.0,0.0,-59.5,2019-10-29 16:51:21.2060+0000,-0.11171197891235352,0.0,0.0,-3.0,true,36,-695,1204,22829,24.150000000000034,14,false,100,100,0,0,0,0,0,3806,3815,3805,3805,3802,3795,0.0,0.0,0.0,Started waypoint mission,
-24.56178055983304,150.0420281658423,11000,17.3,3.0,15,5,0.0,0.0,-59.5,2019-10-29 16:51:21.3060+0000,-0.09794998168945312,0.0,0.0,-3.0,true,36,-695,1204,22829,24.150000000000034,14,false,100,100,0,0,0,0,0,0,0,0,0,0,0,0.0,0.0,0.0,Started waypoint mission,
-24.56178055983304,150.0420281658423,11000,17.6,3.0,15,5,0.0,0.0,-59.5,2019-10-29 16:51:21.4060+0000,-0.09890091419219971,0.0,0.0,-3.0,true,36,-695,1204,22829,24.150000000000034,14,false,100,100,0,0,0,0,0,3806,3815,3805,3805,3802,3795,0.0,0.0,0.0,Started waypoint mission,
-24.56178055983304,150.0420281658423,11000,17.900000000000002,3.0,15,5,0.0,0.0,-59.5,2019-10-29 16:51:21.5060+0000,-0.09861397743225098,0.0,0.0,-3.0,true,36,-695,1204,22829,24.150000000000034,14,false,100,100,0,0,0,0,0,3806,3815,3805,3805,3802,3795,0.0,0.0,0.0,Started waypoint mission,
-24.56178055983304,150.0420281658423,12000,18.2,3.0,15,5,0.0,0.0,-59.5,2019-10-29 16:51:21.6050+0000,-0.09871900081634521,0.0,0.0,-3.0,true,36,-695,1204,22829,24.150000000000034,14,false,100,100,0,0,0,0,0,3806,3815,3805,3805,3802,3795,0.0,0.0,0.0,Started waypoint mission,
-24.56178055983304,150.0420281658423,12000,18.5,3.0,15,5,0.0,0.0,-59.5,2019-10-29 16:51:21.7060+0000,-0.09939694404602051,0.0,0.0,-3.0,true,36,-695,1204,22829,24.150000000000034,14,false,100,100,0,0,0,0,0,3806,3815,3805,3805,3802,3795,0.0,0.0,0.0,Started waypoint mission,
-24.56178055983304,150.0420281658423,12000,18.8,3.0,15,5,0.0,0.0,-59.5,2019-10-29 16:51:21.8160+0000,-0.10889089107513428,0.0,0.0,-3.0,true,36,-674,1204,22828,24.150000000000034,14,false,100,100,0,0,0,0,0,0,0,0,0,0,0,0.0,0.0,0.0,Started waypoint mission,
-24.56178055983304,150.0420281658423,12000,19.1,3.0,15,5,0.0,0.0,-59.5,2019-10-29 16:51:21.9160+0000,-0.09897899627685547,0.0,0.0,-3.0,true,36,-674,1204,22828,24.150000000000034,14,false,100,100,0,0,0,0,0,3806,3815,3805,3805,3802,3795,0.0,0.0,0.0,Started waypoint mission,
-24.56178055983304,150.0420281658423,12000,19.400000000000002,3.0,15,5,0.0,0.0,-59.5,2019-10-29 16:51:22.0160+0000,-0.09847509860992432,0.0,0.0,-3.0,true,36,-674,1204,22828,24.150000000000034,14,false,100,100,0,0,0,0,0,3806,3815,3805,3805,3802,3795,0.0,0.0,0.0,Started waypoint mission,
-24.56178055983304,150.0420281658423,12000,19.700000000000003,3.0,15,5,0.0,0.0,-59.5,2019-10-29 16:51:22.1150+0000,-0.09853804111480713,0.0,0.0,-3.0,true,36,-674,1204,22828,24.150000000000034,14,false,100,100,0,0,0,0,0,3806,3815,3805,3805,3802,3795,0.0,0.0,0.0,Started waypoint mission,
-24.56178055983304,150.0420281658423,12000,20.0,3.0,15,5,0.0,0.0,-59.5,2019-10-29 16:51:22.2260+0000,-0.10964608192443848,0.0,0.0,-3.0,true,36,-674,1204,22828,24.150000000000034,14,false,100,100,0,0,0,0,0,3806,3815,3805,3805,3802,3795,0.0,0.0,0.0,Started waypoint mission,
-24.56178055983304,150.0420281658423,12000,20.3,3.0,15,5,0.0,0.0,-59.5,2019-10-29 16:51:22.3270+0000,-0.10002899169921875,0.0,0.0,-3.0,true,36,-674,1204,22828,24.150000000000034,14,false,100,100,0,0,0,0,0,3806,3815,3805,3806,3803,3795,0.0,0.0,0.0,Started waypoint mission,
-24.56178055983304,150.0420281658423,12000,20.6,3.0,15,5,0.0,0.0,-59.5,2019-10-29 16:51:22.4250+0000,-0.09700798988342285,0.0,0.0,-3.0,true,36,-674,1204,22828,24.150000000000034,14,false,100,100,0,0,0,0,0,3806,3815,3805,3806,3803,3795,0.0,0.0,0.0,Started waypoint mission,
-24.56178055983304,150.0420281658423,12000,20.900000000000002,3.0,15,5,0.0,0.0,-59.5,2019-10-29 16:51:22.5260+0000,-0.09963500499725342,0.0,0.0,-3.0,true,36,-674,1204,22828,24.150000000000034,14,false,100,100,0,0,0,0,0,3806,3815,3805,3806,3803,3795,0.0,0.0,0.0,Started waypoint mission,
-24.56178055983304,150.0420281658423,13000,21.200000000000003,3.0,15,5,0.0,0.0,-59.5,2019-10-29 16:51:22.6350+0000,-0.10757803916931152,0.0,0.0,-3.0,true,36,-674,1204,22828,24.150000000000034,14,false,100,100,0,0,0,0,0,3806,3815,3805,3806,3803,3795,0.0,0.0,0.0,Started waypoint mission,
-24.56178055983304,150.0420281658423,13000,21.5,3.0,15,5,0.0,0.0,-59.5,2019-10-29 16:51:22.7360+0000,-0.10005509853363037,0.0,0.0,-3.0,true,36,-674,1204,22828,24.150000000000034,14,false,100,100,0,0,0,0,0,3806,3815,3805,3806,3803,3795,0.0,0.0,0.0,Started waypoint mission,
-24.56178055983304,150.0420281658423,13000,21.8,3.0,15,5,0.0,0.0,-59.5,2019-10-29 16:51:22.8360+0000,-0.0984259843826294,0.0,0.0,-3.0,true,36,-674,1204,22828,24.150000000000034,14,false,100,100,0,0,0,0,0,3806,3815,3805,3806,3803,3795,0.0,0.0,0.0,Started waypoint mission,
-24.56178055983304,150.0420281658423,13000,22.1,3.0,15,5,0.0,0.0,-59.5,2019-10-29 16:51:22.9340+0000,-0.09686601161956787,0.0,0.0,-3.0,true,36,-674,1204,22828,24.150000000000034,14,false,100,100,0,0,0,0,0,3806,3815,3805,3806,3803,3795,0.0,0.0,0.0,Started waypoint mission,
-24.56178055983304,150.0420281658423,13000,22.400000000000002,3.0,15,5,0.0,0.0,-59.5,2019-10-29 16:51:23.0360+0000,-0.10152900218963623,0.0,0.0,-3.0,true,36,-674,1204,22828,24.150000000000034,14,false,100,100,0,0,0,0,0,3806,3815,3805,3806,3803,3795,0.0,0.0,0.0,Started waypoint mission,
-24.56178055983304,150.0420281658423,13000,22.700000000000003,3.0,15,5,0.0,0.0,-59.5,2019-10-29 16:51:23.1350+0000,-0.09792006015777588,0.0,0.0,-3.0,true,36,-674,1204,22828,24.150000000000034,14,false,100,100,0,0,0,0,0,3806,3815,3805,3806,3803,3795,0.0,0.0,0.0,Started waypoint mission,
-24.56178055983304,150.0420281658423,13000,23.0,3.0,15,5,0.0,0.0,-59.5,2019-10-29 16:51:23.2450+0000,-0.10850095748901367,0.0,0.0,-3.0,true,36,-674,1204,22828,24.150000000000034,14,false,100,100,0,0,0,0,0,3806,3815,3805,3806,3803,3795,0.0,0.0,0.0,Started waypoint mission,
-24.56178055983304,150.0420281658423,13000,23.3,3.0,15,5,0.0,0.0,-59.5,2019-10-29 16:51:23.3450+0000,-0.09964394569396973,0.0,0.0,-3.0,true,36,-668,1204,22834,24.150000000000034,14,false,100,100,0,0,0,0,0,3807,3816,3805,3807,3802,3795,0.0,0.0,0.0,Started waypoint mission,
-24.56178055983304,150.0420281658423,13000,23.6,3.0,15,5,0.0,0.0,-59.5,2019-10-29 16:51:23.4460+0000,-0.09969806671142578,0.0,0.0,-3.0,true,36,-668,1204,22834,24.150000000000034,14,false,100,100,0,0,0,0,0,3807,3816,3805,3807,3802,3795,0.0,0.0,0.0,Started waypoint mission,
-24.56178055983304,150.0420281658423,13000,23.900000000000002,3.0,15,5,0.0,0.0,-59.5,2019-10-29 16:51:23.5460+0000,-0.09825503826141357,0.0,0.0,-3.0,true,36,-668,1204,22834,24.150000000000034,14,false,100,100,0,0,0,0,0,3807,3816,3805,3807,3802,3795,0.0,0.0,0.0,Started waypoint mission,
-24.56178055983304,150.0420281658423,14000,24.200000000000003,3.0,15,5,0.0,0.0,-59.5,2019-10-29 16:51:23.6450+0000,-0.0985950231552124,0.0,0.0,-3.0,true,36,-668,1204,22834,24.150000000000034,14,false,100,100,0,0,0,0,0,3807,3816,3805,3807,3802,3795,0.0,0.0,0.0,Started waypoint mission,
-24.56178055983304,150.0420281658423,14000,24.5,3.0,15,5,0.0,0.0,-59.5,2019-10-29 16:51:23.7560+0000,-0.10944902896881104,0.0,0.0,-3.0,true,36,-668,1204,22834,24.150000000000034,14,false,100,100,0,0,0,0,0,3807,3816,3805,3807,3802,3795,0.0,0.0,0.0,Started waypoint mission,
-24.56178055983304,150.0420281658423,14000,24.8,3.0,15,5,0.0,0.0,-59.5,2019-10-29 16:51:23.8570+0000,-0.0994710922241211,0.0,0.0,-3.0,true,36,-668,1204,22834,24.150000000000034,14,false,100,100,0,0,0,0,0,3807,3816,3805,3807,3802,3795,0.0,0.0,0.0,Started waypoint mission,
-24.56178055983304,150.0420281658423,14000,25.1,3.0,15,5,0.0,0.0,-59.5,2019-10-29 16:51:23.9650+0000,-0.10723495483398438,0.0,0.0,-3.0,true,36,-668,1204,22834,24.150000000000034,14,false,100,100,0,0,0,0,0,3807,3816,3805,3807,3802,3795,0.0,0.0,0.0,Started waypoint mission,
-24.56178055983304,150.0420281658423,14000,25.400000000000002,3.0,15,5,0.0,0.0,-59.5,2019-10-29 16:51:24.0550+0000,-0.09028196334838867,0.0,0.0,-3.0,true,36,-668,1204,22834,24.150000000000034,14,false,100,100,0,0,0,0,0,3807,3816,3805,3807,3802,3795,0.0,0.0,0.0,Started waypoint mission,
-24.56178055983304,150.0420281658423,14000,25.700000000000003,3.0,15,5,0.0,0.0,-59.5,2019-10-29 16:51:24.1550+0000,-0.09898698329925537,0.0,0.0,-3.0,true,36,-668,1204,22834,24.150000000000034,14,false,100,100,0,0,0,0,0,3807,3816,3805,3807,3802,3795,0.0,0.0,0.0,Started waypoint mission,
-24.56178055983304,150.0420281658423,14000,26.0,3.0,15,5,0.0,0.0,-59.5,2019-10-29 16:51:24.2650+0000,-0.1092069149017334,0.0,0.0,-3.0,true,36,-668,1204,22834,24.150000000000034,14,false,100,100,0,0,0,0,0,3807,3816,3805,3807,3802,3795,0.0,0.0,0.0,Started waypoint mission,
-24.56178055983304,150.0420281658423,14000,26.3,3.0,15,5,0.0,0.0,-59.5,2019-10-29 16:51:24.3720+0000,-0.10517096519470215,0.0,0.0,-3.0,true,36,-691,1204,22828,24.150000000000034,14,false,100,100,0,0,0,0,0,3806,3814,3805,3806,3803,3795,0.0,0.0,0.0,Started waypoint mission,
-24.56178055983304,150.0420281658423,14000,26.6,3.0,15,5,0.0,0.0,-59.5,2019-10-29 16:51:24.4660+0000,-0.09321200847625732,0.0,0.0,-3.0,true,36,-691,1204,22828,24.150000000000034,14,false,100,100,0,0,0,0,0,3806,3814,3805,3806,3803,3795,0.0,0.0,0.0,Started waypoint mission,
-24.56178055983304,150.0420281658423,14000,26.900000000000002,3.0,15,5,0.0,0.0,-59.5,2019-10-29 16:51:24.5660+0000,-0.09902799129486084,0.0,0.0,-3.0,true,36,-691,1204,22828,24.150000000000034,14,false,100,100,0,0,0,0,0,3806,3814,3805,3806,3803,3795,0.0,0.0,0.0,Started waypoint mission,
-24.56178055983304,150.0420281658423,15000,27.200000000000003,3.0,15,5,0.0,0.0,-59.5,2019-10-29 16:51:24.6650+0000,-0.09760403633117676,0.0,0.0,-3.0,true,36,-691,1204,22828,24.150000000000034,14,false,100,100,0,0,0,0,0,3806,3814,3805,3806,3803,3795,0.0,0.0,0.0,Started waypoint mission,
-24.56178055983304,150.0420281658423,15000,27.5,3.0,15,5,0.0,0.0,-59.5,2019-10-29 16:51:24.7760+0000,-0.11018693447113037,0.0,0.0,-3.0,true,36,-691,1204,22828,24.150000000000034,14,false,100,100,0,0,0,0,0,3806,3814,3805,3806,3803,3795,0.0,0.0,0.0,Started waypoint mission,
-24.56178055983304,150.0420281658423,15000,27.8,3.0,15,5,0.0,0.0,-59.5,2019-10-29 16:51:24.7780+0000,-0.0012320280075073242,0.0,0.0,-3.0,true,36,-691,1204,22828,24.150000000000034,14,false,100,100,0,0,0,0,0,0,0,0,0,0,0,0.0,0.0,0.0,Started waypoint mission,
-24.56178055983304,150.0420281658423,15000,28.1,3.0,15,5,0.0,0.0,-59.5,2019-10-29 16:51:24.8760+0000,-0.09671401977539062,0.0,0.0,-3.0,true,36,-691,1204,22828,24.150000000000034,14,false,100,100,0,0,0,0,0,3806,3814,3805,3806,3803,3795,0.0,0.0,0.0,Started waypoint mission,
-24.56178055983304,150.0420281658423,15000,28.400000000000002,3.0,15,5,0.0,0.0,-59.5,2019-10-29 16:51:24.9750+0000,-0.09848904609680176,0.0,0.0,-3.0,true,36,-691,1204,22828,24.150000000000034,14,false,100,100,0,0,0,0,0,3806,3814,3805,3806,3803,3795,0.0,0.0,0.0,Started waypoint mission,
-24.56178055983304,150.0420281658423,15000,28.700000000000003,3.0,15,5,0.0,0.0,-59.5,2019-10-29 16:51:25.1760+0000,-0.20018303394317627,0.0,0.0,-3.0,true,36,-691,1204,22828,24.150000000000034,14,false,100,100,0,0,0,0,0,3806,3814,3805,3806,3803,3795,0.0,0.0,0.0,Started waypoint mission,
-24.56178055983304,150.0420281658423,15000,29.0,3.0,15,5,0.0,0.0,-59.5,2019-10-29 16:51:25.1780+0000,-0.0010570287704467773,0.0,0.0,-3.0,true,36,-691,1204,22828,24.150000000000034,14,false,100,100,0,0,0,0,0,3806,3814,3805,3806,3803,3795,0.0,0.0,0.0,Started waypoint mission,
-24.56178055983304,150.0420281658423,15000,29.3,3.0,15,5,0.0,0.0,-59.5,2019-10-29 16:51:25.2770+0000,-0.09833300113677979,0.0,0.0,-3.0,true,36,-683,1204,22829,24.150000000000034,14,false,100,100,0,0,0,0,0,0,0,0,0,0,0,0.0,0.0,0.0,Started waypoint mission,
-24.56178055983304,150.0420281658423,15000,29.6,3.0,15,5,0.0,0.0,-59.5,2019-10-29 16:51:25.3860+0000,-0.10775196552276611,0.0,0.0,-3.0,true,36,-683,1204,22829,24.150000000000034,14,false,100,100,0,0,0,0,0,3805,3815,3805,3806,3803,3795,0.0,0.0,0.0,Started waypoint mission,
-24.56178055983304,150.0420281658423,15000,29.900000000000002,3.0,15,5,0.0,0.0,-59.5,2019-10-29 16:51:25.4870+0000,-0.10003304481506348,0.0,0.0,-3.0,true,36,-683,1204,22829,24.150000000000034,14,false,100,100,0,0,0,0,0,3805,3815,3805,3806,3803,3795,0.0,0.0,0.0,Started waypoint mission,
-24.56178055983304,150.0420281658423,16000,30.200000000000003,3.0,15,5,0.0,0.0,-59.5,2019-10-29 16:51:25.5860+0000,-0.09749400615692139,0.0,0.0,-3.0,true,36,-683,1204,22829,24.150000000000034,14,false,100,100,0,0,0,0,0,3805,3815,3805,3806,3803,3795,0.0,0.0,0.0,Started waypoint mission,
-24.56178055983304,150.0420281658423,16000,30.5,3.0,15,5,0.0,0.0,-59.5,2019-10-29 16:51:25.6870+0000,-0.0994870662689209,0.0,0.0,-3.0,true,36,-683,1204,22829,24.150000000000034,14,false,100,100,0,0,0,0,0,3805,3815,3805,3806,3803,3795,0.0,0.0,0.0,Started waypoint mission,
-24.56178055983304,150.0420281658423,16000,30.8,3.0,15,5,0.0,0.0,-59.5,2019-10-29 16:51:25.7870+0000,-0.0985269546508789,0.0,0.0,-3.0,true,36,-683,1204,22829,24.150000000000034,14,false,100,100,0,0,0,0,0,0,0,0,0,0,0,0.0,0.0,0.0,Started waypoint mission,
-24.56178055983304,150.0420281658423,16000,31.1,3.0,15,5,0.0,0.0,-59.5,2019-10-29 16:51:25.8950+0000,-0.10747301578521729,0.0,0.0,-3.0,true,36,-683,1204,22829,24.150000000000034,14,false,100,100,0,0,0,0,0,3805,3815,3805,3806,3803,3795,0.0,0.0,0.0,Started waypoint mission,
-24.56178055983304,150.0420281658423,16000,31.400000000000002,2.9,15,5,0.0,0.0,-59.5,2019-10-29 16:51:25.9960+0000,-0.1003730297088623,0.0,0.0,-2.9,true,36,-683,1204,22829,24.150000000000034,14,false,100,100,0,0,0,0,0,3805,3815,3805,3806,3803,3795,0.0,0.0,0.0,Started waypoint mission,
-24.56178055983304,150.0420281658423,16000,31.700000000000003,3.0,15,5,0.0,0.0,-59.5,2019-10-29 16:51:26.0970+0000,-0.09981691837310791,0.0,0.0,-3.0,true,36,-683,1204,22829,24.150000000000034,14,false,100,100,0,0,0,0,0,3805,3815,3805,3806,3803,3795,0.0,0.0,0.0,Started waypoint mission,
-24.56178055983304,150.0420281658423,16000,32.0,3.0,15,5,0.0,0.0,-59.5,2019-10-29 16:51:26.1960+0000,-0.09819507598876953,0.0,0.0,-3.0,true,36,-683,1204,22829,24.150000000000034,14,false,100,100,0,0,0,0,0,3805,3815,3805,3806,3803,3795,0.0,0.0,0.0,Started waypoint mission,
-24.56178055983304,150.0420281658423,16000,32.300000000000004,3.0,15,5,0.0,0.0,-59.5,2019-10-29 16:51:26.3070+0000,-0.10960209369659424,0.0,0.0,-3.0,true,36,-664,1204,22832,24.150000000000034,14,false,100,100,0,0,0,0,0,0,0,0,0,0,0,0.0,0.0,0.0,Started waypoint mission,
-24.56178055983304,150.0420281658423,16000,32.6,3.0,15,5,0.0,0.0,-59.5,2019-10-29 16:51:26.4060+0000,-0.0982140302658081,0.0,0.0,-3.0,true,36,-664,1204,22832,24.150000000000034,14,false,100,100,0,0,0,0,0,3807,3815,3806,3807,3804,3795,0.0,0.0,0.0,Started waypoint mission,
-24.56178055983304,150.0420281658423,16000,32.9,3.0,15,5,0.0,0.0,-59.5,2019-10-29 16:51:26.5070+0000,-0.0994640588760376,0.0,0.0,-3.0,true,36,-664,1204,22832,24.150000000000034,14,false,100,100,0,0,0,0,0,3807,3815,3806,3807,3804,3795,0.0,0.0,0.0,Started waypoint mission,
-24.56178055983304,150.0420281658423,17000,33.2,3.0,15,5,0.0,0.0,-59.5,2019-10-29 16:51:26.6060+0000,-0.09805905818939209,0.0,0.0,-3.0,true,36,-664,1204,22832,24.150000000000034,14,false,100,100,0,0,0,0,0,3807,3815,3806,3807,3804,3795,0.0,0.0,0.0,Started waypoint mission,
-24.56178055983304,150.0420281658423,17000,33.5,3.0,15,5,0.0,0.0,-59.5,2019-10-29 16:51:26.7150+0000,-0.10776305198669434,0.0,0.0,-3.0,true,36,-664,1204,22832,24.150000000000034,14,false,100,100,0,0,0,0,0,3807,3815,3806,3807,3804,3795,0.0,0.0,0.0,Started waypoint mission,
-24.56178055983304,150.0420281658423,17000,33.800000000000004,3.0,15,5,0.0,0.0,-59.5,2019-10-29 16:51:26.8160+0000,-0.09951293468475342,0.0,0.0,-3.0,true,36,-664,1204,22832,24.150000000000034,14,false,100,100,0,0,0,0,0,0,0,0,0,0,0,0.0,0.0,0.0,Started waypoint mission,
-24.56178055983304,150.0420281658423,17000,34.1,3.0,15,5,0.0,0.0,-59.5,2019-10-29 16:51:26.9160+0000,-0.09872698783874512,0.0,0.0,-3.0,true,36,-664,1204,22832,24.150000000000034,14,false,100,100,0,0,0,0,0,3807,3815,3806,3807,3804,3795,0.0,0.0,0.0,Started waypoint mission,
-24.56178055983304,150.0420281658423,17000,34.4,2.9,15,5,0.0,0.0,-59.5,2019-10-29 16:51:27.0170+0000,-0.10038101673126221,0.0,0.0,-2.9,true,36,-664,1204,22832,24.150000000000034,14,false,100,100,0,0,0,0,0,3807,3815,3806,3807,3804,3795,0.0,0.0,0.0,Started waypoint mission,
-24.56178055983304,150.0420281658423,17000,34.7,3.0,15,5,0.0,0.0,-59.5,2019-10-29 16:51:27.1150+0000,-0.09660601615905762,0.0,0.0,-3.0,true,36,-664,1204,22832,24.150000000000034,14,false,100,100,0,0,0,0,0,3807,3815,3806,3807,3804,3795,0.0,0.0,0.0,Started waypoint mission,
-24.56178055983304,150.0420281658423,17000,35.0,3.0,15,5,0.0,0.0,-59.5,2019-10-29 16:51:27.2160+0000,-0.10002303123474121,0.0,0.0,-3.0,true,36,-664,1204,22832,24.150000000000034,14,false,100,100,0,0,0,0,0,3807,3815,3806,3807,3804,3795,0.0,0.0,0.0,Started waypoint mission,
-24.56178055983304,150.0420281658423,17000,35.300000000000004,3.0,15,5,0.0,0.0,-59.5,2019-10-29 16:51:27.3270+0000,-0.1094590425491333,0.0,0.0,-3.0,true,36,-681,1204,22830,24.150000000000034,14,false,100,100,0,0,0,0,0,3807,3815,3806,3807,3804,3795,0.0,0.0,0.0,Started waypoint mission,
-24.56178055983304,150.0420281658423,17000,35.6,3.0,15,5,0.0,0.0,-59.5,2019-10-29 16:51:27.4260+0000,-0.09769904613494873,0.0,0.0,-3.0,true,36,-681,1204,22830,24.150000000000034,14,false,100,100,0,0,0,0,0,3807,3815,3806,3807,3804,3795,0.0,0.0,0.0,Started waypoint mission,
-24.56178055983304,150.0420281658423,17000,35.9,3.0,15,5,0.0,0.0,-59.5,2019-10-29 16:51:27.5270+0000,-0.09987592697143555,0.0,0.0,-3.0,true,36,-681,1204,22830,24.150000000000034,14,false,100,100,0,0,0,0,0,3807,3815,3806,3807,3804,3795,0.0,0.0,0.0,Started waypoint mission,
-24.56178055983304,150.0420281658423,18000,36.2,3.0,15,5,0.0,0.0,-59.5,2019-10-29 16:51:27.6260+0000,-0.0979459285736084,0.0,0.0,-3.0,true,36,-681,1204,22830,24.150000000000034,14,false,100,100,0,0,0,0,0,3807,3815,3806,3807,3804,3795,0.0,0.0,0.0,Started waypoint mission,
-24.56178055983304,150.0420281658423,18000,36.5,3.0,15,5,0.0,0.0,-59.5,2019-10-29 16:51:27.7270+0000,-0.09987998008728027,0.0,0.0,-3.0,true,36,-681,1204,22830,24.150000000000034,14,false,100,100,0,0,0,0,0,3807,3815,3806,3807,3804,3795,0.0,0.0,0.0,Started waypoint mission,
-24.56178055983304,150.0420281658423,18000,36.800000000000004,3.0,15,5,0.0,0.0,-59.5,2019-10-29 16:51:27.8350+0000,-0.10754191875457764,0.0,0.0,-3.0,true,36,-681,1204,22830,24.150000000000034,14,false,100,100,0,0,0,0,0,3806,3816,3805,3805,3803,3796,0.0,0.0,0.0,Started waypoint mission,
-24.56178055983304,150.0420281658423,18000,37.1,3.0,15,5,0.0,0.0,-59.5,2019-10-29 16:51:27.9360+0000,-0.0999000072479248,0.0,0.0,-3.0,true,36,-681,1204,22830,24.150000000000034,14,false,100,100,0,0,0,0,0,3806,3816,3805,3805,3803,3796,0.0,0.0,0.0,Started waypoint mission,
-24.56178055983304,150.0420281658423,18000,37.4,2.9,15,5,0.0,0.0,-59.5,2019-10-29 16:51:28.0360+0000,-0.09880602359771729,0.0,0.0,-2.9,true,36,-681,1204,22830,24.150000000000034,14,false,100,100,0,0,0,0,0,3806,3816,3805,3805,3803,3796,0.0,0.0,0.0,Started waypoint mission,
-24.56178055983304,150.0420281658423,18000,37.7,3.0,15,5,0.0,0.0,-59.5,2019-10-29 16:51:28.1360+0000,-0.09857189655303955,0.0,0.0,-3.0,true,36,-681,1204,22830,24.150000000000034,14,false,100,100,0,0,0,0,0,3806,3816,3805,3805,3803,3796,0.0,0.0,0.0,Started waypoint mission,
-24.56178055983304,150.0420281658423,18000,38.0,3.0,15,5,0.0,0.0,-59.5,2019-10-29 16:51:28.2350+0000,-0.09796500205993652,0.0,0.0,-3.0,true,36,-681,1204,22830,24.150000000000034,14,false,100,100,0,0,0,0,0,3806,3816,3805,3805,3803,3796,0.0,0.0,0.0,Started waypoint mission,
-24.56178055983304,150.0420281658423,18000,38.300000000000004,3.0,15,5,0.0,0.0,-59.5,2019-10-29 16:51:28.3460+0000,-0.10979306697845459,0.0,0.0,-3.0,true,36,-681,1204,22830,24.150000000000034,14,false,100,100,0,0,0,0,0,3806,3816,3805,3805,3803,3796,0.0,0.0,0.0,Started waypoint mission,
-24.56178055983304,150.0420281658423,18000,38.6,3.0,15,5,0.0,0.0,-59.5,2019-10-29 16:51:28.4460+0000,-0.09875297546386719,0.0,0.0,-3.0,true,36,-681,1204,22830,24.150000000000034,14,false,100,100,0,0,0,0,0,3806,3816,3805,3805,3803,3796,0.0,0.0,0.0,Started waypoint mission,
-24.56178055983304,150.0420281658423,18000,38.900000000000006,3.0,15,5,0.0,0.0,-59.5,2019-10-29 16:51:28.5460+0000,-0.09858202934265137,0.0,0.0,-3.0,true,36,-681,1204,22830,24.150000000000034,14,false,100,100,0,0,0,0,0,3806,3816,3805,3805,3803,3796,0.0,0.0,0.0,Started waypoint mission,
-24.56178055983304,150.0420281658423,19000,39.2,3.0,15,5,0.0,0.0,-59.5,2019-10-29 16:51:28.6440+0000,-0.09740400314331055,0.0,0.0,-3.0,true,36,-681,1204,22830,24.150000000000034,14,false,100,100,0,0,0,0,0,3806,3816,3805,3805,3803,3796,0.0,0.0,0.0,Started waypoint mission,
-24.56178055983304,150.0420281658423,19000,39.5,3.0,15,5,0.0,0.0,-59.5,2019-10-29 16:51:28.7550+0000,-0.11059796810150146,0.0,0.0,-3.0,true,36,-681,1204,22830,24.150000000000034,14,false,100,100,0,0,0,0,0,3806,3816,3805,3805,3803,3796,0.0,0.0,0.0,Started waypoint mission,
-24.56178055983304,150.0420281658423,19000,39.800000000000004,3.0,15,5,0.0,0.0,-59.5,2019-10-29 16:51:28.8550+0000,-0.09930598735809326,0.0,0.0,-3.0,true,36,-679,1204,22831,24.150000000000034,14,false,100,100,0,0,0,0,0,3806,3816,3806,3806,3803,3796,0.0,0.0,0.0,Started waypoint mission,
-24.56178055983304,150.0420281658423,19000,40.1,3.0,15,5,0.0,0.0,-59.5,2019-10-29 16:51:28.9550+0000,-0.10023295879364014,0.0,0.0,-3.0,true,36,-679,1204,22831,24.150000000000034,14,false,100,100,0,0,0,0,0,3806,3816,3806,3806,3803,3796,0.0,0.0,0.0,Started waypoint mission,
-24.56178055983304,150.0420281658423,19000,40.400000000000006,2.9,15,5,0.0,0.0,-59.5,2019-10-29 16:51:29.0550+0000,-0.09863102436065674,0.0,0.0,-2.9,true,36,-679,1204,22831,24.150000000000034,14,false,100,100,0,0,0,0,0,3806,3816,3806,3806,3803,3796,0.0,0.0,0.0,Started waypoint mission,
-24.56178055983304,150.0420281658423,19000,40.7,3.0,15,5,0.0,0.0,-59.5,2019-10-29 16:51:29.1560+0000,-0.10087502002716064,0.0,0.0,-3.0,true,36,-679,1204,22831,24.150000000000034,14,false,100,100,0,0,0,0,0,3806,3816,3806,3806,3803,3796,0.0,0.0,0.0,Started waypoint mission,
-24.56178055983304,150.0420281658423,19000,41.0,3.0,15,5,0.0,0.0,-59.5,2019-10-29 16:51:29.2580+0000,-0.10137701034545898,0.0,0.0,-3.0,true,36,-679,1204,22831,24.150000000000034,14,false,100,100,0,0,0,0,0,3806,3816,3806,3806,3803,3796,0.0,0.0,0.0,Started waypoint mission,
-24.56178055983304,150.0420281658423,19000,41.300000000000004,3.0,15,5,0.0,0.0,-59.5,2019-10-29 16:51:29.3730+0000,-0.11422598361968994,0.0,0.0,-3.0,true,36,-679,1204,22831,24.150000000000034,14,false,100,100,0,0,0,0,0,3806,3816,3806,3806,3803,3796,0.0,0.0,0.0,Started waypoint mission,
-24.56178055983304,150.0420281658423,19000,41.6,3.0,15,5,0.0,0.0,-59.5,2019-10-29 16:51:29.4670+0000,-0.09263896942138672,0.0,0.0,-3.0,true,36,-679,1204,22831,24.150000000000034,14,false,100,100,0,0,0,0,0,3806,3816,3806,3806,3803,3796,0.0,0.0,0.0,Started waypoint mission,
-24.56178055983304,150.0420281658423,19000,41.900000000000006,3.0,15,5,0.0,0.0,-59.5,2019-10-29 16:51:29.5650+0000,-0.09697997570037842,0.0,0.0,-3.0,true,36,-679,1204,22831,24.150000000000034,14,false,100,100,0,0,0,0,0,3806,3816,3806,3806,3803,3796,0.0,0.0,0.0,Started waypoint mission,
-24.56178055983304,150.0420281658423,19000,42.2,3.0,15,5,0.0,0.0,-59.5,2019-10-29 16:51:29.5670+0000,-0.00102996826171875,0.0,0.0,-3.0,true,36,-679,1204,22831,24.150000000000034,14,false,100,100,0,0,0,0,0,3806,3816,3806,3806,3803,3796,0.0,0.0,0.0,Started waypoint mission,
-24.56178055983304,150.0420281658423,20000,42.5,3.0,15,5,0.0,0.0,-59.5,2019-10-29 16:51:29.7770+0000,-0.2095400094985962,0.0,0.0,-3.0,true,36,-679,1204,22831,24.150000000000034,14,false,100,100,0,0,0,0,0,3806,3816,3806,3806,3803,3796,0.0,0.0,0.0,Started waypoint mission,
-24.56178055983304,150.0420281658423,20000,42.800000000000004,3.0,15,5,0.0,0.0,-59.5,2019-10-29 16:51:29.7790+0000,-0.0011169910430908203,0.0,0.0,-3.0,true,36,-678,1204,22830,24.150000000000034,14,false,100,100,0,0,0,0,0,0,0,0,0,0,0,0.0,0.0,0.0,Started waypoint mission,
-24.56178055983304,150.0420281658423,20000,43.1,3.0,15,5,0.0,0.0,-59.5,2019-10-29 16:51:29.9750+0000,-0.1952129602432251,0.0,0.0,-3.0,true,36,-678,1204,22830,24.150000000000034,14,false,100,100,0,0,0,0,0,3805,3816,3805,3807,3802,3795,0.0,0.0,0.0,Started waypoint mission,
-24.56178055983304,150.0420281658423,20000,43.400000000000006,3.0,15,5,0.0,0.0,-59.5,2019-10-29 16:51:29.9770+0000,-0.0008209943771362305,0.0,0.0,-3.0,true,36,-678,1204,22830,24.150000000000034,14,false,100,100,0,0,0,0,0,3805,3816,3805,3807,3802,3795,0.0,0.0,0.0,Started waypoint mission,
-24.56178055983304,150.0420281658423,20000,43.7,3.0,15,5,0.0,0.0,-59.5,2019-10-29 16:51:30.0760+0000,-0.09801697731018066,0.0,0.0,-3.0,true,36,-678,1204,22830,24.150000000000034,14,false,100,100,0,0,0,0,0,3805,3816,3805,3807,3802,3795,0.0,0.0,0.0,Started waypoint mission,
-24.56178055983304,150.0420281658423,20000,44.0,3.0,15,5,0.0,0.0,-59.5,2019-10-29 16:51:30.1760+0000,-0.09942305088043213,0.0,0.0,-3.0,true,36,-678,1204,22830,24.150000000000034,14,false,100,100,0,0,0,0,0,3805,3816,3805,3807,3802,3795,0.0,0.0,0.0,Started waypoint mission,
-24.56178055983304,150.0420281658423,20000,44.300000000000004,3.0,15,5,0.0,0.0,-59.5,2019-10-29 16:51:30.2860+0000,-0.10987699031829834,0.0,0.0,-3.0,true,36,-678,1204,22830,24.150000000000034,14,false,100,100,0,0,0,0,0,0,0,0,0,0,0,0.0,0.0,0.0,Started waypoint mission,
-24.56178055983304,150.0420281658423,20000,44.6,3.0,15,5,0.0,0.0,-59.5,2019-10-29 16:51:30.3860+0000,-0.09849298000335693,0.0,0.0,-3.0,true,36,-678,1204,22830,24.150000000000034,14,false,100,100,0,0,0,0,0,3805,3816,3805,3807,3802,3795,0.0,0.0,0.0,Started waypoint mission,
-24.56178055983304,150.0420281658423,20000,44.900000000000006,3.0,15,5,0.0,0.0,-59.5,2019-10-29 16:51:30.4860+0000,-0.0999610424041748,0.0,0.0,-3.0,true,36,-678,1204,22830,24.150000000000034,14,false,100,100,0,0,0,0,0,3805,3816,3805,3807,3802,3795,0.0,0.0,0.0,Started waypoint mission,
-24.56178055983304,150.0420281658423,21000,45.2,3.0,15,5,0.0,0.0,-59.5,2019-10-29 16:51:30.5870+0000,-0.09905707836151123,0.0,0.0,-3.0,true,36,-678,1204,22830,24.150000000000034,14,false,100,100,0,0,0,0,0,3805,3816,3805,3807,3802,3795,0.0,0.0,0.0,Started waypoint mission,
-24.56178055983304,150.0420281658423,21000,45.5,3.0,15,5,0.0,0.0,-59.5,2019-10-29 16:51:30.6970+0000,-0.10915005207061768,0.0,0.0,-3.0,true,36,-678,1204,22830,24.150000000000034,14,false,100,100,0,0,0,0,0,3805,3816,3805,3807,3802,3795,0.0,0.0,0.0,Started waypoint mission,
-24.56178055983304,150.0420281658423,21000,45.800000000000004,3.0,15,5,0.0,0.0,-59.5,2019-10-29 16:51:30.7980+0000,-0.1002969741821289,0.0,0.0,-3.0,true,36,-685,1204,22829,24.150000000000034,14,false,100,100,0,0,0,0,0,0,0,0,0,0,0,0.0,0.0,0.0,Started waypoint mission,
-24.56178055983304,150.0420281658423,21000,46.1,3.0,15,5,0.0,0.0,-59.5,2019-10-29 16:51:30.8960+0000,-0.09647202491760254,0.0,0.0,-3.0,true,36,-685,1204,22829,24.150000000000034,14,false,100,100,0,0,0,0,0,3805,3815,3806,3805,3803,3795,0.0,0.0,0.0,Started waypoint mission,
-24.56178055983304,150.0420281658423,21000,46.400000000000006,3.0,15,5,0.0,0.0,-59.5,2019-10-29 16:51:30.9970+0000,-0.10022294521331787,0.0,0.0,-3.0,true,36,-685,1204,22829,24.150000000000034,14,false,100,100,0,0,0,0,0,3805,3815,3806,3805,3803,3795,0.0,0.0,0.0,Started waypoint mission,
-24.56178055983304,150.0420281658423,21000,46.7,3.0,15,5,0.0,0.0,-59.5,2019-10-29 16:51:31.0960+0000,-0.09731602668762207,0.0,0.0,-3.0,true,36,-685,1204,22829,24.150000000000034,14,false,100,100,0,0,0,0,0,3805,3815,3806,3805,3803,3795,0.0,0.0,0.0,Started waypoint mission,
