latitude,longitude,flight_time,altitude,speed,satellites,gps_level,pitch,roll,yaw,timestamp,last_updated,velocityX,velocityY,velocityZ,isflying,remainBatteryPercent,currentCurrent,batteryChargeRemaining,batteryVoltage,batteryTemperature,flightMode,istakingphoto,downlinkSignal,uplinkSignal,radioChannel,rc_elevator,rc_aileron,rc_throttle,rc_rudder,Battery_Cell1,Battery_Cell2,Battery_Cell3,Battery_Cell4,Battery_Cell5,Battery_Cell6,gimbalPitch,gimbalYaw,gimbalRoll,app_Tip,app_Warning,appVersion,AircraftComercialName,AircraftSerialNumber,RemoteSerialNumber,BatterySerialNumber,BatteryFullCapacity,dischargeCount,batteryLife,AircraftModel,sonar_altitude,isTakingVideo
-24.56177955384525,150.04202863474896,0,0.0,0.0,15,5,0.0,0.0,-161.4,2019-10-29 16:56:27.1150+0000,-0.09703397750854492,0.0,0.0,0.0,false,35,-648,1170,22795,24.950000000000045,6,false,100,100,0,0,0,0,0,3799,3809,3799,3799,3797,3790,0.0,0.0,0.0,Started waypoint mission,,Flight1_3.1.0_(3),DJI,041DE70691,03LJ7004AS,9971162700587,3345,100,75,Explore1, ,false
-24.56177955384525,150.04202863474896,0,0.0,0.0,15,5,0.0,0.0,-161.4,2019-10-29 16:56:27.2160+0000,-0.1006309986114502,0.0,0.0,0.0,false,35,-648,1170,22795,24.950000000000045,6,false,100,100,0,0,0,0,0,3799,3809,3799,3799,3797,3790,0.0,0.0,0.0,Started waypoint mission,
-24.56177955384525,150.04202863474896,0,0.0,0.0,15,5,0.0,0.0,-161.4,2019-10-29 16:56:27.3150+0000,-0.09868299961090088,0.0,0.0,0.0,false,35,-648,1170,22795,24.950000000000045,6,false,100,100,0,0,0,0,0,3799,3810,3801,3799,3796,3790,0.0,0.0,0.0,Started waypoint mission,
-24.56177955384525,150.04202863474896,0,0.0,0.0,15,5,0.0,0.0,-161.4,2019-10-29 16:56:27.4140+0000,-0.09879398345947266,0.0,0.0,0.0,false,35,-648,1170,22795,24.950000000000045,6,false,100,100,0,0,0,0,0,3799,3810,3801,3799,3796,3790,0.0,0.0,0.0,Started waypoint mission,
-24.56177955384525,150.04202863474896,0,0.0,0.0,15,5,0.0,0.0,-161.4,2019-10-29 16:56:27.5250+0000,-0.10956895351409912,0.0,0.0,0.0,false,35,-648,1170,22795,24.950000000000045,6,false,100,100,0,0,0,0,0,3799,3810,3801,3799,3796,3790,0.0,0.0,0.0,Started waypoint mission,
-24.56177955384525,150.04202863474896,0,0.0,0.0,15,5,0.0,0.0,-161.4,2019-10-29 16:56:27.6250+0000,-0.09959495067596436,0.0,0.0,0.0,false,35,-648,1170,22795,24.950000000000045,6,false,100,100,0,0,0,0,0,3799,3810,3801,3799,3796,3790,0.0,0.0,0.0,Started waypoint mission,
-24.56177955384525,150.04202863474896,0,0.0,0.0,15,5,0.0,0.0,-161.4,2019-10-29 16:56:27.7260+0000,-0.10087597370147705,0.0,0.0,0.0,false,35,-648,1170,22795,24.950000000000045,6,false,100,100,0,0,0,0,0,3799,3810,3801,3799,3796,3790,0.0,0.0,0.0,Started waypoint mission,
-24.56177955384525,150.04202863474896,0,0.0,0.0,15,5,0.0,0.0,-161.4,2019-10-29 16:56:27.8360+0000,-0.10868096351623535,0.0,0.0,0.0,false,35,-648,1170,22795,24.950000000000045,6,false,100,100,0,0,0,0,0,3799,3810,3801,3799,3796,3790,0.0,0.0,0.0,Started waypoint mission,
-24.56177955384525,150.04202863474896,0,0.0,0.0,15,5,0.0,0.0,-161.4,2019-10-29 16:56:27.9350+0000,-0.09790098667144775,0.0,0.0,0.0,false,35,-648,1170,22795,24.950000000000045,6,false,100,100,0,0,0,0,0,3799,3810,3801,3799,3796,3790,0.0,0.0,0.0,Started waypoint mission,
-24.56177955384525,150.04202863474896,0,0.0,0.0,15,5,0.0,0.0,-161.4,2019-10-29 16:56:28.0360+0000,-0.09960699081420898,0.0,0.0,0.0,false,35,-648,1170,22795,24.950000000000045,6,false,100,100,0,0,0,0,0,3799,3810,3801,3799,3796,3790,0.0,0.0,0.0,Started waypoint mission,
-24.56177955384525,150.04202863474896,0,0.0,0.0,15,5,0.0,0.0,-161.4,2019-10-29 16:56:28.1350+0000,-0.09765410423278809,0.0,0.0,0.0,false,35,-648,1170,22795,24.950000000000045,6,false,100,100,0,0,0,0,0,3799,3810,3801,3799,3796,3790,0.0,0.0,0.0,Started waypoint mission,
-24.56177955384525,150.04202863474896,0,0.0,0.0,15,5,0.0,0.0,-161.4,2019-10-29 16:56:28.2360+0000,-0.10041499137878418,0.0,0.0,0.0,false,35,-648,1170,22795,24.950000000000045,6,false,100,100,0,0,0,0,0,3799,3810,3801,3799,3796,3790,0.0,0.0,0.0,Started waypoint mission,
-24.56177955384525,150.04202863474896,0,0.0,0.0,15,5,0.0,0.0,-161.4,2019-10-29 16:56:28.3350+0000,-0.09750902652740479,0.0,0.0,0.0,false,35,-662,1170,22792,24.950000000000045,6,false,100,100,0,0,0,0,0,3798,3809,3799,3798,3796,3787,0.0,0.0,0.0,Started waypoint mission,
-24.56177955384525,150.04202863474896,0,0.0,0.0,15,5,0.0,0.0,-161.4,2019-10-29 16:56:28.4460+0000,-0.10941994190216064,0.0,0.0,0.0,false,35,-662,1170,22792,24.950000000000045,6,false,100,100,0,0,0,0,0,3798,3809,3799,3798,3796,3787,0.0,0.0,0.0,Started waypoint mission,
-24.56177955384525,150.04202863474896,0,0.0,0.0,15,5,0.0,0.0,-161.4,2019-10-29 16:56:28.5470+0000,-0.09993994235992432,0.0,0.0,0.0,false,35,-662,1170,22792,24.950000000000045,6,false,100,100,0,0,0,0,0,3798,3809,3799,3798,3796,3787,0.0,0.0,0.0,Started waypoint mission,
-24.56177955384525,150.04202863474896,0,0.0,0.0,15,5,0.0,0.0,-161.4,2019-10-29 16:56:28.6460+0000,-0.09821701049804688,0.0,0.0,0.0,false,35,-662,1170,22792,24.950000000000045,6,false,100,100,0,0,0,0,0,3798,3809,3799,3798,3796,3787,0.0,0.0,0.0,Started waypoint mission,
-24.56177955384525,150.04202863474896,0,0.0,0.0,15,5,0.0,0.0,-161.4,2019-10-29 16:56:28.7470+0000,-0.09914898872375488,0.0,0.0,0.0,false,35,-662,1170,22792,24.950000000000045,6,false,100,100,0,0,0,0,0,3798,3809,3799,3798,3796,3787,0.0,0.0,0.0,Started waypoint mission,
-24.56177955384525,150.04202863474896,0,0.0,0.0,15,5,0.0,0.0,-161.4,2019-10-29 16:56:28.8560+0000,-0.10848891735076904,0.0,0.0,0.0,false,35,-662,1170,22792,24.950000000000045,6,false,100,100,0,0,0,0,0,3798,3809,3799,3798,3796,3787,0.0,0.0,0.0,Started waypoint mission,
-24.56177955384525,150.04202863474896,0,0.0,0.0,15,5,0.0,0.0,-161.4,2019-10-29 16:56:28.9570+0000,-0.09977602958679199,0.0,0.0,0.0,false,35,-662,1170,22792,24.950000000000045,6,false,100,100,0,0,0,0,0,3798,3809,3799,3798,3796,3787,0.0,0.0,0.0,Started waypoint mission,
-24.56177955384525,150.04202863474896,0,0.0,0.0,15,5,0.0,0.0,-161.4,2019-10-29 16:56:28.9590+0000,-0.001024007797241211,0.0,0.0,0.0,false,35,-662,1170,22792,24.950000000000045,6,false,100,100,0,0,0,0,0,3798,3809,3799,3798,3796,3787,0.0,0.0,0.0,Started waypoint mission,
-24.56177955384525,150.04202863474896,0,0.0,0.0,15,5,0.0,0.0,-161.4,2019-10-29 16:56:29.1570+0000,-0.19707000255584717,0.0,0.0,0.0,false,35,-662,1170,22792,24.950000000000045,11,false,100,100,0,0,0,0,0,3798,3809,3799,3798,3796,3787,0.0,0.0,0.0,Started waypoint mission,
-24.56177955384525,150.04202863474896,0,0.0,0.0,15,5,0.0,0.0,-161.4,2019-10-29 16:56:29.2570+0000,-0.09829401969909668,0.0,0.0,0.0,false,35,-662,1170,22792,24.950000000000045,11,false,100,100,0,0,0,0,0,3798,3809,3799,3798,3796,3787,0.0,0.0,0.0,Started waypoint mission,
-24.56177955384525,150.04202863474896,0,0.0,0.0,15,5,0.0,0.0,-161.4,2019-10-29 16:56:29.3660+0000,-0.10816502571105957,0.0,0.0,0.0,false,35,-695,1170,22785,24.950000000000045,11,false,100,100,0,0,0,0,0,3798,3808,3798,3798,3795,3787,0.0,0.0,0.0,Started waypoint mission,
-24.56177955384525,150.04202863474896,0,0.0,0.0,15,5,0.0,0.0,-161.4,2019-10-29 16:56:29.4660+0000,-0.0981060266494751,0.0,0.0,0.0,false,35,-695,1170,22785,24.950000000000045,11,false,100,100,0,0,0,0,0,3798,3808,3798,3798,3795,3787,0.0,0.0,0.0,Started waypoint mission,
-24.56177955384525,150.04202863474896,0,0.0,0.0,15,5,0.0,0.0,-161.4,2019-10-29 16:56:29.4670+0000,-0.0008690357208251953,0.0,0.0,0.0,false,35,-695,1170,22785,24.950000000000045,11,false,100,100,0,0,0,0,0,3798,3808,3798,3798,3795,3787,0.0,0.0,0.0,Started waypoint mission,
-24.56177955384525,150.04202863474896,0,0.0,0.0,15,5,0.0,0.0,-161.4,2019-10-29 16:56:29.5660+0000,-0.09858405590057373,0.0,0.0,0.0,false,35,-695,1170,22785,24.950000000000045,11,false,100,100,0,0,0,0,0,3798,3808,3798,3798,3795,3787,0.0,0.0,0.0,Started waypoint mission,
-24.56177955384525,150.04202863474896,0,0.0,0.0,15,5,0.0,0.0,-161.4,2019-10-29 16:56:29.6680+0000,-0.10049092769622803,0.0,0.0,0.0,false,35,-695,1170,22785,24.950000000000045,11,false,100,100,0,0,0,0,0,3798,3808,3798,3798,3795,3787,0.0,0.0,0.0,Started waypoint mission,
-24.56177955384525,150.04202863474896,0,0.0,0.0,15,5,0.0,0.0,-161.4,2019-10-29 16:56:29.7670+0000,-0.0980370044708252,0.0,0.0,0.0,false,35,-695,1170,22785,24.950000000000045,11,false,100,100,0,0,0,0,0,0,0,0,0,0,0,0.0,0.0,0.0,Started waypoint mission,
-24.56177955384525,150.04202863474896,0,0.0,0.0,15,5,0.0,0.0,-161.4,2019-10-29 16:56:29.8770+0000,-0.10853707790374756,0.0,0.0,0.0,false,35,-695,1170,22785,24.950000000000045,11,false,100,100,0,0,0,0,0,3798,3808,3798,3798,3795,3787,0.0,0.0,0.0,Started waypoint mission,
-24.56177955384525,150.04202863474896,0,0.0,0.0,15,5,0.0,0.0,-161.4,2019-10-29 16:56:29.9780+0000,-0.10000598430633545,0.0,0.0,0.0,false,35,-695,1170,22785,24.950000000000045,11,false,100,100,0,0,0,0,0,3798,3808,3798,3798,3795,3787,0.0,0.0,0.0,Started waypoint mission,
-24.56177955384525,150.04202863474896,0,0.0,0.0,15,5,0.0,0.0,-161.4,2019-10-29 16:56:30.0770+0000,-0.09846210479736328,0.0,0.0,0.0,false,35,-695,1170,22785,24.950000000000045,11,false,100,100,0,0,0,0,0,3798,3808,3798,3798,3795,3787,0.0,0.0,0.0,Started waypoint mission,
-24.56177955384525,150.04202863474896,0,0.0,0.0,15,5,0.0,0.0,-161.4,2019-10-29 16:56:30.1770+0000,-0.09874200820922852,0.0,0.0,0.0,false,35,-695,1170,22785,24.950000000000045,11,false,100,100,0,0,0,0,0,3798,3808,3798,3798,3795,3787,0.0,0.0,0.0,Started waypoint mission,
-24.56177955384525,150.04202863474896,0,0.0,0.0,15,5,0.0,0.0,-161.4,2019-10-29 16:56:30.2880+0000,-0.10969400405883789,0.0,0.0,0.0,false,35,-691,1170,22783,24.950000000000045,11,false,100,100,0,0,0,0,0,0,0,0,0,0,0,0.0,0.0,0.0,Started waypoint mission,
-24.56177955384525,150.04202863474896,0,0.0,0.0,15,5,0.0,0.0,-161.4,2019-10-29 16:56:30.3870+0000,-0.09752202033996582,0.0,0.0,0.0,false,35,-691,1170,22783,24.950000000000045,11,false,100,100,0,0,0,0,0,3798,3808,3798,3798,3795,3787,0.0,0.0,0.0,Started waypoint mission,
-24.56177955384525,150.04202863474896,0,0.0,0.0,15,5,0.0,0.0,-161.4,2019-10-29 16:56:30.5040+0000,-0.11633193492889404,0.0,0.0,0.0,false,35,-691,1170,22783,24.950000000000045,11,false,100,100,0,0,0,0,0,3798,3808,3798,3798,3795,3787,0.0,0.0,0.0,Started waypoint mission,
-24.56177955384525,150.04202863474896,0,0.0,0.1,15,5,0.0,0.0,-161.4,2019-10-29 16:56:30.5860+0000,-0.08127295970916748,0.0,0.0,-0.1,true,35,-691,1170,22783,24.950000000000045,11,false,100,100,0,0,0,0,0,3798,3808,3798,3798,3795,3787,0.0,0.0,0.0,Started waypoint mission,
-24.56177955384525,150.04202863474896,3000,0.0,0.2,15,5,0.0,0.0,-161.4,2019-10-29 16:56:30.6870+0000,-0.09952998161315918,0.0,0.0,-0.2,true,35,-691,1170,22783,24.950000000000045,11,false,100,100,0,0,0,0,0,3798,3808,3798,3798,3795,3787,0.0,0.0,0.0,Started waypoint mission,
-24.561779553845014,150.04202863474896,3000,0.0,0.3,15,5,0.0,0.0,-161.4,2019-10-29 16:56:30.7870+0000,-0.09936892986297607,0.0,0.0,-0.3,true,35,-691,1170,22783,24.950000000000045,11,false,100,100,0,0,0,0,0,0,0,0,0,0,0,0.0,0.0,0.0,Started waypoint mission,
-24.561779553845014,150.04202863474896,3000,0.0,0.3,15,5,0.0,0.0,-161.4,2019-10-29 16:56:30.8970+0000,-0.1084059476852417,0.0,0.0,-0.3,true,35,-691,1170,22783,24.950000000000045,11,false,100,100,0,0,0,0,0,3798,3808,3798,3798,3795,3787,0.0,0.0,0.0,Started waypoint mission,
-24.561779553845014,150.04202863474896,3000,0.1,0.3,15,5,0.0,0.0,-161.4,2019-10-29 16:56:30.9960+0000,-0.09856307506561279,0.0,0.0,-0.3,true,35,-691,1170,22783,24.950000000000045,11,false,100,100,0,0,0,0,0,3798,3808,3798,3798,3795,3787,0.0,0.0,0.0,Started waypoint mission,
-24.561779553845014,150.04202863474896,4000,0.1,0.4,15,5,0.0,0.0,-161.4,2019-10-29 16:56:31.0970+0000,-0.09981799125671387,0.0,0.0,-0.4,true,35,-691,1170,22783,24.950000000000045,11,false,100,100,0,0,0,0,0,3798,3808,3798,3798,3795,3787,0.0,0.0,0.0,Started waypoint mission,
-24.561779553845014,150.04202863474896,4000,0.2,0.4,15,5,0.0,0.0,-161.4,2019-10-29 16:56:31.1970+0000,-0.09876596927642822,0.0,0.0,-0.4,true,35,-691,1170,22783,24.950000000000045,11,false,100,100,0,0,0,0,0,3798,3808,3798,3798,3795,3787,0.0,0.0,0.0,Started waypoint mission,
-24.561779553845014,150.04202863474896,4000,0.2,0.4,15,5,0.0,0.0,-161.4,2019-10-29 16:56:31.2970+0000,-0.0994340181350708,0.0,0.0,-0.4,true,35,-678,1170,22786,24.950000000000045,11,false,100,100,0,0,0,0,0,0,0,0,0,0,0,0.0,0.0,0.0,Started waypoint mission,
-24.561779553845014,150.04202863474896,4000,0.30000000000000004,0.4,15,5,0.0,0.0,-161.4,2019-10-29 16:56:31.4230+0000,-0.12418794631958008,0.0,0.0,-0.4,true,35,-678,1170,22786,24.950000000000045,11,false,100,100,0,0,0,0,0,3799,3808,3799,3797,3795,3788,0.0,0.0,0.0,Started waypoint mission,
-24.561779553845014,150.04202863474896,4000,0.30000000000000004,0.4,15,5,0.0,0.0,-161.4,2019-10-29 16:56:31.5070+0000,-0.08342897891998291,0.0,0.0,-0.4,true,35,-678,1170,22786,24.950000000000045,11,false,100,100,0,0,0,0,0,3799,3808,3799,3797,3795,3788,0.0,0.0,0.0,Started waypoint mission,
-24.561779553845014,150.04202863474896,4000,0.4,0.5,15,5,0.0,0.0,-161.4,2019-10-29 16:56:31.6060+0000,-0.09862399101257324,0.0,0.0,-0.5,true,35,-678,1170,22786,24.950000000000045,11,false,100,100,0,0,0,0,0,3799,3808,3799,3797,3795,3788,0.0,0.0,0.0,Started waypoint mission,
-24.561779553845014,150.04202863474896,4000,0.4,0.5,15,5,0.0,0.0,-161.4,2019-10-29 16:56:31.7080+0000,-0.10048294067382812,0.0,0.0,-0.5,true,35,-678,1170,22786,24.950000000000045,11,false,100,100,0,0,0,0,0,3799,3808,3799,3797,3795,3788,0.0,0.0,0.0,Started waypoint mission,
-24.561779553845014,150.04202863474896,4000,0.5,0.5,15,5,0.0,0.0,-161.4,2019-10-29 16:56:31.8070+0000,-0.0977630615234375,0.0,0.0,-0.5,true,35,-678,1170,22786,24.950000000000045,11,false,100,100,0,0,0,0,0,3799,3808,3799,3797,3795,3788,0.0,0.0,0.0,Started waypoint mission,
-24.561779553845014,150.04202863474896,4000,0.5,0.5,15,5,0.0,0.0,-161.4,2019-10-29 16:56:31.9190+0000,-0.11089599132537842,0.0,0.0,-0.5,true,35,-678,1170,22786,24.950000000000045,11,false,100,100,0,0,0,0,0,3799,3808,3799,3797,3795,3788,0.0,0.0,0.0,Started waypoint mission,
-24.561779553845014,150.04202863474896,4000,0.6000000000000001,0.5,15,5,0.0,0.0,-161.4,2019-10-29 16:56:32.0170+0000,-0.09692609310150146,0.0,0.0,-0.5,true,35,-678,1170,22786,24.950000000000045,11,false,100,100,0,0,0,0,0,3799,3808,3799,3797,3795,3788,0.0,0.0,0.0,Started waypoint mission,
-24.561779553845014,150.04202863474896,5000,0.6000000000000001,0.5,15,5,0.0,0.0,-161.4,2019-10-29 16:56:32.1170+0000,-0.0983729362487793,0.0,0.0,-0.5,true,35,-678,1170,22786,24.950000000000045,11,false,100,100,0,0,0,0,0,3799,3808,3799,3797,3795,3788,0.0,0.0,0.0,Started waypoint mission,
-24.561779553845014,150.04202863474896,5000,0.7000000000000001,0.5,15,5,0.0,0.0,-161.4,2019-10-29 16:56:32.2170+0000,-0.0993419885635376,0.0,0.0,-0.5,true,35,-678,1170,22786,24.950000000000045,11,false,100,100,0,0,0,0,0,3799,3808,3799,3797,3795,3788,0.0,0.0,0.0,Started waypoint mission,
-24.561779553845014,150.04202863474896,5000,0.7000000000000001,0.5,15,5,0.0,0.0,-161.4,2019-10-29 16:56:32.3170+0000,-0.0993649959564209,0.0,0.0,-0.5,true,35,-676,1170,22789,24.950000000000045,11,false,100,100,0,0,0,0,0,3799,3809,3799,3799,3795,3788,0.0,0.0,0.0,Started waypoint mission,
-24.561779553845014,150.04202863474896,5000,0.8,0.5,15,5,0.0,0.0,-161.4,2019-10-29 16:56:32.4180+0000,-0.10009896755218506,0.0,0.0,-0.5,true,35,-676,1170,22789,24.950000000000045,11,false,100,100,0,0,0,0,0,3799,3809,3799,3799,3795,3788,0.0,0.0,0.0,Started waypoint mission,
-24.561779553845014,150.04202863474896,5000,0.8,0.5,15,5,0.0,0.0,-161.4,2019-10-29 16:56:32.5260+0000,-0.10668694972991943,0.0,0.0,-0.5,true,35,-676,1170,22789,24.950000000000045,11,false,100,100,0,0,0,0,0,3799,3809,3799,3799,3795,3788,0.0,0.0,0.0,Started waypoint mission,
-24.561779553845014,150.04202863474896,5000,0.9,0.5,15,5,0.0,0.0,-161.4,2019-10-29 16:56:32.6270+0000,-0.10003697872161865,0.0,0.0,-0.5,true,35,-676,1170,22789,24.950000000000045,6,false,100,100,0,0,0,0,0,3799,3809,3799,3799,3795,3788,0.0,0.0,0.0,Started waypoint mission,
-24.561779553845014,150.04202863474896,5000,0.9,0.4,15,5,0.0,0.0,-161.4,2019-10-29 16:56:32.7270+0000,-0.09987401962280273,0.0,0.0,-0.4,true,35,-676,1170,22789,24.950000000000045,14,false,100,100,0,0,0,0,0,3799,3809,3799,3799,3795,3788,0.0,0.0,0.0,Started waypoint mission,
-24.561779553845014,150.04202863474896,5000,1.0,0.5,15,5,0.0,0.0,-161.4,2019-10-29 16:56:32.8260+0000,-0.0975179672241211,0.0,0.0,-0.5,true,35,-676,1170,22789,24.950000000000045,14,false,100,100,0,0,0,0,0,3799,3809,3799,3799,3795,3788,0.0,0.0,0.0,Started waypoint mission,
-24.561779553845014,150.04202863474896,5000,1.1,1.0,15,5,0.0,0.0,-161.4,2019-10-29 16:56:32.9270+0000,-0.09995794296264648,0.0,0.0,-1.0,true,35,-676,1170,22789,24.950000000000045,14,false,100,100,0,0,0,0,0,3799,3809,3799,3799,3795,3788,0.0,0.0,0.0,Started waypoint mission,
-24.561779553845014,150.04202863474896,6000,1.2000000000000002,1.2,15,5,0.0,0.0,-161.4,2019-10-29 16:56:33.0370+0000,-0.10955393314361572,0.0,0.0,-1.2,true,35,-676,1170,22789,24.950000000000045,14,false,100,100,0,0,0,0,0,3799,3809,3799,3799,3795,3788,0.0,0.0,0.0,Started waypoint mission,
-24.561779553845014,150.04202863474896,6000,1.3,1.4,15,5,0.0,0.0,-161.4,2019-10-29 16:56:33.1370+0000,-0.09835994243621826,0.0,0.0,-1.4,true,35,-676,1170,22789,24.950000000000045,14,false,100,100,0,0,0,0,0,3799,3809,3799,3799,3795,3788,0.0,0.0,0.0,Started waypoint mission,
-24.561779553845014,150.04202863474896,6000,1.5,1.4,15,5,0.0,0.0,-161.4,2019-10-29 16:56:33.2370+0000,-0.09938693046569824,0.0,0.0,-1.4,true,35,-676,1170,22789,24.950000000000045,14,false,100,100,0,0,0,0,0,3799,3809,3799,3799,3795,3788,0.0,0.0,0.0,Started waypoint mission,
-24.561779553845014,150.04202863474896,6000,1.6,1.4,15,5,0.0,0.0,-161.4,2019-10-29 16:56:33.3370+0000,-0.09811699390411377,0.0,0.0,-1.4,true,35,-678,1170,22786,24.950000000000045,14,false,100,100,0,0,0,0,0,3799,3809,3799,3799,3795,3788,0.0,0.0,0.0,Started waypoint mission,
-24.561779553845014,150.04202863474896,6000,1.7000000000000002,1.3,15,5,0.0,0.0,-161.4,2019-10-29 16:56:33.4370+0000,-0.09835696220397949,0.0,0.0,-1.3,true,35,-678,1170,22786,24.950000000000045,14,false,100,100,0,0,0,0,0,3799,3809,3799,3799,3795,3788,0.0,0.0,0.0,Started waypoint mission,
-24.561779553845014,150.04202863474896,6000,1.9000000000000001,1.3,15,5,0.0,0.0,-161.4,2019-10-29 16:56:33.5370+0000,-0.09945893287658691,0.0,0.0,-1.3,true,35,-678,1170,22786,24.950000000000045,14,false,100,100,0,0,0,0,0,3799,3809,3799,3799,3795,3788,0.0,0.0,0.0,Started waypoint mission,
-24.561779553845014,150.04202863474896,6000,2.0,1.4,15,5,0.0,0.0,-161.4,2019-10-29 16:56:33.6490+0000,-0.11024010181427002,0.0,0.0,-1.4,true,35,-678,1170,22786,24.950000000000045,14,false,100,100,0,0,0,0,0,3799,3809,3799,3799,3795,3788,0.0,0.0,0.0,Started waypoint mission,
-24.561779553845014,150.04202863474896,6000,2.2,1.5,15,5,0.0,0.0,-161.4,2019-10-29 16:56:33.7470+0000,-0.09716999530792236,0.0,0.0,-1.5,true,35,-678,1170,22786,24.950000000000045,14,false,100,100,0,0,0,0,0,3799,3809,3799,3799,3795,3788,0.0,0.0,0.0,Started waypoint mission,
-24.561779553845014,150.04202863474896,6000,2.3000000000000003,1.6,15,5,0.0,0.0,-161.4,2019-10-29 16:56:33.8480+0000,-0.09952104091644287,0.0,0.0,-1.6,true,35,-678,1170,22786,24.950000000000045,14,false,100,100,0,0,0,0,0,3798,3809,3798,3799,3795,3787,0.0,0.0,0.0,Started waypoint mission,
-24.561779553845014,150.04202863474896,6000,2.5,1.8,15,5,0.0,0.0,-161.4,2019-10-29 16:56:33.9460+0000,-0.0973440408706665,0.0,0.0,-1.8,true,35,-678,1170,22786,24.950000000000045,14,false,100,100,0,0,0,0,0,3798,3809,3798,3799,3795,3787,0.0,0.0,0.0,Started waypoint mission,
-24.561779553845014,150.04202863474896,7000,2.7,2.0,15,5,0.0,0.0,-161.4,2019-10-29 16:56:34.0500+0000,-0.10298192501068115,0.0,0.0,-2.0,true,35,-678,1170,22786,24.950000000000045,14,false,100,100,0,0,0,0,0,3798,3809,3798,3799,3795,3787,0.0,0.0,0.0,Started waypoint mission,
-24.561779553845014,150.04202863474896,7000,2.9000000000000004,2.2,15,5,0.0,0.0,-161.4,2019-10-29 16:56:34.1570+0000,-0.10585200786590576,0.0,0.0,-2.2,true,35,-678,1170,22786,24.950000000000045,14,false,100,100,0,0,0,0,0,3798,3809,3798,3799,3795,3787,0.0,0.0,0.0,Started waypoint mission,
-24.561779553845014,150.04202863474896,7000,3.1,2.4,15,5,0.0,0.0,-161.4,2019-10-29 16:56:34.2570+0000,-0.09953200817108154,0.0,0.0,-2.4,true,35,-678,1170,22786,24.950000000000045,14,false,100,100,0,0,0,0,0,3798,3809,3798,3799,3795,3787,0.0,0.0,0.0,Started waypoint mission,
-24.561779553845014,150.04202863474896,7000,3.4000000000000004,2.6,15,5,0.0,0.0,-161.4,2019-10-29 16:56:34.3590+0000,-0.10097599029541016,0.0,0.0,-2.6,true,35,-678,1170,22786,24.950000000000045,14,false,100,100,0,0,0,0,0,3798,3809,3798,3799,3795,3787,0.0,0.0,0.0,Started waypoint mission,
-24.561779553845014,150.04202863474896,7000,3.7,2.7,15,5,0.0,0.0,-161.4,2019-10-29 16:56:34.3610+0000,-0.001031041145324707,0.0,0.0,-2.7,true,35,-678,1170,22786,24.950000000000045,14,false,100,100,0,0,0,0,0,3798,3809,3798,3799,3795,3787,0.0,0.0,0.0,Started waypoint mission,
-24.561779553845014,150.04202863474896,7000,3.9000000000000004,2.8,15,5,0.0,0.0,-161.4,2019-10-29 16:56:34.5570+0000,-0.19538497924804688,0.0,0.0,-2.8,true,35,-678,1170,22786,24.950000000000045,14,false,100,100,0,0,0,0,0,3798,3809,3798,3799,3795,3787,0.0,0.0,0.0,Started waypoint mission,
-24.561779553845014,150.04202863474896,7000,4.2,2.9,15,5,0.0,0.0,-161.4,2019-10-29 16:56:34.5590+0000,-0.0011299848556518555,0.0,0.0,-2.9,true,35,-678,1170,22786,24.950000000000045,14,false,100,100,0,0,0,0,0,3798,3809,3798,3799,3795,3787,0.0,0.0,0.0,Started waypoint mission,
-24.561779553845014,150.04202863474896,7000,4.5,3.0,15,5,0.0,0.0,-161.4,2019-10-29 16:56:34.6680+0000,-0.10759305953979492,0.0,0.0,-3.0,true,35,-678,1170,22786,24.950000000000045,14,false,100,100,0,0,0,0,0,3798,3809,3798,3799,3795,3787,0.0,0.0,0.0,Started waypoint mission,
-24.561779553845014,150.04202863474896,7000,4.800000000000001,3.0,15,5,0.0,0.0,-161.4,2019-10-29 16:56:34.7680+0000,-0.0988919734954834,0.0,0.0,-3.0,true,35,-689,1170,22785,24.950000000000045,14,false,100,100,0,0,0,0,0,0,0,0,0,0,0,0.0,0.0,0.0,Started waypoint mission,
-24.561779553845014,150.04202863474896,7000,5.2,3.0,15,5,0.0,0.0,-161.4,2019-10-29 16:56:34.8680+0000,-0.09875094890594482,0.0,0.0,-3.0,true,35,-689,1170,22785,24.950000000000045,14,false,100,100,0,0,0,0,0,3799,3809,3797,3799,3793,3787,0.0,0.0,0.0,Started waypoint mission,
-24.561779553845014,150.04202863474896,7000,5.5,3.0,15,5,0.0,0.0,-161.4,2019-10-29 16:56:34.9660+0000,-0.09690999984741211,0.0,0.0,-3.0,true,35,-689,1170,22785,24.950000000000045,14,false,100,100,0,0,0,0,0,3799,3809,3797,3799,3793,3787,0.0,0.0,0.0,Started waypoint mission,
-24.561779553845014,150.04202863474896,8000,5.800000000000001,3.1,15,5,0.0,0.0,-161.4,2019-10-29 16:56:35.0660+0000,-0.09924089908599854,0.0,0.0,-3.1,true,35,-689,1170,22785,24.950000000000045,14,false,100,100,0,0,0,0,0,3799,3809,3797,3799,3793,3787,0.0,0.0,0.0,Started waypoint mission,
-24.561779553845014,150.04202863474896,8000,6.1000000000000005,3.1,15,5,0.0,0.0,-161.4,2019-10-29 16:56:35.1660+0000,-0.09981000423431396,0.0,0.0,-3.1,true,35,-689,1170,22785,24.950000000000045,14,false,100,100,0,0,0,0,0,3799,3809,3797,3799,3793,3787,0.0,0.0,0.0,Started waypoint mission,
-24.561779553845014,150.04202863474896,8000,6.4,3.1,15,5,0.0,0.0,-161.4,2019-10-29 16:56:35.2760+0000,-0.10955095291137695,0.0,0.0,-3.1,true,35,-689,1170,22785,24.950000000000045,14,false,100,100,0,0,0,0,0,0,0,0,0,0,0,0.0,0.0,0.0,Started waypoint mission,
-24.561779553845014,150.04202863474896,8000,6.7,3.1,15,5,0.0,0.0,-161.4,2019-10-29 16:56:35.3770+0000,-0.10033094882965088,0.0,0.0,-3.1,true,35,-689,1170,22785,24.950000000000045,14,false,100,100,0,0,0,0,0,3799,3809,3797,3799,3793,3787,0.0,0.0,0.0,Started waypoint mission,
-24.561779553845014,150.04202863474896,8000,7.0,3.1,15,5,0.0,0.0,-161.4,2019-10-29 16:56:35.4820+0000,-0.10504591464996338,0.0,0.0,-3.1,true,35,-689,1170,22785,24.950000000000045,14,false,100,100,0,0,0,0,0,3799,3809,3797,3799,3793,3787,0.0,0.0,0.0,Started waypoint mission,
-24.561779553845014,150.04202863474896,8000,7.300000000000001,3.1,15,5,0.0,0.0,-161.4,2019-10-29 16:56:35.5760+0000,-0.09318399429321289,0.0,0.0,-3.1,true,35,-689,1170,22785,24.950000000000045,14,false,100,100,0,0,0,0,0,3799,3809,3797,3799,3793,3787,0.0,0.0,0.0,Started waypoint mission,
-24.561779553845014,150.04202863474896,8000,7.6000000000000005,3.1,15,5,0.0,0.0,-161.4,2019-10-29 16:56:35.6780+0000,-0.10098707675933838,0.0,0.0,-3.1,true,35,-689,1170,22785,24.950000000000045,14,false,100,100,0,0,0,0,0,3799,3809,3797,3799,3793,3787,0.0,0.0,0.0,Started waypoint mission,
-24.561779553845014,150.04202863474896,8000,7.9,3.0,15,5,0.0,0.0,-161.4,2019-10-29 16:56:35.7890+0000,-0.10983598232269287,0.0,0.0,-3.0,true,35,-685,1170,22783,25.05000000000001,14,false,100,100,0,0,0,0,0,0,0,0,0,0,0,0.0,0.0,0.0,Started waypoint mission,
-24.561779553845014,150.04202863474896,8000,8.3,3.0,15,5,0.0,0.0,-161.4,2019-10-29 16:56:35.8880+0000,-0.09816396236419678,0.0,0.0,-3.0,true,35,-685,1170,22783,25.05000000000001,14,false,100,100,0,0,0,0,0,3798,3808,3799,3798,3794,3788,0.0,0.0,0.0,Started waypoint mission,
-24.561779553845014,150.04202863474896,8000,8.6,3.0,15,5,0.0,0.0,-161.4,2019-10-29 16:56:35.9970+0000,-0.10796403884887695,0.0,0.0,-3.0,true,35,-685,1170,22783,25.05000000000001,14,false,100,100,0,0,0,0,0,3798,3808,3799,3798,3794,3788,0.0,0.0,0.0,Started waypoint mission,
-24.561779553845014,150.04202863474896,9000,8.9,3.0,15,5,0.0,0.0,-161.4,2019-10-29 16:56:36.0970+0000,-0.09891998767852783,0.0,0.0,-3.0,true,35,-685,1170,22783,25.05000000000001,14,false,100,100,0,0,0,0,0,3798,3808,3799,3798,3794,3788,0.0,0.0,0.0,Started waypoint mission,
-24.561779553845014,150.04202863474896,9000,9.200000000000001,3.0,15,5,0.0,0.0,-161.4,2019-10-29 16:56:36.1980+0000,-0.09989798069000244,0.0,0.0,-3.0,true,35,-685,1170,22783,25.05000000000001,14,false,100,100,0,0,0,0,0,3798,3808,3799,3798,3794,3788,0.0,0.0,0.0,Started waypoint mission,
-24.561779553845014,150.04202863474896,9000,9.5,3.0,15,5,0.0,0.0,-161.4,2019-10-29 16:56:36.2990+0000,-0.0994269847869873,0.0,0.0,-3.0,true,35,-685,1170,22783,25.05000000000001,14,false,100,100,0,0,0,0,0,0,0,0,0,0,0,0.0,0.0,0.0,Started waypoint mission,
-24.561779553845014,150.04202863474896,9000,9.8,3.0,15,5,0.0,0.0,-161.4,2019-10-29 16:56:36.4060+0000,-0.10629606246948242,0.0,0.0,-3.0,true,35,-685,1170,22783,25.05000000000001,14,false,100,100,0,0,0,0,0,3798,3808,3799,3798,3794,3788,0.0,0.0,0.0,Started waypoint mission,
-24.561779553845014,150.04202863474896,9000,10.100000000000001,3.0,15,5,0.0,0.0,-161.4,2019-10-29 16:56:36.5010+0000,-0.09380996227264404,0.0,0.0,-3.0,true,35,-685,1170,22783,25.05000000000001,14,false,100,100,0,0,0,0,0,3798,3808,3799,3798,3794,3788,0.0,0.0,0.0,Started waypoint mission,
-24.561779553845014,150.04202863474896,9000,10.4,3.0,15,5,0.0,0.0,-161.4,2019-10-29 16:56:36.6140+0000,-0.11269700527191162,0.0,0.0,-3.0,true,35,-685,1170,22783,25.05000000000001,14,false,100,100,0,0,0,0,0,3798,3808,3799,3798,3794,3788,0.0,0.0,0.0,Started waypoint mission,
-24.561779553845014,150.04202863474896,9000,10.700000000000001,3.0,15,5,0.0,0.0,-161.4,2019-10-29 16:56:36.7090+0000,-0.09370696544647217,0.0,0.0,-3.0,true,35,-685,1170,22783,25.05000000000001,14,false,100,100,0,0,0,0,0,3798,3808,3799,3798,3794,3788,0.0,0.0,0.0,Started waypoint mission,
-24.561779553845014,150.04202863474896,9000,11.0,3.0,15,5,0.0,0.0,-161.4,2019-10-29 16:56:36.8070+0000,-0.0975269079208374,0.0,0.0,-3.0,true,35,-681,1170,22786,25.05000000000001,14,false,100,100,0,0,0,0,0,3798,3809,3798,3798,3795,3788,0.0,0.0,0.0,Started waypoint mission,
-24.561779553845014,150.04202863474896,9000,11.3,3.0,15,5,0.0,0.0,-161.4,2019-10-29 16:56:36.9200+0000,-0.1116030216217041,0.0,0.0,-3.0,true,35,-681,1170,22786,25.05000000000001,14,false,100,100,0,0,0,0,0,3798,3809,3798,3798,3795,3788,0.0,0.0,0.0,Started waypoint mission,
-24.561779553845014,150.04202863474896,9000,11.600000000000001,3.0,15,5,0.0,0.0,-161.4,2019-10-29 16:56:37.0080+0000,-0.08720207214355469,0.0,0.0,-3.0,true,35,-681,1170,22786,25.05000000000001,14,false,100,100,0,0,0,0,0,3798,3809,3798,3798,3795,3788,0.0,0.0,0.0,Started waypoint mission,
-24.561779553845014,150.04202863474896,10000,11.9,3.0,15,5,0.0,0.0,-161.4,2019-10-29 16:56:37.1180+0000,-0.10893499851226807,0.0,0.0,-3.0,true,35,-681,1170,22786,25.05000000000001,14,false,100,100,0,0,0,0,0,3798,3809,3798,3798,3795,3788,0.0,0.0,0.0,Started waypoint mission,
-24.561779553845014,150.04202863474896,10000,12.200000000000001,3.0,15,5,0.0,0.0,-161.4,2019-10-29 16:56:37.2180+0000,-0.0989370346069336,0.0,0.0,-3.0,true,35,-681,1170,22786,25.05000000000001,14,false,100,100,0,0,0,0,0,3798,3809,3798,3798,3795,3788,0.0,0.0,0.0,Started waypoint mission,
-24.561779553845014,150.04202863474896,10000,12.5,3.0,15,5,0.0,0.0,-161.4,2019-10-29 16:56:37.3180+0000,-0.0984640121459961,0.0,0.0,-3.0,true,35,-681,1170,22786,25.05000000000001,14,false,100,100,0,0,0,0,0,3798,3809,3798,3798,3795,3788,0.0,0.0,0.0,Started waypoint mission,
-24.561779553845014,150.04202863474896,10000,12.8,3.0,15,5,0.0,0.0,-161.4,2019-10-29 16:56:37.4180+0000,-0.0994560718536377,0.0,0.0,-3.0,true,35,-681,1170,22786,25.05000000000001,14,false,100,100,0,0,0,0,0,3798,3809,3798,3798,3795,3788,0.0,0.0,0.0,Started waypoint mission,
-24.561779553845014,150.04202863474896,10000,13.100000000000001,3.0,15,5,0.0,0.0,-161.4,2019-10-29 16:56:37.5180+0000,-0.09954607486724854,0.0,0.0,-3.0,true,35,-681,1170,22786,25.05000000000001,14,false,100,100,0,0,0,0,0,3798,3809,3798,3798,3795,3788,0.0,0.0,0.0,Started waypoint mission,
-24.561779553845014,150.04202863474896,10000,13.5,3.0,15,5,0.0,0.0,-161.4,2019-10-29 16:56:37.6250+0000,-0.10587501525878906,0.0,0.0,-3.0,true,35,-681,1170,22786,25.05000000000001,14,false,100,100,0,0,0,0,0,3798,3809,3798,3798,3795,3788,0.0,0.0,0.0,Started waypoint mission,
-24.561779553845014,150.04202863474896,10000,13.8,3.0,15,5,0.0,0.0,-161.4,2019-10-29 16:56:37.7270+0000,-0.10109901428222656,0.0,0.0,-3.0,true,35,-681,1170,22786,25.05000000000001,14,false,100,100,0,0,0,0,0,3798,3809,3798,3798,3795,3788,0.0,0.0,0.0,Started waypoint mission,
-24.561779553845014,150.04202863474896,10000,14.100000000000001,3.0,15,5,0.0,0.0,-161.4,2019-10-29 16:56:37.8270+0000,-0.09851598739624023,0.0,0.0,-3.0,true,35,-670,1170,22787,25.05000000000001,14,false,100,100,0,0,0,0,0,3798,3808,3798,3798,3796,3788,0.0,0.0,0.0,Started waypoint mission,
-24.561779553845014,150.04202863474896,10000,14.4,3.0,15,5,0.0,0.0,-161.4,2019-10-29 16:56:37.9270+0000,-0.09945595264434814,0.0,0.0,-3.0,true,35,-670,1170,22787,25.05000000000001,14,false,100,100,0,0,0,0,0,3798,3808,3798,3798,3796,3788,0.0,0.0,0.0,Started waypoint mission,
-24.561779553845014,150.04202863474896,11000,14.700000000000001,3.0,15,5,0.0,0.0,-161.4,2019-10-29 16:56:38.0370+0000,-0.10917103290557861,0.0,0.0,-3.0,true,35,-670,1170,22787,25.05000000000001,14,false,100,100,0,0,0,0,0,3798,3808,3798,3798,3796,3788,0.0,0.0,0.0,Started waypoint mission,
-24.561779553845014,150.04202863474896,11000,15.0,3.0,15,5,0.0,0.0,-161.4,2019-10-29 16:56:38.1360+0000,-0.09840905666351318,0.0,0.0,-3.0,true,35,-670,1170,22787,25.05000000000001,14,false,100,100,0,0,0,0,0,3798,3808,3798,3798,3796,3788,0.0,0.0,0.0,Started waypoint mission,
-24.561779553845014,150.04202863474896,11000,15.3,3.0,15,5,0.0,0.0,-161.4,2019-10-29 16:56:38.2370+0000,-0.09945094585418701,0.0,0.0,-3.0,true,35,-670,1170,22787,25.05000000000001,14,false,100,100,0,0,0,0,0,3798,3808,3798,3798,3796,3788,0.0,0.0,0.0,Started waypoint mission,
-24.561779553845014,150.04202863474896,11000,15.600000000000001,3.0,15,5,0.0,0.0,-161.4,2019-10-29 16:56:38.3370+0000,-0.09922599792480469,0.0,0.0,-3.0,true,35,-670,1170,22787,25.05000000000001,14,false,100,100,0,0,0,0,0,3798,3808,3798,3798,3796,3788,0.0,0.0,0.0,Started waypoint mission,
-24.561779553845014,150.04202863474896,11000,15.9,3.0,15,5,0.0,0.0,-161.4,2019-10-29 16:56:38.4370+0000,-0.09842896461486816,0.0,0.0,-3.0,true,35,-670,1170,22787,25.05000000000001,14,false,100,100,0,0,0,0,0,3798,3808,3798,3798,3796,3788,0.0,0.0,0.0,Started waypoint mission,
-24.561779553845014,150.04202863474896,11000,16.2,3.0,15,5,0.0,0.0,-161.4,2019-10-29 16:56:38.5470+0000,-0.10860610008239746,0.0,0.0,-3.0,true,35,-670,1170,22787,25.05000000000001,14,false,100,100,0,0,0,0,0,3798,3808,3798,3798,3796,3788,0.0,0.0,0.0,Started waypoint mission,
-24.561779553845014,150.04202863474896,11000,16.5,3.0,15,5,0.0,0.0,-161.4,2019-10-29 16:56:38.6480+0000,-0.09969699382781982,0.0,0.0,-3.0,true,35,-670,1170,22787,25.05000000000001,14,false,100,100,0,0,0,0,0,3798,3808,3798,3798,3796,3788,0.0,0.0,0.0,Started waypoint mission,
-24.561779553845014,150.04202863474896,11000,16.8,3.0,15,5,0.0,0.0,-161.4,2019-10-29 16:56:38.7480+0000,-0.09872400760650635,0.0,0.0,-3.0,true,35,-670,1170,22787,25.05000000000001,14,false,100,100,0,0,0,0,0,3798,3808,3798,3798,3796,3788,0.0,0.0,0.0,Started waypoint mission,
-24.561779553845014,150.04202863474896,11000,17.1,3.0,15,5,0.0,0.0,-161.4,2019-10-29 16:56:38.8470+0000,-0.09873998165130615,0.0,0.0,-3.0,true,35,-690,1170,22784,25.05000000000001,14,false,100,100,0,0,0,0,0,3798,3808,3798,3798,3796,3788,0.0,0.0,0.0,Started waypoint mission,
-24.561779553845014,150.04202863474896,11000,17.400000000000002,3.0,15,5,0.0,0.0,-161.4,2019-10-29 16:56:38.9480+0000,-0.09972691535949707,0.0,0.0,-3.0,true,35,-690,1170,22784,25.05000000000001,14,false,100,100,0,0,0,0,0,3798,3808,3798,3798,3796,3788,0.0,0.0,0.0,Started waypoint mission,
-24.561779553845014,150.04202863474896,12000,17.7,3.0,15,5,0.0,0.0,-161.4,2019-10-29 16:56:39.0560+0000,-0.10645890235900879,0.0,0.0,-3.0,true,35,-690,1170,22784,25.05000000000001,14,false,100,100,0,0,0,0,0,3798,3808,3798,3798,3796,3788,0.0,0.0,0.0,Started waypoint mission,
-24.561779553845014,150.04202863474896,12000,18.0,3.0,15,5,0.0,0.0,-161.4,2019-10-29 16:56:39.1560+0000,-0.09920203685760498,0.0,0.0,-3.0,true,35,-690,1170,22784,25.05000000000001,14,false,100,100,0,0,0,0,0,3798,3808,3798,3798,3796,3788,0.0,0.0,0.0,Started waypoint mission,
-24.561779553845014,150.04202863474896,12000,18.3,3.0,15,5,0.0,0.0,-161.4,2019-10-29 16:56:39.2570+0000,-0.10084998607635498,0.0,0.0,-3.0,true,35,-690,1170,22784,25.05000000000001,14,false,100,100,0,0,0,0,0,3798,3808,3798,3798,3796,3788,0.0,0.0,0.0,Started waypoint mission,
-24.561779553845014,150.04202863474896,12000,18.6,3.0,15,5,0.0,0.0,-161.4,2019-10-29 16:56:39.3580+0000,-0.10006904602050781,0.0,0.0,-3.0,true,35,-690,1170,22784,25.05000000000001,14,false,100,100,0,0,0,0,0,3798,3808,3797,3797,3794,3788,0.0,0.0,0.0,Started waypoint mission,
-24.561779553845014,150.04202863474896,12000,18.900000000000002,3.0,15,5,0.0,0.0,-161.4,2019-10-29 16:56:39.3600+0000,-0.0014679431915283203,0.0,0.0,-3.0,true,35,-690,1170,22784,25.05000000000001,14,false,100,100,0,0,0,0,0,3798,3808,3797,3797,3794,3788,0.0,0.0,0.0,Started waypoint mission,
-24.561779553845014,150.04202863474896,12000,19.200000000000003,3.0,15,5,0.0,0.0,-161.4,2019-10-29 16:56:39.4570+0000,-0.09594404697418213,0.0,0.0,-3.0,true,35,-690,1170,22784,25.05000000000001,14,false,100,100,0,0,0,0,0,3798,3808,3797,3797,3794,3788,0.0,0.0,0.0,Started waypoint mission,
-24.561779553845014,150.04202863474896,12000,19.5,3.0,15,5,0.0,0.0,-161.4,2019-10-29 16:56:39.5680+0000,-0.109794020652771,0.0,0.0,-3.0,true,35,-690,1170,22784,25.05000000000001,14,false,100,100,0,0,0,0,0,3798,3808,3797,3797,3794,3788,0.0,0.0,0.0,Started waypoint mission,
-24.561779553845014,150.04202863474896,12000,19.8,3.0,15,5,0.0,0.0,-161.4,2019-10-29 16:56:39.6680+0000,-0.0986400842666626,0.0,0.0,-3.0,true,35,-690,1170,22784,25.05000000000001,14,false,100,100,0,0,0,0,0,3798,3808,3797,3797,3794,3788,0.0,0.0,0.0,Started waypoint mission,
-24.561779553845014,150.04202863474896,12000,20.1,3.0,15,5,0.0,0.0,-161.4,2019-10-29 16:56:39.7680+0000,-0.09913098812103271,0.0,0.0,-3.0,true,35,-690,1170,22784,25.05000000000001,14,false,100,100,0,0,0,0,0,0,0,0,0,0,0,0.0,0.0,0.0,Started waypoint mission,
-24.561779553845014,150.04202863474896,12000,20.400000000000002,3.0,15,5,0.0,0.0,-161.4,2019-10-29 16:56:39.8690+0000,-0.09982693195343018,0.0,0.0,-3.0,true,35,-690,1170,22784,25.05000000000001,14,false,100,100,0,0,0,0,0,3798,3808,3797,3797,3794,3788,0.0,0.0,0.0,Started waypoint mission,
-24.561779553845014,150.04202863474896,12000,20.700000000000003,3.0,15,5,0.0,0.0,-161.4,2019-10-29 16:56:39.9680+0000,-0.09818696975708008,0.0,0.0,-3.0,true,35,-690,1170,22784,25.05000000000001,14,false,100,100,0,0,0,0,0,3798,3808,3797,3797,3794,3788,0.0,0.0,0.0,Started waypoint mission,
-24.561779553845014,150.04202863474896,13000,21.0,3.0,15,5,0.0,0.0,-161.4,2019-10-29 16:56:40.0790+0000,-0.10952198505401611,0.0,0.0,-3.0,true,35,-690,1170,22784,25.05000000000001,14,false,100,100,0,0,0,0,0,3798,3808,3797,3797,3794,3788,0.0,0.0,0.0,Started waypoint mission,
-24.561779553845014,150.04202863474896,13000,21.3,3.0,15,5,0.0,0.0,-161.4,2019-10-29 16:56:40.1780+0000,-0.09867203235626221,0.0,0.0,-3.0,true,35,-690,1170,22784,25.05000000000001,14,false,100,100,0,0,0,0,0,3798,3808,3797,3797,3794,3788,0.0,0.0,0.0,Started waypoint mission,
-24.561779553845014,150.04202863474896,13000,21.6,3.0,15,5,0.0,0.0,-161.4,2019-10-29 16:56:40.2790+0000,-0.09929502010345459,0.0,0.0,-3.0,true,35,-672,1170,22786,25.05000000000001,14,false,100,100,0,0,0,0,0,0,0,0,0,0,0,0.0,0.0,0.0,Started waypoint mission,
-24.561779553845014,150.04202863474896,13000,21.900000000000002,3.0,15,5,0.0,0.0,-161.4,2019-10-29 16:56:40.3780+0000,-0.09846699237823486,0.0,0.0,-3.0,true,35,-672,1170,22786,25.05000000000001,14,false,100,100,0,0,0,0,0,3799,3808,3798,3799,3794,3787,0.0,0.0,0.0,Started waypoint mission,
-24.561779553845014,150.04202863474896,13000,22.200000000000003,3.0,15,5,0.0,0.0,-161.4,2019-10-29 16:56:40.4880+0000,-0.10874700546264648,0.0,0.0,-3.0,true,35,-672,1170,22786,25.05000000000001,14,false,100,100,0,0,0,0,0,3799,3808,3798,3799,3794,3787,0.0,0.0,0.0,Started waypoint mission,
-24.561779553845014,150.04202863474896,13000,22.5,3.0,15,5,0.0,0.0,-161.4,2019-10-29 16:56:40.5880+0000,-0.09895706176757812,0.0,0.0,-3.0,true,35,-672,1170,22786,25.05000000000001,14,false,100,100,0,0,0,0,0,3799,3808,3798,3799,3794,3787,0.0,0.0,0.0,Started waypoint mission,
-24.561779553845014,150.04202863474896,13000,22.8,3.0,15,5,0.0,0.0,-161.4,2019-10-29 16:56:40.6880+0000,-0.09804189205169678,0.0,0.0,-3.0,true,35,-672,1170,22786,25.05000000000001,14,false,100,100,0,0,0,0,0,3799,3808,3798,3799,3794,3787,0.0,0.0,0.0,Started waypoint mission,
-24.561779553845014,150.04202863474896,13000,23.1,3.0,15,5,0.0,0.0,-161.4,2019-10-29 16:56:40.7880+0000,-0.0994870662689209,0.0,0.0,-3.0,true,35,-672,1170,22786,25.05000000000001,14,false,100,100,0,0,0,0,0,0,0,0,0,0,0,0.0,0.0,0.0,Started waypoint mission,
-24.561779553845014,150.04202863474896,13000,23.400000000000002,3.0,15,5,0.0,0.0,-161.4,2019-10-29 16:56:40.8880+0000,-0.09918797016143799,0.0,0.0,-3.0,true,35,-672,1170,22786,25.05000000000001,14,false,100,100,0,0,0,0,0,3799,3808,3798,3799,3794,3787,0.0,0.0,0.0,Started waypoint mission,
-24.561779553845014,150.04202863474896,13000,23.700000000000003,3.0,15,5,0.0,0.0,-161.4,2019-10-29 16:56:40.9980+0000,-0.10845398902893066,0.0,0.0,-3.0,true,35,-672,1170,22786,25.05000000000001,14,false,100,100,0,0,0,0,0,3799,3808,3798,3799,3794,3787,0.0,0.0,0.0,Started waypoint mission,
-24.561779553845014,150.04202863474896,14000,24.0,3.0,15,5,0.0,0.0,-161.4,2019-10-29 16:56:41.0980+0000,-0.09914195537567139,0.0,0.0,-3.0,true,35,-672,1170,22786,25.05000000000001,14,false,100,100,0,0,0,0,0,3799,3808,3798,3799,3794,3787,0.0,0.0,0.0,Started waypoint mission,
-24.561779553845014,150.04202863474896,14000,24.3,3.0,15,5,0.0,0.0,-161.4,2019-10-29 16:56:41.1980+0000,-0.09847795963287354,0.0,0.0,-3.0,true,35,-672,1170,22786,25.05000000000001,14,false,100,100,0,0,0,0,0,3799,3808,3798,3799,3794,3787,0.0,0.0,0.0,Started waypoint mission,
-24.561779553845014,150.04202863474896,14000,24.6,3.0,15,5,0.0,0.0,-161.4,2019-10-29 16:56:41.2990+0000,-0.10000503063201904,0.0,0.0,-3.0,true,35,-679,1170,22788,25.05000000000001,14,false,100,100,0,0,0,0,0,0,0,0,0,0,0,0.0,0.0,0.0,Started waypoint mission,
-24.561779553845014,150.04202863474896,14000,24.900000000000002,3.0,15,5,0.0,0.0,-161.4,2019-10-29 16:56:41.3980+0000,-0.0974050760269165,0.0,0.0,-3.0,true,35,-679,1170,22788,25.05000000000001,14,false,100,100,0,0,0,0,0,3799,3808,3798,3798,3795,3788,0.0,0.0,0.0,Started waypoint mission,
-24.561779553845014,150.04202863474896,14000,25.200000000000003,3.0,15,5,0.0,0.0,-161.4,2019-10-29 16:56:41.5130+0000,-0.11438500881195068,0.0,0.0,-3.0,true,35,-679,1170,22788,25.05000000000001,14,false,100,100,0,0,0,0,0,3799,3808,3798,3798,3795,3788,0.0,0.0,0.0,Started waypoint mission,
-24.561779553845014,150.04202863474896,14000,25.5,3.0,15,5,0.0,0.0,-161.4,2019-10-29 16:56:41.6080+0000,-0.09390699863433838,0.0,0.0,-3.0,true,35,-679,1170,22788,25.05000000000001,14,false,100,100,0,0,0,0,0,3799,3808,3798,3798,3795,3788,0.0,0.0,0.0,Started waypoint mission,
-24.561779553845014,150.04202863474896,14000,25.8,3.0,15,5,0.0,0.0,-161.4,2019-10-29 16:56:41.7080+0000,-0.09946691989898682,0.0,0.0,-3.0,true,35,-679,1170,22788,25.05000000000001,14,false,100,100,0,0,0,0,0,3799,3808,3798,3798,3795,3788,0.0,0.0,0.0,Started waypoint mission,
-24.561779553845014,150.04202863474896,14000,26.1,3.0,15,5,0.0,0.0,-161.4,2019-10-29 16:56:41.8090+0000,-0.09950006008148193,0.0,0.0,-3.0,true,35,-679,1170,22788,25.05000000000001,14,false,100,100,0,0,0,0,0,3799,3808,3798,3798,3795,3788,0.0,0.0,0.0,Started waypoint mission,
-24.561779553845014,150.04202863474896,14000,26.400000000000002,3.0,15,5,0.0,0.0,-161.4,2019-10-29 16:56:41.9190+0000,-0.10949599742889404,0.0,0.0,-3.0,true,35,-679,1170,22788,25.05000000000001,14,false,100,100,0,0,0,0,0,3799,3808,3798,3798,3795,3788,0.0,0.0,0.0,Started waypoint mission,
-24.561779553845014,150.04202863474896,14000,26.700000000000003,3.0,15,5,0.0,0.0,-161.4,2019-10-29 16:56:42.0080+0000,-0.08821690082550049,0.0,0.0,-3.0,true,35,-679,1170,22788,25.05000000000001,14,false,100,100,0,0,0,0,0,3799,3808,3798,3798,3795,3788,0.0,0.0,0.0,Started waypoint mission,
-24.561779553845014,150.04202863474896,15000,27.0,3.0,15,5,0.0,0.0,-161.4,2019-10-29 16:56:42.1170+0000,-0.1072080135345459,0.0,0.0,-3.0,true,35,-679,1170,22788,25.05000000000001,14,false,100,100,0,0,0,0,0,3799,3808,3798,3798,3795,3788,0.0,0.0,0.0,Started waypoint mission,
-24.561779553845014,150.04202863474896,15000,27.3,3.0,15,5,0.0,0.0,-161.4,2019-10-29 16:56:42.2180+0000,-0.09958696365356445,0.0,0.0,-3.0,true,35,-679,1170,22788,25.05000000000001,14,false,100,100,0,0,0,0,0,3799,3808,3798,3798,3795,3788,0.0,0.0,0.0,Started waypoint mission,
-24.561779553845014,150.04202863474896,15000,27.6,3.0,15,5,0.0,0.0,-161.4,2019-10-29 16:56:42.3180+0000,-0.09959900379180908,0.0,0.0,-3.0,true,35,-678,1170,22783,25.05000000000001,14,false,100,100,0,0,0,0,0,3797,3808,3798,3798,3795,3788,0.0,0.0,0.0,Started waypoint mission,
-24.561779553845014,150.04202863474896,15000,27.900000000000002,3.0,15,5,0.0,0.0,-161.4,2019-10-29 16:56:42.4230+0000,-0.10325706005096436,0.0,0.0,-3.0,true,35,-678,1170,22783,25.05000000000001,14,false,100,100,0,0,0,0,0,3797,3808,3798,3798,3795,3788,0.0,0.0,0.0,Started waypoint mission,
-24.561779553845014,150.04202863474896,15000,28.200000000000003,3.0,15,5,0.0,0.0,-161.4,2019-10-29 16:56:42.5180+0000,-0.09400403499603271,0.0,0.0,-3.0,true,35,-678,1170,22783,25.05000000000001,14,false,100,100,0,0,0,0,0,3797,3808,3798,3798,3795,3788,0.0,0.0,0.0,Started waypoint mission,
-24.561779553845014,150.04202863474896,15000,28.5,3.0,15,5,0.0,0.0,-161.4,2019-10-29 16:56:42.6280+0000,-0.10923600196838379,0.0,0.0,-3.0,true,35,-678,1170,22783,25.05000000000001,14,false,100,100,0,0,0,0,0,3797,3808,3798,3798,3795,3788,0.0,0.0,0.0,Started waypoint mission,
-24.561779553845014,150.04202863474896,15000,28.8,3.0,15,5,0.0,0.0,-161.4,2019-10-29 16:56:42.7270+0000,-0.09868299961090088,0.0,0.0,-3.0,true,35,-678,1170,22783,25.05000000000001,14,false,100,100,0,0,0,0,0,3797,3808,3798,3798,3795,3788,0.0,0.0,0.0,Started waypoint mission,
-24.561779553845014,150.04202863474896,15000,29.1,3.0,15,5,0.0,0.0,-161.4,2019-10-29 16:56:42.8280+0000,-0.09901809692382812,0.0,0.0,-3.0,true,35,-678,1170,22783,25.05000000000001,14,false,100,100,0,0,0,0,0,3797,3808,3798,3798,3795,3788,0.0,0.0,0.0,Started waypoint mission,
-24.561779553845014,150.04202863474896,15000,29.400000000000002,3.0,15,5,0.0,0.0,-161.4,2019-10-29 16:56:42.9270+0000,-0.09879696369171143,0.0,0.0,-3.0,true,35,-678,1170,22783,25.05000000000001,14,false,100,100,0,0,0,0,0,3797,3808,3798,3798,3795,3788,0.0,0.0,0.0,Started waypoint mission,
-24.561779553845014,150.04202863474896,16000,29.700000000000003,3.0,15,5,0.0,0.0,-161.4,2019-10-29 16:56:43.0280+0000,-0.09977507591247559,0.0,0.0,-3.0,true,35,-678,1170,22783,25.05000000000001,14,false,100,100,0,0,0,0,0,3797,3808,3798,3798,3795,3788,0.0,0.0,0.0,Started waypoint mission,
-24.561779553845014,150.04202863474896,16000,30.0,3.0,15,5,0.0,0.0,-161.4,2019-10-29 16:56:43.1380+0000,-0.10884702205657959,0.0,0.0,-3.0,true,35,-678,1170,22783,25.05000000000001,14,false,100,100,0,0,0,0,0,3797,3808,3798,3798,3795,3788,0.0,0.0,0.0,Started waypoint mission,
-24.561779553845014,150.04202863474896,16000,30.3,3.0,15,5,0.0,0.0,-161.4,2019-10-29 16:56:43.2370+0000,-0.0984269380569458,0.0,0.0,-3.0,true,35,-678,1170,22783,25.05000000000001,14,false,100,100,0,0,0,0,0,3797,3808,3798,3798,3795,3788,0.0,0.0,0.0,Started waypoint mission,
-24.561779553845014,150.04202863474896,16000,30.6,3.0,15,5,0.0,0.0,-161.4,2019-10-29 16:56:43.3380+0000,-0.09952902793884277,0.0,0.0,-3.0,true,35,-682,1170,22784,25.05000000000001,14,false,100,100,0,0,0,0,0,3799,3807,3798,3798,3794,3787,0.0,0.0,0.0,Started waypoint mission,
-24.561779553845014,150.04202863474896,16000,30.900000000000002,3.0,15,5,0.0,0.0,-161.4,2019-10-29 16:56:43.4380+0000,-0.09829604625701904,0.0,0.0,-3.0,true,35,-682,1170,22784,25.05000000000001,14,false,100,100,0,0,0,0,0,3799,3807,3798,3798,3794,3787,0.0,0.0,0.0,Started waypoint mission,
-24.561779553845014,150.04202863474896,16000,31.200000000000003,3.0,15,5,0.0,0.0,-161.4,2019-10-29 16:56:43.5370+0000,-0.09814894199371338,0.0,0.0,-3.0,true,35,-682,1170,22784,25.05000000000001,14,false,100,100,0,0,0,0,0,3799,3807,3798,3798,3794,3787,0.0,0.0,0.0,Started waypoint mission,
-24.561779553845014,150.04202863474896,16000,31.5,3.0,15,5,0.0,0.0,-161.4,2019-10-29 16:56:43.6480+0000,-0.1090630292892456,0.0,0.0,-3.0,true,35,-682,1170,22784,25.05000000000001,14,false,100,100,0,0,0,0,0,3799,3807,3798,3798,3794,3787,0.0,0.0,0.0,Started waypoint mission,
-24.561779553845014,150.04202863474896,16000,31.8,3.0,15,5,0.0,0.0,-161.4,2019-10-29 16:56:43.7490+0000,-0.09995007514953613,0.0,0.0,-3.0,true,35,-682,1170,22784,25.05000000000001,14,false,100,100,0,0,0,0,0,3799,3807,3798,3798,3794,3787,0.0,0.0,0.0,Started waypoint mission,
-24.561779553845014,150.04202863474896,16000,32.1,3.0,15,5,0.0,0.0,-161.4,2019-10-29 16:56:43.8490+0000,-0.09917902946472168,0.0,0.0,-3.0,true,35,-682,1170,22784,25.05000000000001,14,false,100,100,0,0,0,0,0,3799,3807,3798,3798,3794,3787,0.0,0.0,0.0,Started waypoint mission,
-24.561779553845014,150.04202863474896,16000,32.4,3.0,15,5,0.0,0.0,-161.4,2019-10-29 16:56:43.9470+0000,-0.0971670150756836,0.0,0.0,-3.0,true,35,-682,1170,22784,25.05000000000001,14,false,100,100,0,0,0,0,0,3799,3807,3798,3798,3794,3787,0.0,0.0,0.0,Started waypoint mission,
-24.561779553845014,150.04202863474896,17000,32.7,2.9,15,5,0.0,0.0,-161.4,2019-10-29 16:56:44.0470+0000,-0.09886205196380615,0.0,0.0,-2.9,true,35,-682,1170,22784,25.05000000000001,14,false,100,100,0,0,0,0,0,3799,3807,3798,3798,3794,3787,0.0,0.0,0.0,Started waypoint mission,
-24.561779553845014,150.04202863474896,17000,33.0,2.9,15,5,0.0,0.0,-161.4,2019-10-29 16:56:44.1480+0000,-0.09993696212768555,0.0,0.0,-2.9,true,35,-682,1170,22784,25.05000000000001,14,false,100,100,0,0,0,0,0,3799,3807,3798,3798,3794,3787,0.0,0.0,0.0,Started waypoint mission,
-24.561779553845014,150.04202863474896,17000,33.300000000000004,3.0,15,5,0.0,0.0,-161.4,2019-10-29 16:56:44.2570+0000,-0.10864400863647461,0.0,0.0,-3.0,true,35,-682,1170,22784,25.05000000000001,14,false,100,100,0,0,0,0,0,3799,3807,3798,3798,3794,3787,0.0,0.0,0.0,Started waypoint mission,
-24.561779553845014,150.04202863474896,17000,33.6,3.0,15,5,0.0,0.0,-161.4,2019-10-29 16:56:44.3570+0000,-0.0989079475402832,0.0,0.0,-3.0,true,35,-682,1170,22784,25.05000000000001,14,false,100,100,0,0,0,0,0,3799,3807,3798,3798,3794,3787,0.0,0.0,0.0,Started waypoint mission,
-24.561779553845014,150.04202863474896,17000,33.9,3.0,15,5,0.0,0.0,-161.4,2019-10-29 16:56:44.3590+0000,-0.0007909536361694336,0.0,0.0,-3.0,true,35,-682,1170,22784,25.05000000000001,14,false,100,100,0,0,0,0,0,3799,3807,3798,3798,3794,3787,0.0,0.0,0.0,Started waypoint mission,
-24.561779553845014,150.04202863474896,17000,34.2,3.0,15,5,0.0,0.0,-161.4,2019-10-29 16:56:44.4570+0000,-0.09827399253845215,0.0,0.0,-3.0,true,35,-682,1170,22784,25.05000000000001,14,false,100,100,0,0,0,0,0,3799,3807,3798,3798,3794,3787,0.0,0.0,0.0,Started waypoint mission,
-24.561779553845014,150.04202863474896,17000,34.5,3.0,15,5,0.0,0.0,-161.4,2019-10-29 16:56:44.5580+0000,-0.10023891925811768,0.0,0.0,-3.0,true,35,-682,1170,22784,25.05000000000001,14,false,100,100,0,0,0,0,0,3799,3807,3798,3798,3794,3787,0.0,0.0,0.0,Started waypoint mission,
-24.561779553845014,150.04202863474896,17000,34.800000000000004,3.0,15,5,0.0,0.0,-161.4,2019-10-29 16:56:44.7680+0000,-0.20852291584014893,0.0,0.0,-3.0,true,35,-682,1170,22784,25.05000000000001,14,false,100,100,0,0,0,0,0,3799,3807,3798,3798,3794,3787,0.0,0.0,0.0,Started waypoint mission,
-24.561779553845014,150.04202863474896,17000,35.1,3.0,15,5,0.0,0.0,-161.4,2019-10-29 16:56:44.7700+0000,-0.001181960105895996,0.0,0.0,-3.0,true,35,-666,1170,22787,25.05000000000001,14,false,100,100,0,0,0,0,0,0,0,0,0,0,0,0.0,0.0,0.0,Started waypoint mission,
-24.561779553845014,150.04202863474896,17000,35.4,3.0,15,5,0.0,0.0,-161.4,2019-10-29 16:56:44.8680+0000,-0.09665501117706299,0.0,0.0,-3.0,true,35,-666,1170,22787,25.05000000000001,14,false,100,100,0,0,0,0,0,3799,3807,3799,3799,3794,3789,0.0,0.0,0.0,Started waypoint mission,
-24.561779553845014,150.04202863474896,17000,35.7,2.9,15,5,0.0,0.0,-161.4,2019-10-29 16:56:44.9670+0000,-0.09823501110076904,0.0,0.0,-2.9,true,35,-666,1170,22787,25.05000000000001,14,false,100,100,0,0,0,0,0,3799,3807,3799,3799,3794,3789,0.0,0.0,0.0,Started waypoint mission,
-24.561779553845014,150.04202863474896,18000,36.0,3.0,15,5,0.0,0.0,-161.4,2019-10-29 16:56:45.0680+0000,-0.10005998611450195,0.0,0.0,-3.0,true,35,-666,1170,22787,25.05000000000001,14,false,100,100,0,0,0,0,0,3799,3807,3799,3799,3794,3789,0.0,0.0,0.0,Started waypoint mission,
-24.561779553845014,150.04202863474896,18000,36.300000000000004,3.0,15,5,0.0,0.0,-161.4,2019-10-29 16:56:45.1690+0000,-0.09957098960876465,0.0,0.0,-3.0,true,35,-666,1170,22787,25.05000000000001,14,false,100,100,0,0,0,0,0,3799,3807,3799,3799,3794,3789,0.0,0.0,0.0,Started waypoint mission,
-24.561779553845014,150.04202863474896,18000,36.6,3.0,15,5,0.0,0.0,-161.4,2019-10-29 16:56:45.2800+0000,-0.11004197597503662,0.0,0.0,-3.0,true,35,-666,1170,22787,25.05000000000001,14,false,100,100,0,0,0,0,0,0,0,0,0,0,0,0.0,0.0,0.0,Started waypoint mission,
-24.561779553845014,150.04202863474896,18000,36.9,3.0,15,5,0.0,0.0,-161.4,2019-10-29 16:56:45.3790+0000,-0.09819602966308594,0.0,0.0,-3.0,true,35,-666,1170,22787,25.05000000000001,14,false,100,100,0,0,0,0,0,3799,3807,3799,3799,3794,3789,0.0,0.0,0.0,Started waypoint mission,
-24.561779553845014,150.04202863474896,18000,37.2,3.0,15,5,0.0,0.0,-161.4,2019-10-29 16:56:45.4860+0000,-0.10563194751739502,0.0,0.0,-3.0,true,35,-666,1170,22787,25.05000000000001,14,false,100,100,0,0,0,0,0,3799,3807,3799,3799,3794,3789,0.0,0.0,0.0,Started waypoint mission,
-24.561779553845014,150.04202863474896,18000,37.5,3.0,15,5,0.0,0.0,-161.4,2019-10-29 16:56:45.5780+0000,-0.09183394908905029,0.0,0.0,-3.0,true,35,-666,1170,22787,25.05000000000001,14,false,100,100,0,0,0,0,0,3799,3807,3799,3799,3794,3789,0.0,0.0,0.0,Started waypoint mission,
-24.561779553845014,150.04202863474896,18000,37.800000000000004,3.0,15,5,0.0,0.0,-161.4,2019-10-29 16:56:45.6780+0000,-0.09899699687957764,0.0,0.0,-3.0,true,35,-666,1170,22787,25.05000000000001,14,false,100,100,0,0,0,0,0,3799,3807,3799,3799,3794,3789,0.0,0.0,0.0,Started waypoint mission,
-24.561779553845014,150.04202863474896,18000,38.1,3.0,15,5,0.0,0.0,-161.4,2019-10-29 16:56:45.7790+0000,-0.09956300258636475,0.0,0.0,-3.0,true,35,-666,1170,22781,25.05000000000001,14,false,100,100,0,0,0,0,0,0,0,0,0,0,0,0.0,0.0,0.0,Started waypoint mission,
-24.561779553845014,150.04202863474896,18000,38.400000000000006,3.0,15,5,0.0,0.0,-161.4,2019-10-29 16:56:45.8880+0000,-0.10814392566680908,0.0,0.0,-3.0,true,35,-666,1170,22781,25.05000000000001,14,false,100,100,0,0,0,0,0,3799,3807,3799,3799,3794,3789,0.0,0.0,0.0,Started waypoint mission,
-24.561779553845014,150.04202863474896,18000,38.7,2.9,15,5,0.0,0.0,-161.4,2019-10-29 16:56:45.9870+0000,-0.09765100479125977,0.0,0.0,-2.9,true,35,-666,1170,22781,25.05000000000001,14,false,100,100,0,0,0,0,0,3799,3807,3799,3799,3794,3789,0.0,0.0,0.0,Started waypoint mission,
-24.561779553845014,150.04202863474896,19000,39.0,3.0,15,5,0.0,0.0,-161.4,2019-10-29 16:56:46.0890+0000,-0.10072004795074463,0.0,0.0,-3.0,true,35,-666,1170,22781,25.05000000000001,14,false,100,100,0,0,0,0,0,3799,3807,3799,3799,3794,3789,0.0,0.0,0.0,Started waypoint mission,
-24.561779553845014,150.04202863474896,19000,39.300000000000004,3.0,15,5,0.0,0.0,-161.4,2019-10-29 16:56:46.1890+0000,-0.09912300109863281,0.0,0.0,-3.0,true,35,-666,1170,22781,25.05000000000001,14,false,100,100,0,0,0,0,0,3799,3807,3799,3799,3794,3789,0.0,0.0,0.0,Started waypoint mission,
-24.561779553845014,150.04202863474896,19000,39.6,3.0,15,5,0.0,0.0,-161.4,2019-10-29 16:56:46.2890+0000,-0.09859788417816162,0.0,0.0,-3.0,true,35,-666,1170,22781,25.05000000000001,14,false,100,100,0,0,0,0,0,0,0,0,0,0,0,0.0,0.0,0.0,Started waypoint mission,
-24.561779553845014,150.04202863474896,19000,39.900000000000006,3.0,15,5,0.0,0.0,-161.4,2019-10-29 16:56:46.3980+0000,-0.10770702362060547,0.0,0.0,-3.0,true,35,-666,1170,22781,25.05000000000001,14,false,100,100,0,0,0,0,0,3799,3807,3799,3799,3794,3789,0.0,0.0,0.0,Started waypoint mission,
-24.561779553845014,150.04202863474896,19000,40.2,3.0,15,5,0.0,0.0,-161.4,2019-10-29 16:56:46.5060+0000,-0.10632002353668213,0.0,0.0,-3.0,true,35,-666,1170,22781,25.05000000000001,14,false,100,100,0,0,0,0,0,3799,3807,3799,3799,3794,3789,0.0,0.0,0.0,Started waypoint mission,
-24.561779553845014,150.04202863474896,19000,40.5,3.0,15,5,0.0,0.0,-161.4,2019-10-29 16:56:46.5980+0000,-0.09165894985198975,0.0,0.0,-3.0,true,35,-666,1170,22781,25.05000000000001,14,false,100,100,0,0,0,0,0,3799,3807,3799,3799,3794,3789,0.0,0.0,0.0,Started waypoint mission,
-24.561779553845014,150.04202863474896,19000,40.800000000000004,3.0,15,5,0.0,0.0,-161.4,2019-10-29 16:56:46.6980+0000,-0.0992119312286377,0.0,0.0,-3.0,true,35,-666,1170,22781,25.05000000000001,14,false,100,100,0,0,0,0,0,3799,3807,3799,3799,3794,3789,0.0,0.0,0.0,Started waypoint mission,
-24.561779553845014,150.04202863474896,19000,41.1,3.0,15,5,0.0,0.0,-161.4,2019-10-29 16:56:46.8050+0000,-0.10572302341461182,0.0,0.0,-3.0,true,35,-664,1170,22783,25.05000000000001,14,false,100,100,0,0,0,0,0,3798,3808,3798,3797,3795,3787,0.0,0.0,0.0,Started waypoint mission,
-24.561779553845014,150.04202863474896,19000,41.400000000000006,3.0,15,5,0.0,0.0,-161.4,2019-10-29 16:56:46.8990+0000,-0.09287095069885254,0.0,0.0,-3.0,true,35,-664,1170,22783,25.05000000000001,14,false,100,100,0,0,0,0,0,3798,3808,3798,3797,3795,3787,0.0,0.0,0.0,Started waypoint mission,
-24.561779553845014,150.04202863474896,19000,41.7,2.9,15,5,0.0,0.0,-161.4,2019-10-29 16:56:47.0090+0000,-0.10900497436523438,0.0,0.0,-2.9,true,35,-664,1170,22783,25.05000000000001,14,false,100,100,0,0,0,0,0,3798,3808,3798,3797,3795,3787,0.0,0.0,0.0,Started waypoint mission,
-24.561779553845014,150.04202863474896,20000,42.0,3.0,15,5,0.0,0.0,-161.4,2019-10-29 16:56:47.1080+0000,-0.09814393520355225,0.0,0.0,-3.0,true,35,-664,1170,22783,25.05000000000001,14,false,100,100,0,0,0,0,0,3798,3808,3798,3797,3795,3787,0.0,0.0,0.0,Started waypoint mission,
-24.561779553845014,150.04202863474896,20000,42.300000000000004,3.0,15,5,0.0,0.0,-161.4,2019-10-29 16:56:47.2090+0000,-0.10024702548980713,0.0,0.0,-3.0,true,35,-664,1170,22783,25.05000000000001,14,false,100,100,0,0,0,0,0,3798,3808,3798,3797,3795,3787,0.0,0.0,0.0,Started waypoint mission,
-24.561779553845014,150.04202863474896,20000,42.6,3.0,15,5,0.0,0.0,-161.4,2019-10-29 16:56:47.3090+0000,-0.09852099418640137,0.0,0.0,-3.0,true,35,-664,1170,22783,25.05000000000001,14,false,100,100,0,0,0,0,0,3798,3808,3798,3797,3795,3787,0.0,0.0,0.0,Started waypoint mission,
-24.561779553845014,150.04202863474896,20000,42.900000000000006,3.0,15,5,0.0,0.0,-161.4,2019-10-29 16:56:47.4170+0000,-0.10756897926330566,0.0,0.0,-3.0,true,35,-664,1170,22783,25.05000000000001,14,false,100,100,0,0,0,0,0,3798,3808,3798,3797,3795,3787,0.0,0.0,0.0,Started waypoint mission,
-24.561779553845014,150.04202863474896,20000,43.2,3.0,15,5,0.0,0.0,-161.4,2019-10-29 16:56:47.5180+0000,-0.09975898265838623,0.0,0.0,-3.0,true,35,-664,1170,22783,25.05000000000001,14,false,100,100,0,0,0,0,0,3798,3808,3798,3797,3795,3787,0.0,0.0,0.0,Started waypoint mission,
-24.561779553845014,150.04202863474896,20000,43.5,3.0,15,5,0.0,0.0,-161.4,2019-10-29 16:56:47.6180+0000,-0.09908998012542725,0.0,0.0,-3.0,true,35,-664,1170,22783,25.05000000000001,14,false,100,100,0,0,0,0,0,3798,3808,3798,3797,3795,3787,0.0,0.0,0.0,Started waypoint mission,
-24.561779553845014,150.04202863474896,20000,43.800000000000004,3.0,15,5,0.0,0.0,-161.4,2019-10-29 16:56:47.7180+0000,-0.09836006164550781,0.0,0.0,-3.0,true,35,-664,1170,22783,25.05000000000001,14,false,100,100,0,0,0,0,0,3798,3808,3798,3797,3795,3787,0.0,0.0,0.0,Started waypoint mission,
-24.561779553845014,150.04202863474896,20000,44.1,3.0,15,5,0.0,0.0,-161.4,2019-10-29 16:56:47.8180+0000,-0.09916794300079346,0.0,0.0,-3.0,true,35,-670,1170,22785,25.05000000000001,14,false,100,100,0,0,0,0,0,3798,3807,3799,3797,3795,3788,0.0,0.0,0.0,Started waypoint mission,
-24.561779553845014,150.04202863474896,20000,44.400000000000006,3.0,15,5,0.0,0.0,-161.4,2019-10-29 16:56:47.9190+0000,-0.0998680591583252,0.0,0.0,-3.0,true,35,-670,1170,22785,25.05000000000001,14,false,100,100,0,0,0,0,0,3798,3807,3799,3797,3795,3788,0.0,0.0,0.0,Started waypoint mission,
-24.561779553845014,150.04202863474896,21000,44.7,3.0,15,5,0.0,0.0,-161.4,2019-10-29 16:56:48.0290+0000,-0.1094210147857666,0.0,0.0,-3.0,true,35,-670,1170,22785,25.05000000000001,14,false,100,100,0,0,0,0,0,3798,3807,3799,3797,3795,3788,0.0,0.0,0.0,Started waypoint mission,
-24.561779553845014,150.04202863474896,21000,45.0,3.0,15,5,0.0,0.0,-161.4,2019-10-29 16:56:48.1290+0000,-0.09832394123077393,0.0,0.0,-3.0,true,35,-670,1170,22785,25.05000000000001,14,false,100,100,0,0,0,0,0,3798,3807,3799,3797,3795,3788,0.0,0.0,0.0,Started waypoint mission,
-24.561779553845014,150.04202863474896,21000,45.300000000000004,3.0,15,5,0.0,0.0,-161.4,2019-10-29 16:56:48.2280+0000,-0.09817790985107422,0.0,0.0,-3.0,true,35,-670,1170,22785,25.05000000000001,14,false,100,100,0,0,0,0,0,3798,3807,3799,3797,3795,3788,0.0,0.0,0.0,Started waypoint mission,
-24.561779553845014,150.04202863474896,21000,45.6,3.0,15,5,0.0,0.0,-161.4,2019-10-29 16:56:48.3280+0000,-0.09922897815704346,0.0,0.0,-3.0,true,35,-670,1170,22785,25.05000000000001,14,false,100,100,0,0,0,0,0,3798,3807,3799,3797,3795,3788,0.0,0.0,0.0,Started waypoint mission,
-24.561779553845014,150.04202863474896,21000,45.900000000000006,3.0,15,5,0.0,0.0,-161.4,2019-10-29 16:56:48.4270+0000,-0.09793198108673096,0.0,0.0,-3.0,true,35,-670,1170,22785,25.05000000000001,14,false,100,100,0,0,0,0,0,3798,3807,3799,3797,3795,3788,0.0,0.0,0.0,Started waypoint mission,
