latitude,longitude,flight_time,altitude,speed,satellites,gps_level,pitch,roll,yaw,timestamp,last_updated,velocityX,velocityY,velocityZ,isflying,remainBatteryPercent,currentCurrent,batteryChargeRemaining,batteryVoltage,batteryTemperature,flightMode,istakingphoto,downlinkSignal,uplinkSignal,radioChannel,rc_elevator,rc_aileron,rc_throttle,rc_rudder,Battery_Cell1,Battery_Cell2,Battery_Cell3,Battery_Cell4,Battery_Cell5,Battery_Cell6,gimbalPitch,gimbalYaw,gimbalRoll,app_Tip,app_Warning,appVersion,AircraftComercialName,AircraftSerialNumber,RemoteSerialNumber,BatterySerialNumber,BatteryFullCapacity,dischargeCount,batteryLife,AircraftModel,sonar_altitude,isTakingVideo
20.745504129041088,-103.51431495712863,0,0.0,0.0,15,5,-2.2,-3.9000000000000004,-69.5,2019-10-25 17:15:21.5540+0000,-0.09987294673919678,0.0,0.0,0.0,false,55,-971,2193,23160,47.75,6,false,100,100,0,0,0,0,0,0,0,0,0,0,0,0.0,0.0,0.0,Started waypoint mission,,Flight1_3.1.0_(3),DJI,041DE70691,03LJ7004AS,9971173700031,3988,88,78,Explore1, ,false
20.74550413280102,-103.51431496005024,0,0.0,0.0,15,5,-2.2,-3.9000000000000004,-69.5,2019-10-25 17:15:21.6800+0000,-0.12560105323791504,0.0,0.0,0.0,false,55,-971,2193,23160,47.75,6,false,100,100,0,0,0,0,0,3862,3868,3864,3837,3855,3874,0.0,0.0,0.0,Started waypoint mission,
20.745504137005263,-103.51431496352592,0,0.0,0.0,15,5,-2.2,-3.9000000000000004,-69.5,2019-10-25 17:15:21.7630+0000,-0.08223903179168701,0.0,0.0,0.0,false,55,-971,2193,23160,47.75,6,false,100,100,0,0,0,0,0,3862,3868,3864,3837,3855,3874,0.0,0.0,0.0,Started waypoint mission,
20.745504140116413,-103.51431496677036,0,0.0,0.0,15,5,-2.2,-3.9000000000000004,-69.5,2019-10-25 17:15:21.8990+0000,-0.13519799709320068,0.0,0.0,0.0,false,55,-971,2193,23160,47.75,6,false,100,100,0,0,0,0,0,3862,3868,3864,3837,3855,3874,0.0,0.0,0.0,Started waypoint mission,
20.74550414358408,-103.51431497059176,0,0.0,0.0,15,5,-2.2,-3.9000000000000004,-69.5,2019-10-25 17:15:22.0160+0000,-0.11661994457244873,0.0,0.0,0.0,false,55,-971,2193,23160,47.75,6,false,100,100,0,0,0,0,0,3862,3868,3864,3837,3855,3874,0.0,0.0,0.0,Started waypoint mission,
20.745504149695048,-103.51431497369651,0,0.0,0.0,15,5,-2.2,-3.9000000000000004,-69.5,2019-10-25 17:15:22.0830+0000,-0.0652090311050415,0.0,0.0,0.0,false,55,-971,2193,23160,47.75,6,false,100,100,0,0,0,0,0,3862,3868,3864,3837,3855,3874,0.0,0.0,0.0,Started waypoint mission,
20.74550415484783,-103.51431497559922,0,0.0,0.0,15,5,-2.2,-3.9000000000000004,-69.5,2019-10-25 17:15:22.1930+0000,-0.10974001884460449,0.0,0.0,0.0,false,55,-971,2193,23160,47.75,6,false,100,100,0,0,0,0,0,3862,3868,3864,3837,3855,3874,0.0,0.0,0.0,Started waypoint mission,
20.745504146321593,-103.51431496443033,0,0.0,0.0,15,5,-2.2,-3.9000000000000004,-69.5,2019-10-25 17:15:22.1940+0000,-0.001042008399963379,0.0,0.0,0.0,false,55,-971,2193,23160,47.75,6,false,100,100,0,0,0,0,0,3862,3868,3864,3837,3855,3874,0.0,0.0,0.0,Started waypoint mission,
20.74550413490154,-103.51431494612459,0,0.0,0.0,15,5,-2.2,-3.9000000000000004,-69.5,2019-10-25 17:15:22.3230+0000,-0.12779700756072998,0.0,0.0,0.0,false,55,-971,2193,23160,47.75,6,false,100,100,0,0,0,0,0,3862,3868,3864,3837,3855,3874,0.0,0.0,0.0,Started waypoint mission,
20.745504122504027,-103.51431492193903,0,0.0,0.0,15,5,-2.2,-3.9000000000000004,-69.5,2019-10-25 17:15:22.4230+0000,-0.09974789619445801,0.0,0.0,0.0,false,55,-971,2193,23160,47.75,6,false,100,100,0,0,0,0,0,3862,3868,3864,3837,3855,3874,0.0,0.0,0.0,Started waypoint mission,
20.745504106422594,-103.51431489219651,0,0.0,0.0,15,5,-2.2,-3.9000000000000004,-69.5,2019-10-25 17:15:22.5240+0000,-0.10028791427612305,0.0,0.0,0.0,false,55,-971,2193,23160,47.75,6,false,100,100,0,0,0,0,0,0,0,0,0,0,0,0.0,0.0,0.0,Started waypoint mission,
20.74550408379018,-103.51431486200292,0,0.0,0.0,15,5,-2.2,-3.9000000000000004,-69.60000000000001,2019-10-25 17:15:22.6240+0000,-0.09971106052398682,0.0,0.0,0.0,false,55,-971,2193,23160,47.75,6,false,100,100,0,0,0,0,0,3862,3868,3864,3837,3856,3874,0.0,0.0,0.0,Started waypoint mission,
20.745504053339193,-103.51431482819397,0,0.0,0.0,15,5,-2.2,-3.9000000000000004,-69.60000000000001,2019-10-25 17:15:22.7210+0000,-0.09637105464935303,0.0,0.0,0.0,false,55,-971,2193,23160,47.75,6,false,100,100,0,0,0,0,0,3862,3868,3864,3837,3856,3874,0.0,0.0,0.0,Started waypoint mission,
20.74550402000723,-103.51431479008967,0,0.0,0.0,15,5,-2.2,-3.9000000000000004,-69.60000000000001,2019-10-25 17:15:22.8250+0000,-0.1037830114364624,0.0,0.0,0.0,false,55,-971,2193,23160,47.75,6,false,100,100,0,0,0,0,0,3862,3868,3864,3837,3856,3874,0.0,0.0,0.0,Started waypoint mission,
20.745503984898047,-103.51431474705122,0,0.0,0.1,15,5,-2.2,-3.9000000000000004,-69.60000000000001,2019-10-25 17:15:22.9400+0000,-0.11462199687957764,0.0,0.0,0.1,false,55,-971,2193,23160,47.75,6,false,100,100,0,0,0,0,0,3862,3868,3864,3837,3856,3874,0.0,0.0,0.0,Started waypoint mission,
20.74550395660322,-103.51431471523661,0,0.0,0.1,15,5,-2.2,-3.9000000000000004,-69.60000000000001,2019-10-25 17:15:23.0450+0000,-0.10439693927764893,0.0,0.0,0.1,false,55,-1002,2193,23157,47.75,6,false,100,100,0,0,0,0,0,0,0,0,0,0,0,0.0,0.0,0.0,Started waypoint mission,
20.74550407340326,-103.5143148754065,0,0.0,0.0,15,5,-2.2,-3.9000000000000004,-69.60000000000001,2019-10-25 17:15:23.1360+0000,-0.08999598026275635,0.0,0.0,0.0,false,55,-1002,2193,23157,47.75,6,false,100,100,0,0,0,0,0,3861,3868,3862,3836,3853,3873,0.0,0.0,0.0,Started waypoint mission,
20.745504120791093,-103.51431492220689,0,0.0,0.0,15,5,-2.2,-3.9000000000000004,-69.60000000000001,2019-10-25 17:15:23.2450+0000,-0.10846292972564697,0.0,0.0,0.0,false,55,-1002,2193,23157,47.75,6,false,100,100,0,0,0,0,0,3861,3868,3862,3836,3853,3873,0.0,0.0,0.0,Started waypoint mission,
20.745504146838712,-103.51431494509879,0,0.0,0.0,15,5,-2.2,-3.9000000000000004,-69.60000000000001,2019-10-25 17:15:23.3630+0000,-0.117576003074646,0.0,0.0,0.0,false,55,-1002,2193,23157,47.75,6,false,100,100,0,0,0,0,0,3861,3868,3862,3836,3853,3873,0.0,0.0,0.0,Started waypoint mission,
20.745504158981408,-103.51431496126833,0,0.0,0.0,15,5,-2.2,-3.9000000000000004,-69.60000000000001,2019-10-25 17:15:23.4640+0000,-0.10100805759429932,0.0,0.0,0.0,false,55,-1002,2193,23157,47.75,6,false,100,99,0,0,0,0,0,3861,3868,3862,3836,3853,3873,0.0,0.0,0.0,Started waypoint mission,
20.745504169280547,-103.5143149749856,0,0.0,0.0,15,5,-2.2,-3.9000000000000004,-69.60000000000001,2019-10-25 17:15:23.5790+0000,-0.11393201351165771,0.0,0.0,0.0,false,55,-1002,2193,23157,47.75,6,false,100,99,0,0,0,0,0,0,0,0,0,0,0,0.0,0.0,0.0,Started waypoint mission,
20.745504172340297,-103.51431498165307,0,0.0,0.0,15,5,-2.2,-3.9000000000000004,-69.60000000000001,2019-10-25 17:15:23.6640+0000,-0.08498001098632812,0.0,0.0,0.0,false,55,-1002,2193,23157,47.75,11,false,100,99,0,0,0,0,0,3861,3868,3862,3836,3853,3873,0.0,0.0,0.0,Started waypoint mission,
20.745504175123845,-103.5143149875352,0,0.0,0.0,15,5,-2.2,-3.9000000000000004,-69.60000000000001,2019-10-25 17:15:23.7640+0000,-0.0994030237197876,0.0,0.0,0.0,false,55,-1002,2193,23157,47.75,11,false,100,99,0,0,0,0,0,3861,3868,3862,3836,3853,3873,0.0,0.0,0.0,Started waypoint mission,
20.745504180687732,-103.51431499320667,0,0.0,0.0,15,5,-2.2,-3.9000000000000004,-69.60000000000001,2019-10-25 17:15:23.8950+0000,-0.1302889585494995,0.0,0.0,0.0,false,55,-1002,2193,23157,47.75,11,false,100,99,0,0,0,0,0,3861,3868,3862,3836,3853,3873,0.0,0.0,0.0,Started waypoint mission,
20.74550418610923,-103.51431499873159,0,0.0,0.0,15,5,-2.2,-3.9000000000000004,-69.60000000000001,2019-10-25 17:15:23.9910+0000,-0.09591102600097656,0.0,0.0,0.0,false,55,-1002,2193,23157,47.75,11,false,100,99,0,0,0,0,0,3861,3868,3862,3836,3853,3873,0.0,0.0,0.0,Started waypoint mission,
20.745504186406848,-103.51431500310942,0,0.0,0.0,15,5,-2.2,-3.9000000000000004,-69.7,2019-10-25 17:15:24.1030+0000,-0.11127901077270508,0.0,0.0,0.0,false,55,-2819,2193,23139,47.650000000000034,11,false,100,99,0,0,0,0,0,3858,3865,3860,3805,3847,3770,0.0,0.0,0.0,Started waypoint mission,
20.74550418704063,-103.51431500762004,0,0.0,0.0,15,5,-2.2,-3.8000000000000003,-69.7,2019-10-25 17:15:24.1730+0000,-0.06920695304870605,0.0,0.0,0.0,false,55,-2819,2193,23139,47.650000000000034,11,false,100,99,0,0,0,0,0,3858,3865,3860,3805,3847,3770,0.0,0.0,0.0,Started waypoint mission,
20.74550416521219,-103.51431497606877,0,0.0,0.0,15,5,-2.2,-3.7,-69.7,2019-10-25 17:15:24.4050+0000,-0.23154199123382568,0.0,0.0,0.0,false,55,-2819,2193,23139,47.650000000000034,11,false,100,99,0,0,0,0,0,3858,3865,3860,3805,3847,3770,0.0,0.0,0.0,Started waypoint mission,
20.74550411266399,-103.5143148920618,0,0.0,0.0,15,5,-2.3000000000000003,-3.4000000000000004,-69.8,2019-10-25 17:15:24.5940+0000,-0.18856596946716309,0.0,0.0,0.0,false,55,-2819,2193,23139,47.650000000000034,11,false,100,100,0,0,0,0,0,3858,3865,3860,3805,3847,3770,0.0,0.0,0.0,Started waypoint mission,
20.745504088566967,-103.51431485833078,0,-0.1,0.0,15,5,-2.3000000000000003,-3.4000000000000004,-69.9,2019-10-25 17:15:24.6950+0000,-0.1005319356918335,0.0,0.0,0.0,false,55,-2819,2193,23139,47.650000000000034,11,false,100,100,0,0,0,0,0,3858,3865,3860,3805,3847,3770,0.0,0.0,0.0,Started waypoint mission,
20.745504059029184,-103.51431482852189,0,-0.1,0.0,15,5,-2.3000000000000003,-3.5,-69.9,2019-10-25 17:15:24.7960+0000,-0.09988594055175781,0.0,0.0,0.0,false,55,-2819,2193,23139,47.650000000000034,11,false,100,100,0,0,0,0,0,3858,3865,3860,3805,3847,3770,0.0,0.0,0.0,Started waypoint mission,
20.745504021199626,-103.51431480212,0,-0.1,0.0,15,5,-2.4000000000000004,-3.7,-70.0,2019-10-25 17:15:25.0220+0000,-0.22509407997131348,0.0,0.0,0.0,false,55,-2819,2193,23139,47.650000000000034,11,false,100,95,0,0,0,0,0,3858,3865,3860,3805,3847,3770,0.0,0.0,0.0,Started waypoint mission,
20.74550399068758,-103.51431478951555,0,-0.1,0.0,15,5,-2.4000000000000004,-3.7,-70.10000000000001,2019-10-25 17:15:25.0250+0000,-0.0023779869079589844,0.0,0.0,0.0,false,55,-3792,2193,23035,47.650000000000034,11,false,100,95,0,0,0,0,0,0,0,0,0,0,0,0.0,0.0,0.0,Started waypoint mission,
20.745503964379758,-103.51431478325347,0,-0.1,0.1,15,5,-2.5,-3.2,-70.10000000000001,2019-10-25 17:15:25.1260+0000,-0.10061800479888916,0.0,0.0,0.1,false,55,-3792,2193,23035,47.650000000000034,11,false,100,95,0,0,0,0,0,3836,3859,3854,3820,3846,3849,0.0,0.0,0.0,Started waypoint mission,
20.745503943343532,-103.51431479140705,0,-0.2,0.1,15,5,-2.5,-1.5,-70.4,2019-10-25 17:15:25.2240+0000,-0.09709596633911133,0.0,0.0,0.1,false,55,-3792,2193,23035,47.650000000000034,11,false,100,95,0,0,0,0,0,3836,3859,3854,3820,3846,3849,0.0,0.0,0.0,Started waypoint mission,
20.745504035667444,-103.51431483249493,0,-0.2,0.1,15,5,-1.6,0.8,-71.9,2019-10-25 17:15:25.4150+0000,-0.19006502628326416,0.0,0.0,-0.1,true,55,-3792,2193,23035,47.650000000000034,11,false,100,93,0,0,0,0,0,3836,3859,3854,3820,3846,3849,0.0,0.0,0.0,Started waypoint mission,
20.745504185675237,-103.51431483480052,4000,-0.2,0.31622776,15,5,-0.7000000000000001,-0.1,-72.60000000000001,2019-10-25 17:15:25.5240+0000,-0.10903298854827881,0.1,0.0,-0.3,true,55,-3792,2193,23035,47.650000000000034,11,false,100,93,0,0,0,0,0,0,0,0,0,0,0,0.0,0.0,0.0,Started waypoint mission,
20.745504377776776,-103.51431478646137,4000,-0.1,0.41231057,15,5,-0.2,-1.3,-73.10000000000001,2019-10-25 17:15:25.6520+0000,-0.12723398208618164,0.1,0.0,-0.4,true,55,-3792,2193,23035,47.650000000000034,11,false,100,93,0,0,0,0,0,3836,3859,3854,3820,3846,3849,0.0,0.0,0.0,Started waypoint mission,
20.745504596565116,-103.5143146936251,4000,-0.1,0.4582576,15,5,-0.2,-2.5,-73.3,2019-10-25 17:15:25.7710+0000,-0.11855602264404297,0.2,0.1,-0.4,true,55,-3792,2193,23035,47.650000000000034,11,false,100,93,0,0,0,0,0,3836,3859,3854,3820,3846,3849,0.0,0.0,0.0,Started waypoint mission,
20.745504859119453,-103.51431451623445,4000,0.0,0.5477226,15,5,-0.5,-3.3000000000000003,-73.2,2019-10-25 17:15:25.8650+0000,-0.09294092655181885,0.2,0.1,-0.5,true,55,-3792,2193,23035,47.650000000000034,11,false,100,93,0,0,0,0,0,3836,3859,3854,3820,3846,3849,0.0,0.0,0.0,Started waypoint mission,
20.745505121863268,-103.51431429973434,4000,0.0,0.4582576,14,5,-1.3,-3.6,-72.9,2019-10-25 17:15:25.9640+0000,-0.0990760326385498,0.2,0.1,-0.4,true,55,-3792,2193,23035,47.650000000000034,11,false,100,92,0,0,0,0,0,3836,3859,3854,3820,3846,3849,0.0,0.0,0.0,Started waypoint mission,
20.745505326256325,-103.51431398276455,4000,0.0,0.41231057,14,5,-1.8,-3.7,-72.60000000000001,2019-10-25 17:15:26.0670+0000,-0.10171294212341309,0.2,0.2,-0.3,true,55,-16750,2193,22818,47.650000000000034,11,false,100,92,0,0,0,0,0,0,0,0,0,0,0,0.0,0.0,0.0,Started waypoint mission,
20.745505521857627,-103.51431364633046,4000,0.0,0.41231057,14,5,-2.2,-3.5,-72.2,2019-10-25 17:15:26.1640+0000,-0.09606695175170898,0.2,0.2,-0.3,true,55,-16750,2193,22818,47.650000000000034,11,false,100,92,0,0,0,0,0,3699,3719,3746,3721,3745,3772,0.0,0.0,0.0,Started waypoint mission,
20.745505703678194,-103.51431339940102,4000,0.0,0.34641016,14,5,-2.9000000000000004,-3.2,-71.9,2019-10-25 17:15:26.2660+0000,-0.10137104988098145,0.2,0.2,-0.2,true,55,-16750,2193,22818,47.650000000000034,11,false,100,92,0,0,0,0,0,3699,3719,3746,3721,3745,3772,0.0,0.0,0.0,Started waypoint mission,
20.745505892437315,-103.51431316897076,4000,0.0,0.48989797,13,4,-2.9000000000000004,-3.2,-71.60000000000001,2019-10-25 17:15:26.3920+0000,-0.12635290622711182,0.2,0.2,-0.4,true,55,-16750,2193,22818,47.650000000000034,11,false,100,92,0,0,0,0,0,3699,3719,3746,3721,3745,3772,0.0,0.0,0.0,Started waypoint mission,
20.74550612178598,-103.51431300564776,5000,0.1,0.5744563,13,4,-2.8000000000000003,-3.0,-71.4,2019-10-25 17:15:26.5070+0000,-0.11376094818115234,0.2,0.2,-0.5,true,55,-16750,2193,22818,47.650000000000034,11,false,100,94,0,0,0,0,0,3699,3719,3746,3721,3745,3772,0.0,0.0,0.0,Started waypoint mission,
20.745506366536276,-103.51431286003054,5000,0.1,0.5477226,13,4,-2.4000000000000004,-3.2,-71.3,2019-10-25 17:15:26.5750+0000,-0.06686997413635254,0.2,0.1,-0.5,true,55,-16750,2193,22818,47.650000000000034,11,false,100,94,0,0,0,0,0,3699,3719,3746,3721,3745,3772,0.0,0.0,0.0,Started waypoint mission,
20.745506626023314,-103.51431269491017,5000,0.1,0.5477226,13,4,-2.1,-3.7,-71.2,2019-10-25 17:15:26.6880+0000,-0.11289191246032715,0.2,0.1,-0.5,true,55,-16750,2193,22818,47.650000000000034,11,false,100,94,0,0,0,0,0,3699,3719,3746,3721,3745,3772,0.0,0.0,0.0,Started waypoint mission,
20.745506894367413,-103.51431253325858,5000,0.2,0.5477226,13,4,-1.6,-4.0,-71.0,2019-10-25 17:15:26.7850+0000,-0.09615802764892578,0.2,0.1,-0.5,true,55,-16750,2193,22818,47.650000000000034,11,false,100,94,0,0,0,0,0,3699,3719,3746,3721,3745,3772,0.0,0.0,0.0,Started waypoint mission,
20.74550716991663,-103.5143123041127,5000,0.30000000000000004,0.5477226,13,4,-1.3,-4.2,-70.8,2019-10-25 17:15:26.9240+0000,-0.13809990882873535,0.2,0.1,-0.5,true,55,-16750,2193,22818,47.650000000000034,11,false,100,94,0,0,0,0,0,3699,3719,3746,3721,3745,3772,0.0,0.0,0.0,Started waypoint mission,
20.745507444170965,-103.51431205633367,5000,0.30000000000000004,0.5744563,13,4,-1.4000000000000001,-4.4,-70.7,2019-10-25 17:15:27.0150+0000,-0.09079694747924805,0.2,0.2,-0.5,true,55,-16750,2193,22818,47.650000000000034,11,false,100,95,0,0,0,0,0,3699,3719,3746,3721,3745,3772,0.0,0.0,0.0,Started waypoint mission,
20.745507753971236,-103.5143117972255,5000,0.4,0.5744563,13,4,-1.9000000000000001,-4.4,-70.60000000000001,2019-10-25 17:15:27.0190+0000,-0.0028630495071411133,0.2,0.2,-0.5,true,55,-18246,2193,22046,47.650000000000034,11,false,100,95,0,0,0,0,0,0,0,0,0,0,0,0.0,0.0,0.0,Started waypoint mission,
20.74550806169133,-103.5143115276926,5000,0.4,0.48989797,13,4,-2.2,-4.4,-70.5,2019-10-25 17:15:27.2110+0000,-0.1913290023803711,0.2,0.2,-0.4,true,55,-18246,2193,22046,47.650000000000034,11,false,100,95,0,0,0,0,0,3699,3719,3746,3721,3745,3772,0.0,0.0,0.0,Started waypoint mission,
20.745508308328517,-103.51431127813227,5000,0.5,0.5744563,13,4,-2.2,-4.5,-70.5,2019-10-25 17:15:27.3160+0000,-0.10468602180480957,0.2,0.2,-0.5,true,55,-18246,2193,22046,47.650000000000034,11,false,100,95,0,0,0,0,0,3699,3719,3746,3721,3745,3772,0.0,0.0,0.0,Started waypoint mission,
20.74550854753522,-103.51431102658685,5000,0.5,0.48989797,13,4,-1.8,-4.6000000000000005,-70.5,2019-10-25 17:15:27.3190+0000,-0.0027159452438354492,0.2,0.2,-0.4,true,55,-18246,2193,22046,47.650000000000034,11,false,100,95,0,0,0,0,0,3699,3719,3746,3721,3745,3772,0.0,0.0,0.0,Started waypoint mission,
20.74550887327663,-103.5143107837307,5000,0.6000000000000001,0.48989797,13,4,-1.6,-4.6000000000000005,-70.60000000000001,2019-10-25 17:15:27.4210+0000,-0.10127508640289307,0.2,0.2,-0.4,true,55,-18246,2193,22046,47.650000000000034,11,false,100,97,0,0,0,0,0,3699,3719,3746,3721,3745,3772,0.0,0.0,0.0,Started waypoint mission,
20.745509196138677,-103.51431053754766,6000,0.6000000000000001,0.48989797,12,4,-1.6,-4.6000000000000005,-70.60000000000001,2019-10-25 17:15:27.5410+0000,-0.11920392513275146,0.2,0.2,-0.4,true,55,-18246,2193,22046,47.650000000000034,11,false,100,97,0,0,0,0,0,0,0,0,0,0,0,0.0,0.0,0.0,Started waypoint mission,
20.745509497174993,-103.514310334481,6000,0.6000000000000001,0.48989797,12,4,-1.7000000000000002,-4.6000000000000005,-70.7,2019-10-25 17:15:27.6400+0000,-0.09892892837524414,0.2,0.2,-0.4,true,55,-18246,2193,22046,47.650000000000034,11,false,100,97,0,0,0,0,0,3681,3696,3675,3633,3670,3721,0.0,0.0,0.0,Started waypoint mission,
20.745509790074756,-103.51431012821574,6000,0.7000000000000001,0.41231057,13,4,-1.9000000000000001,-4.6000000000000005,-70.8,2019-10-25 17:15:27.7460+0000,-0.10522294044494629,0.2,0.2,-0.3,true,55,-18246,2193,22046,47.650000000000034,11,false,100,97,0,0,0,0,0,3681,3696,3675,3633,3670,3721,0.0,0.0,0.0,Started waypoint mission,
20.74551009093281,-103.51430989665441,6000,0.7000000000000001,0.48989797,13,4,-2.0,-4.6000000000000005,-71.0,2019-10-25 17:15:27.8460+0000,-0.09936797618865967,0.2,0.2,-0.4,true,55,-18246,2193,22046,47.650000000000034,11,false,100,97,0,0,0,0,0,3681,3696,3675,3633,3670,3721,0.0,0.0,0.0,Started waypoint mission,
20.745510389731013,-103.51430966900162,6000,0.7000000000000001,0.41231057,13,4,-2.2,-4.4,-71.10000000000001,2019-10-25 17:15:27.9490+0000,-0.10199594497680664,0.2,0.2,-0.3,true,55,-18246,2193,22046,47.650000000000034,11,false,100,99,0,0,0,0,0,3681,3696,3675,3633,3670,3721,0.0,0.0,0.0,Started waypoint mission,
20.745510711660017,-103.5143094673797,6000,0.7000000000000001,0.48989797,13,4,-2.6,-4.2,-71.4,2019-10-25 17:15:28.0570+0000,-0.10763096809387207,0.2,0.2,-0.4,true,55,-18246,2193,22046,47.650000000000034,11,false,100,99,0,0,0,0,0,0,0,0,0,0,0,0.0,0.0,0.0,Started waypoint mission,
20.745511041326186,-103.5143092752737,6000,0.7000000000000001,0.41231057,13,4,-3.0,-4.6000000000000005,-71.60000000000001,2019-10-25 17:15:28.1490+0000,-0.09101009368896484,0.2,0.2,-0.3,true,55,-18246,2193,22046,47.650000000000034,11,false,100,99,0,0,0,0,0,3681,3696,3675,3633,3670,3721,0.0,0.0,0.0,Started waypoint mission,
20.745511350552512,-103.51430913065046,6000,0.7000000000000001,0.34641016,13,4,-3.2,-4.9,-71.9,2019-10-25 17:15:28.2660+0000,-0.11679995059967041,0.2,0.2,-0.2,true,55,-18246,2193,22046,47.650000000000034,11,false,100,99,0,0,0,0,0,3681,3696,3675,3633,3670,3721,0.0,0.0,0.0,Started waypoint mission,
20.745511661316243,-103.51430901067286,6000,0.8,0.4582576,13,4,-3.3000000000000003,-5.1000000000000005,-72.0,2019-10-25 17:15:28.3930+0000,-0.12671101093292236,0.2,0.1,-0.4,true,55,-18246,2193,22046,47.650000000000034,11,false,100,99,0,0,0,0,0,3681,3696,3675,3633,3670,3721,0.0,0.0,0.0,Started waypoint mission,
20.745512040649015,-103.51430887300316,7000,0.8,0.4582576,13,4,-2.5,-4.7,-72.10000000000001,2019-10-25 17:15:28.4880+0000,-0.09469401836395264,0.2,0.1,-0.4,true,55,-18246,2193,22046,47.650000000000034,11,false,100,99,0,0,0,0,0,3681,3696,3675,3633,3670,3721,0.0,0.0,0.0,Started waypoint mission,
20.745512421711616,-103.51430875352004,7000,0.8,0.5477226,13,4,-1.7000000000000002,-4.5,-72.0,2019-10-25 17:15:28.5880+0000,-0.09827601909637451,0.2,0.1,-0.5,true,55,-18561,2153,22008,47.650000000000034,11,false,100,99,0,0,0,0,0,0,0,0,0,0,0,0.0,0.0,0.0,Started waypoint mission,
20.745512741020036,-103.514308656329,7000,0.9,0.4582576,13,4,-1.4000000000000001,-4.6000000000000005,-71.8,2019-10-25 17:15:28.6950+0000,-0.10676300525665283,0.2,0.1,-0.4,true,55,-18561,2153,22008,47.650000000000034,6,false,100,99,0,0,0,0,0,3661,3685,3657,3632,3664,3691,0.0,0.0,0.0,Started waypoint mission,
20.745513063473858,-103.5143085458329,7000,0.9,0.3,13,4,-1.4000000000000001,-5.0,-71.5,2019-10-25 17:15:28.7910+0000,-0.09553897380828857,0.2,0.1,-0.2,true,55,-18561,2153,22008,47.650000000000034,14,false,100,99,0,0,0,0,0,3661,3685,3657,3632,3664,3691,0.0,0.0,0.0,Started waypoint mission,
20.745513499186636,-103.51430838775225,7000,0.8,0.24494898,13,4,-1.8,-5.6000000000000005,-71.3,2019-10-25 17:15:28.9190+0000,-0.1270279884338379,0.2,0.1,-0.1,true,55,-18561,2153,22008,47.650000000000034,14,false,100,99,0,0,0,0,0,3661,3685,3657,3632,3664,3691,0.0,0.0,0.0,Started waypoint mission,
20.745513929906426,-103.51430822668695,7000,0.9,0.37416577,11,4,-2.3000000000000003,-6.1000000000000005,-71.4,2019-10-25 17:15:28.9870+0000,-0.06745493412017822,0.2,0.1,-0.3,true,55,-18561,2153,22008,47.650000000000034,14,false,100,99,0,0,0,0,0,3661,3685,3657,3632,3664,3691,0.0,0.0,0.0,Started waypoint mission,
20.74551422404726,-103.51430808504352,7000,0.9,0.42426407,11,4,-2.4000000000000004,-6.300000000000001,-71.5,2019-10-25 17:15:29.0850+0000,-0.09736299514770508,0.1,0.1,-0.4,true,54,-18561,2153,22008,47.650000000000034,14,false,100,99,0,0,0,0,0,3661,3685,3657,3632,3664,3691,0.0,0.0,0.0,Started waypoint mission,
20.745514489008443,-103.51430796574593,7000,0.9,0.42426407,11,4,-2.0,-6.4,-71.5,2019-10-25 17:15:29.0900+0000,-0.0036579370498657227,0.1,0.1,-0.4,true,54,-18561,2153,22008,47.650000000000034,14,false,100,99,0,0,0,0,0,3661,3685,3657,3632,3664,3691,0.0,0.0,0.0,Started waypoint mission,
20.745514783223676,-103.51430797549737,7000,1.0,0.6164414,11,4,-2.0,-6.5,-71.5,2019-10-25 17:15:29.2150+0000,-0.12495100498199463,0.1,0.1,-0.6,true,54,-18561,2153,22008,47.650000000000034,14,false,100,99,0,0,0,0,0,3661,3685,3657,3632,3664,3691,0.0,0.0,0.0,Started waypoint mission,
20.745515045006922,-103.51430801715738,7000,1.0,0.6,11,4,-1.8,-6.4,-71.3,2019-10-25 17:15:29.4120+0000,-0.19692301750183105,0.0,0.0,-0.6,true,54,-18561,2153,22008,47.650000000000034,14,false,100,99,0,0,0,0,0,3661,3685,3657,3632,3664,3691,0.0,0.0,0.0,Started waypoint mission,
20.745515221309642,-103.51430800665125,7000,1.1,0.6,11,4,-1.4000000000000001,-6.1000000000000005,-70.9,2019-10-25 17:15:29.4140+0000,-0.0009570121765136719,0.0,0.0,-0.6,true,54,-18561,2153,22008,47.650000000000034,14,false,100,99,0,0,0,0,0,3661,3685,3657,3632,3664,3691,0.0,0.0,0.0,Started waypoint mission,
20.745515358757395,-103.5143080156391,8000,1.1,0.9,12,4,-1.1,-5.4,-70.2,2019-10-25 17:15:29.5250+0000,-0.11073696613311768,0.0,0.0,-0.9,true,54,-20278,2153,21853,47.650000000000034,14,false,100,99,0,0,0,0,0,0,0,0,0,0,0,0.0,0.0,0.0,Started waypoint mission,
20.745515633288694,-103.51430818005396,8000,1.2000000000000002,1.0,12,4,-0.8,-4.7,-69.2,2019-10-25 17:15:29.6230+0000,-0.09696793556213379,0.0,0.0,-1.0,true,54,-20278,2153,21853,47.650000000000034,14,false,100,99,0,0,0,0,0,3632,3669,3674,3621,3654,3673,0.0,0.0,0.0,Started waypoint mission,
20.745515885644355,-103.51430835871825,8000,1.3,1.4,12,4,-0.7000000000000001,-4.5,-68.2,2019-10-25 17:15:29.7560+0000,-0.13254094123840332,0.0,0.0,-1.4,true,54,-20278,2153,21853,47.650000000000034,14,false,100,99,0,0,0,0,0,3632,3669,3674,3621,3654,3673,0.0,0.0,0.0,Started waypoint mission,
20.745515990598193,-103.51430840874661,8000,1.4000000000000001,1.7,12,4,-1.2000000000000002,-4.5,-67.3,2019-10-25 17:15:29.9180+0000,-0.16154205799102783,0.0,0.0,-1.7,true,54,-20278,2153,21853,47.650000000000034,14,false,100,99,0,0,0,0,0,3632,3669,3674,3621,3654,3673,0.0,0.0,0.0,Started waypoint mission,
20.74551608175468,-103.5143084547119,8000,1.6,2.0024984,13,4,-1.3,-4.6000000000000005,-66.60000000000001,2019-10-25 17:15:29.9750+0000,-0.05581390857696533,-0.1,0.0,-2.0,true,54,-20278,2153,21853,47.650000000000034,14,false,100,100,0,0,0,0,0,3632,3669,3674,3621,3654,3673,0.0,0.0,0.0,Started waypoint mission,
20.745516309149433,-103.51430856653988,8000,1.8,2.2022717,13,4,-0.9,-4.2,-66.4,2019-10-25 17:15:30.0550+0000,-0.07974803447723389,-0.1,0.0,-2.2,true,54,-20278,2153,21853,47.650000000000034,14,false,100,100,0,0,0,0,0,0,0,0,0,0,0,0.0,0.0,0.0,Started waypoint mission,
20.745516543787843,-103.51430866530086,8000,2.0,2.4,14,4,-0.8,-4.1000000000000005,-66.7,2019-10-25 17:15:30.1570+0000,-0.10073304176330566,0.0,0.0,-2.4,true,54,-20278,2153,21853,47.650000000000034,14,false,100,100,0,0,0,0,0,3632,3669,3674,3621,3654,3673,0.0,0.0,0.0,Started waypoint mission,
20.74551680869723,-103.51430862336527,8000,2.3000000000000003,2.6,14,4,-0.7000000000000001,-4.2,-67.4,2019-10-25 17:15:30.2500+0000,-0.09211397171020508,0.0,0.0,-2.6,true,54,-20278,2153,21853,47.650000000000034,14,false,100,100,0,0,0,0,0,3632,3669,3674,3621,3654,3673,0.0,0.0,0.0,Started waypoint mission,
20.745517070932266,-103.51430855389421,8000,2.6,2.9,15,4,-1.0,-4.6000000000000005,-68.4,2019-10-25 17:15:30.4080+0000,-0.1573810577392578,0.0,0.0,-2.9,true,54,-20278,2153,21853,47.650000000000034,14,false,100,100,0,0,0,0,0,3632,3669,3674,3621,3654,3673,0.0,0.0,0.0,Started waypoint mission,
20.745517243346953,-103.51430846206351,8000,2.9000000000000004,3.2031236,15,4,-1.4000000000000001,-4.7,-69.5,2019-10-25 17:15:30.4560+0000,-0.047712087631225586,-0.1,0.1,-3.2,true,54,-20278,2153,21853,47.650000000000034,14,false,100,100,0,0,0,0,0,3632,3669,3674,3621,3654,3673,0.0,0.0,0.0,Started waypoint mission,
20.74551740198713,-103.51430835871936,9000,3.2,3.2031236,16,4,-2.0,-5.0,-70.4,2019-10-25 17:15:30.5550+0000,-0.09768593311309814,-0.1,0.1,-3.2,true,54,-22624,2153,21656,47.650000000000034,14,false,100,100,0,0,0,0,0,0,0,0,0,0,0,0.0,0.0,0.0,Started waypoint mission,
20.74551748814739,-103.51430830975548,9000,3.5,3.2031236,16,4,-2.4000000000000004,-5.4,-70.60000000000001,2019-10-25 17:15:30.6870+0000,-0.13116002082824707,-0.1,0.1,-3.2,true,54,-22624,2153,21656,47.650000000000034,14,false,100,100,0,0,0,0,0,3575,3601,3579,3544,3581,3609,0.0,0.0,0.0,Started waypoint mission,
20.74551755509278,-103.51430827730682,9000,3.8000000000000003,3.2015622,17,4,-2.7,-5.4,-70.4,2019-10-25 17:15:30.7800+0000,-0.09218299388885498,-0.1,0.0,-3.2,true,54,-22624,2153,21656,47.650000000000034,14,false,100,100,0,0,0,0,0,3575,3601,3579,3544,3581,3609,0.0,0.0,0.0,Started waypoint mission,
20.745517687145533,-103.51430827554854,9000,4.1000000000000005,3.3015149,17,4,-2.8000000000000003,-5.0,-70.10000000000001,2019-10-25 17:15:30.9180+0000,-0.13731396198272705,-0.1,0.0,-3.3,true,54,-22624,2153,21656,47.650000000000034,14,false,100,100,0,0,0,0,0,3575,3601,3579,3544,3581,3609,0.0,0.0,0.0,Started waypoint mission,
20.74551781746631,-103.5143083052008,9000,4.5,3.4014704,16,4,-2.2,-5.1000000000000005,-69.9,2019-10-25 17:15:30.9820+0000,-0.06403601169586182,-0.1,0.0,-3.4,true,54,-22624,2153,21656,47.650000000000034,14,false,100,100,0,0,0,0,0,3575,3601,3579,3544,3581,3609,0.0,0.0,0.0,Started waypoint mission,
20.74551798138853,-103.51430840067911,9000,4.800000000000001,3.5014284,16,4,-1.9000000000000001,-4.9,-69.7,2019-10-25 17:15:31.1000+0000,-0.11683797836303711,-0.1,0.0,-3.5,true,54,-22624,2153,21656,47.650000000000034,14,false,100,100,0,0,0,0,0,3575,3601,3579,3544,3581,3609,0.0,0.0,0.0,Started waypoint mission,
20.745518136525686,-103.51430850967549,9000,5.2,3.5014284,16,4,-1.8,-4.6000000000000005,-69.4,2019-10-25 17:15:31.1860+0000,-0.08569598197937012,-0.1,0.0,-3.5,true,54,-22624,2153,21656,47.650000000000034,14,false,100,100,0,0,0,0,0,3575,3601,3579,3544,3581,3609,0.0,0.0,0.0,Started waypoint mission,
20.745518219364946,-103.51430861897062,9000,5.5,3.5014284,16,4,-1.1,-4.4,-69.2,2019-10-25 17:15:31.1890+0000,-0.002277970314025879,-0.1,0.0,-3.5,true,54,-22624,2153,21656,47.650000000000034,14,false,100,100,0,0,0,0,0,3575,3601,3579,3544,3581,3609,0.0,0.0,0.0,Started waypoint mission,
20.74551831013851,-103.51430873557426,9000,5.9,3.6013885,16,4,0.0,-4.5,-69.0,2019-10-25 17:15:31.3110+0000,-0.12129294872283936,-0.1,0.0,-3.6,true,54,-22624,2153,21656,47.650000000000034,14,false,100,100,0,0,0,0,0,3575,3601,3579,3544,3581,3609,0.0,0.0,0.0,Started waypoint mission,
20.745518354525696,-103.51430891920725,9000,6.300000000000001,3.5014284,16,4,0.5,-4.9,-68.8,2019-10-25 17:15:31.4150+0000,-0.10404098033905029,-0.1,0.0,-3.5,true,54,-22624,2153,21656,47.650000000000034,14,false,100,100,0,0,0,0,0,3575,3601,3579,3544,3581,3609,0.0,0.0,0.0,Started waypoint mission,
20.745518392816646,-103.51430908315395,10000,6.6000000000000005,3.4014704,15,4,0.0,-4.800000000000001,-68.60000000000001,2019-10-25 17:15:31.5180+0000,-0.10222899913787842,-0.1,0.0,-3.4,true,54,-29820,2153,21259,47.75,14,false,100,100,0,0,0,0,0,0,0,0,0,0,0,0.0,0.0,0.0,Started waypoint mission,
20.74551842216892,-103.51430922054766,10000,7.0,3.2015622,15,4,-0.8,-4.9,-68.5,2019-10-25 17:15:31.6300+0000,-0.11054503917694092,-0.1,0.0,-3.2,true,54,-29820,2153,21259,47.75,14,false,100,100,0,0,0,0,0,3543,3585,3564,3525,3549,3581,0.0,0.0,0.0,Started waypoint mission,
20.745518456001783,-103.51430936907364,10000,7.300000000000001,3.2015622,15,4,-0.4,-6.1000000000000005,-68.60000000000001,2019-10-25 17:15:31.7550+0000,-0.12392592430114746,-0.1,0.0,-3.2,true,54,-29820,2153,21259,47.75,14,false,100,100,0,0,0,0,0,3543,3585,3564,3525,3549,3581,0.0,0.0,0.0,Started waypoint mission,
20.745518365926312,-103.51430958666903,10000,7.6000000000000005,3.206244,15,4,0.5,-6.2,-68.8,2019-10-25 17:15:31.8410+0000,-0.08547306060791016,-0.2,0.0,-3.2,true,54,-29820,2153,21259,47.75,14,false,100,100,0,0,0,0,0,3543,3585,3564,3525,3549,3581,0.0,0.0,0.0,Started waypoint mission,
20.745518232110445,-103.51430981124989,10000,8.0,3.4058774,15,4,0.8,-5.6000000000000005,-68.8,2019-10-25 17:15:31.9580+0000,-0.11631691455841064,-0.2,0.0,-3.4,true,54,-29820,2153,21259,47.75,14,false,100,100,0,0,0,0,0,3543,3585,3564,3525,3549,3581,0.0,0.0,0.0,Started waypoint mission,
20.745518064209115,-103.51431005553316,10000,8.4,3.4058774,15,4,0.6000000000000001,-4.6000000000000005,-68.8,2019-10-25 17:15:32.0660+0000,-0.1076580286026001,-0.2,0.0,-3.4,true,54,-29820,2153,21259,47.75,14,false,100,100,0,0,0,0,0,0,0,0,0,0,0,0.0,0.0,0.0,Started waypoint mission,
20.74551788022038,-103.51431029469231,10000,8.700000000000001,3.206244,15,4,0.0,-4.0,-68.9,2019-10-25 17:15:32.1380+0000,-0.07093799114227295,-0.2,0.0,-3.2,true,54,-29820,2153,21259,47.75,14,false,100,100,0,0,0,0,0,3543,3585,3564,3525,3549,3581,0.0,0.0,0.0,Started waypoint mission,
20.745517698217633,-103.51431054645835,10000,9.0,2.9068885,15,4,0.4,-3.4000000000000004,-69.0,2019-10-25 17:15:32.2370+0000,-0.09826195240020752,-0.2,0.0,-2.9,true,54,-29820,2153,21259,47.75,14,false,100,100,0,0,0,0,0,3543,3585,3564,3525,3549,3581,0.0,0.0,0.0,Started waypoint mission,
20.74551752004991,-103.51431081041684,10000,9.3,2.7073975,15,4,0.9,-2.3000000000000003,-68.9,2019-10-25 17:15:32.3670+0000,-0.12940490245819092,-0.2,0.0,-2.7,true,54,-29820,2153,21259,47.75,14,false,100,100,0,0,0,0,0,3543,3585,3564,3525,3549,3581,0.0,0.0,0.0,Started waypoint mission,
20.74551733614294,-103.51431115166444,11000,9.600000000000001,2.9068885,15,4,1.2000000000000002,-1.4000000000000001,-68.9,2019-10-25 17:15:32.4660+0000,-0.09909999370574951,-0.2,0.0,-2.9,true,54,-29820,2153,21259,47.75,14,false,100,100,0,0,0,0,0,3543,3585,3564,3525,3549,3581,0.0,0.0,0.0,Started waypoint mission,
20.74551717187572,-103.51431149120852,11000,9.9,2.9068885,16,4,1.8,-1.9000000000000001,-68.9,2019-10-25 17:15:32.5760+0000,-0.10905003547668457,-0.2,0.0,-2.9,true,54,-22954,2153,21562,47.75,14,false,100,100,0,0,0,0,0,0,0,0,0,0,0,0.0,0.0,0.0,Started waypoint mission,
20.74551699561959,-103.5143117865166,11000,10.200000000000001,2.9068885,16,4,2.3000000000000003,-2.7,-68.8,2019-10-25 17:15:32.6750+0000,-0.09889400005340576,-0.2,0.0,-2.9,true,54,-22954,2153,21562,47.75,14,false,100,100,0,0,0,0,0,3543,3585,3564,3525,3549,3581,0.0,0.0,0.0,Started waypoint mission,
20.745516799283557,-103.51431206644504,11000,10.5,3.1064448,16,4,2.5,-2.7,-68.7,2019-10-25 17:15:32.7860+0000,-0.11016595363616943,-0.2,0.0,-3.1,true,54,-22954,2153,21562,47.75,14,false,100,100,0,0,0,0,0,3543,3585,3564,3525,3549,3581,0.0,0.0,0.0,Started waypoint mission,
20.745516590476313,-103.51431230962005,11000,10.8,3.1144822,16,4,2.1,-2.7,-68.5,2019-10-25 17:15:32.9210+0000,-0.13408493995666504,-0.3,0.0,-3.1,true,54,-22954,2153,21562,47.75,14,false,100,100,0,0,0,0,0,3543,3585,3564,3525,3549,3581,0.0,0.0,0.0,Started waypoint mission,
20.7455163566758,-103.51431254770743,11000,11.200000000000001,3.1144822,16,4,2.2,-2.1,-68.2,2019-10-25 17:15:32.9830+0000,-0.06110095977783203,-0.3,0.0,-3.1,true,54,-22954,2153,21562,47.75,14,false,100,100,0,0,0,0,0,3543,3585,3564,3525,3549,3581,0.0,0.0,0.0,Started waypoint mission,
20.745516050344104,-103.5143127911779,11000,11.5,3.0149627,16,4,2.5,-1.0,-67.9,2019-10-25 17:15:33.0840+0000,-0.1007089614868164,-0.3,0.0,-3.0,true,54,-22954,2153,21562,47.75,14,false,100,100,0,0,0,0,0,3572,3614,3593,3562,3600,3606,0.0,0.0,0.0,Started waypoint mission,
20.745515736070182,-103.5143130191816,11000,11.8,3.214032,16,4,2.7,0.0,-67.60000000000001,2019-10-25 17:15:33.0870+0000,-0.0017129182815551758,-0.3,0.0,-3.2,true,54,-22954,2153,21562,47.75,14,false,100,100,0,0,0,0,0,3572,3614,3593,3562,3600,3606,0.0,0.0,0.0,Started waypoint mission,
20.745515438419098,-103.51431321214918,11000,12.200000000000001,3.2155871,16,4,2.8000000000000003,0.5,-67.5,2019-10-25 17:15:33.3150+0000,-0.2275930643081665,-0.3,0.1,-3.2,true,54,-22954,2153,21562,47.75,14,false,100,100,0,0,0,0,0,3572,3614,3593,3562,3600,3606,0.0,0.0,0.0,Started waypoint mission,
20.745515145008333,-103.51431335775311,11000,12.5,3.2155871,16,4,2.3000000000000003,0.9,-67.4,2019-10-25 17:15:33.3160+0000,-0.0010020732879638672,-0.3,0.1,-3.2,true,54,-22954,2153,21562,47.75,14,false,100,100,0,0,0,0,0,3572,3614,3593,3562,3600,3606,0.0,0.0,0.0,Started waypoint mission,
20.745514886746435,-103.51431340965577,11000,12.8,3.1208973,16,4,1.8,1.3,-67.5,2019-10-25 17:15:33.4120+0000,-0.09486603736877441,-0.3,0.2,-3.1,true,54,-22954,2153,21562,47.75,14,false,100,100,0,0,0,0,0,3572,3614,3593,3562,3600,3606,0.0,0.0,0.0,Started waypoint mission,
20.745514641087595,-103.51431342351825,12000,13.200000000000001,3.1208973,16,4,1.1,1.3,-67.7,2019-10-25 17:15:33.5170+0000,-0.10437500476837158,-0.3,0.2,-3.1,true,54,-22954,2153,21562,47.85000000000002,14,false,100,100,0,0,0,0,0,0,0,0,0,0,0,0.0,0.0,0.0,Started waypoint mission,
20.74551432707214,-103.51431340741607,12000,13.600000000000001,3.2124758,16,4,0.4,0.8,-67.9,2019-10-25 17:15:33.6260+0000,-0.10877299308776855,-0.2,0.2,-3.2,true,54,-22954,2153,21562,47.85000000000002,14,false,100,100,0,0,0,0,0,3572,3614,3593,3562,3600,3606,0.0,0.0,0.0,Started waypoint mission,
20.745514029117093,-103.51431338359565,12000,13.9,3.1128764,16,4,0.0,0.7000000000000001,-68.0,2019-10-25 17:15:33.7250+0000,-0.09883499145507812,-0.2,0.2,-3.1,true,54,-22954,2153,21562,47.85000000000002,14,false,100,100,0,0,0,0,0,3572,3614,3593,3562,3600,3606,0.0,0.0,0.0,Started waypoint mission,
20.745513753249096,-103.5143133719769,12000,14.200000000000001,2.8142493,16,4,-0.7000000000000001,0.9,-68.10000000000001,2019-10-25 17:15:33.8260+0000,-0.09955704212188721,-0.2,0.2,-2.8,true,54,-22954,2153,21562,47.85000000000002,14,false,100,100,0,0,0,0,0,3572,3614,3593,3562,3600,3606,0.0,0.0,0.0,Started waypoint mission,
20.74551348865101,-103.51431337173071,12000,14.5,2.9137607,16,4,-0.9,1.0,-68.3,2019-10-25 17:15:33.9460+0000,-0.12024796009063721,-0.2,0.2,-2.9,true,54,-22954,2153,21562,47.85000000000002,14,false,100,100,0,0,0,0,0,3572,3614,3593,3562,3600,3606,0.0,0.0,0.0,Started waypoint mission,
20.745513137444014,-103.51431330149241,12000,14.8,3.0133038,16,4,-0.8,1.2000000000000002,-68.5,2019-10-25 17:15:34.0660+0000,-0.11875700950622559,-0.2,0.2,-3.0,true,54,-25209,2153,21367,47.85000000000002,14,false,100,100,0,0,0,0,0,0,0,0,0,0,0,0.0,0.0,0.0,Started waypoint mission,
20.74551279511872,-103.5143132430251,12000,15.200000000000001,3.108054,16,4,-0.2,1.7000000000000002,-68.5,2019-10-25 17:15:34.1460+0000,-0.07961404323577881,-0.2,0.1,-3.1,true,54,-25209,2153,21367,47.85000000000002,14,false,100,100,0,0,0,0,0,3534,3575,3555,3516,3558,3573,0.0,0.0,0.0,Started waypoint mission,
20.745512505353222,-103.5143131932698,12000,15.5,3.108054,16,4,0.1,1.7000000000000002,-68.5,2019-10-25 17:15:34.2620+0000,-0.11504995822906494,-0.1,0.2,-3.1,true,54,-25209,2153,21367,47.85000000000002,14,false,100,100,0,0,0,0,0,3534,3575,3555,3516,3558,3573,0.0,0.0,0.0,Started waypoint mission,
20.745512241103217,-103.51431312922033,12000,15.9,3.108054,16,4,0.30000000000000004,1.7000000000000002,-68.5,2019-10-25 17:15:34.3660+0000,-0.10362398624420166,-0.1,0.2,-3.1,true,54,-25209,2153,21367,47.85000000000002,14,false,100,100,0,0,0,0,0,3534,3575,3555,3516,3558,3573,0.0,0.0,0.0,Started waypoint mission,
20.745512085056266,-103.51431278284541,13000,16.6,2.9068885,16,4,0.0,1.4000000000000001,-68.60000000000001,2019-10-25 17:15:34.5760+0000,-0.20991194248199463,0.0,0.2,-2.9,true,54,-25209,2153,21367,47.85000000000002,14,false,100,100,0,0,0,0,0,0,0,0,0,0,0,0.0,0.0,0.0,Started waypoint mission,
20.745511999526183,-103.51431254554807,13000,16.900000000000002,2.8071337,16,4,-0.4,0.8,-68.7,2019-10-25 17:15:34.6760+0000,-0.0990140438079834,0.0,0.2,-2.8,true,54,-25209,2153,21367,47.85000000000002,14,false,100,100,0,0,0,0,0,3534,3575,3555,3516,3558,3573,0.0,0.0,0.0,Started waypoint mission,
20.74551193390648,-103.51431229495022,13000,17.2,2.9068885,16,4,-0.9,0.4,-68.7,2019-10-25 17:15:34.7760+0000,-0.09994697570800781,0.0,0.2,-2.9,true,54,-25209,2153,21367,47.85000000000002,14,false,100,100,0,0,0,0,0,3534,3575,3555,3516,3558,3573,0.0,0.0,0.0,Started waypoint mission,
20.745511935623128,-103.51431204992312,13000,17.5,2.8071337,16,4,-1.3,0.2,-68.7,2019-10-25 17:15:34.9060+0000,-0.12931609153747559,0.0,0.2,-2.8,true,54,-25209,2153,21367,47.85000000000002,14,false,100,100,0,0,0,0,0,3534,3575,3555,3516,3558,3573,0.0,0.0,0.0,Started waypoint mission,
20.745511954294763,-103.51431180522346,13000,17.8,2.8071337,16,4,-1.5,-0.1,-68.7,2019-10-25 17:15:34.9760+0000,-0.06965005397796631,0.0,0.2,-2.8,true,54,-25209,2153,21367,47.85000000000002,14,false,100,100,0,0,0,0,0,3534,3575,3555,3516,3558,3573,0.0,0.0,0.0,Started waypoint mission,
20.7455119456483,-103.51431152312264,13000,18.1,2.7073975,16,4,-1.5,-0.5,-68.60000000000001,2019-10-25 17:15:35.0760+0000,-0.09970200061798096,0.0,0.2,-2.7,true,54,-24055,2113,21395,47.85000000000002,14,false,100,100,0,0,0,0,0,0,0,0,0,0,0,0.0,0.0,0.0,Started waypoint mission,
20.745511939831992,-103.51431124767996,13000,18.400000000000002,2.9068885,16,5,-1.8,-0.7000000000000001,-68.60000000000001,2019-10-25 17:15:35.1750+0000,-0.09798800945281982,0.0,0.2,-2.9,true,54,-24055,2113,21395,47.85000000000002,14,false,100,100,0,0,0,0,0,3552,3587,3566,3515,3572,3587,0.0,0.0,0.0,Started waypoint mission,
20.74551197044073,-103.51431100971196,13000,18.7,2.8071337,16,5,-1.7000000000000002,-0.7000000000000001,-68.5,2019-10-25 17:15:35.3040+0000,-0.12887203693389893,0.0,0.2,-2.8,true,54,-24055,2113,21395,47.85000000000002,14,false,100,100,0,0,0,0,0,3552,3587,3566,3515,3572,3587,0.0,0.0,0.0,Started waypoint mission,
20.745512010409673,-103.5143107851819,13000,19.0,2.7073975,16,5,-1.7000000000000002,-0.7000000000000001,-68.4,2019-10-25 17:15:35.4080+0000,-0.10355794429779053,0.0,0.2,-2.7,true,54,-24055,2113,21395,47.85000000000002,14,false,100,100,0,0,0,0,0,3552,3587,3566,3515,3572,3587,0.0,0.0,0.0,Started waypoint mission,
20.74551210331331,-103.51431056789168,13000,19.3,2.7073975,16,5,-1.7000000000000002,-0.9,-68.4,2019-10-25 17:15:35.4110+0000,-0.0020519495010375977,0.0,0.2,-2.7,true,54,-24055,2113,21395,47.85000000000002,14,false,100,100,0,0,0,0,0,3552,3587,3566,3515,3572,3587,0.0,0.0,0.0,Started waypoint mission,
20.74551220846559,-103.51431035951511,14000,19.6,2.7073975,16,5,-1.6,-1.1,-68.4,2019-10-25 17:15:35.5130+0000,-0.10117805004119873,0.0,0.2,-2.7,true,54,-24055,2113,21395,47.85000000000002,14,false,100,100,0,0,0,0,0,0,0,0,0,0,0,0.0,0.0,0.0,Started waypoint mission,
20.745512309288653,-103.51431013142933,14000,19.900000000000002,2.7073975,16,5,-1.6,-1.4000000000000001,-68.5,2019-10-25 17:15:35.7060+0000,-0.19257700443267822,0.0,0.2,-2.7,true,54,-24055,2113,21395,47.85000000000002,14,false,100,100,0,0,0,0,0,3552,3587,3566,3515,3572,3587,0.0,0.0,0.0,Started waypoint mission,
20.745512415042853,-103.51430991088105,14000,20.200000000000003,2.7073975,16,5,-1.7000000000000002,-1.7000000000000002,-68.5,2019-10-25 17:15:35.7150+0000,-0.008249044418334961,0.0,0.2,-2.7,true,54,-24055,2113,21395,47.85000000000002,14,false,100,100,0,0,0,0,0,3552,3587,3566,3515,3572,3587,0.0,0.0,0.0,Started waypoint mission,
20.745512611176277,-103.51430971873123,14000,20.5,2.7018514,16,5,-1.9000000000000001,-2.0,-68.60000000000001,2019-10-25 17:15:35.8120+0000,-0.09657001495361328,0.0,0.1,-2.7,true,54,-24055,2113,21395,47.85000000000002,14,false,100,100,0,0,0,0,0,3552,3587,3566,3515,3572,3587,0.0,0.0,0.0,Started waypoint mission,
20.745512809123504,-103.51430954204807,14000,20.700000000000003,2.5019991,16,5,-1.8,-2.2,-68.7,2019-10-25 17:15:35.9430+0000,-0.1310189962387085,0.0,0.1,-2.5,true,54,-24055,2113,21395,47.85000000000002,14,false,100,100,0,0,0,0,0,3552,3587,3566,3515,3572,3587,0.0,0.0,0.0,Started waypoint mission,
20.745512981787318,-103.51430936319208,14000,20.900000000000002,2.5019991,16,5,-1.6,-2.2,-68.8,2019-10-25 17:15:36.0120+0000,-0.0682671070098877,0.0,0.1,-2.5,true,53,-23021,2113,21439,47.950000000000045,14,false,100,100,0,0,0,0,0,0,0,0,0,0,0,0.0,0.0,0.0,Started waypoint mission,
20.74551314831929,-103.51430920427893,14000,21.200000000000003,2.5019991,16,5,-1.5,-2.1,-69.0,2019-10-25 17:15:36.1260+0000,-0.11288607120513916,0.0,0.1,-2.5,true,53,-23021,2113,21439,47.950000000000045,14,false,100,100,0,0,0,0,0,3558,3592,3582,3541,3579,3601,0.0,0.0,0.0,Started waypoint mission,
20.74551337075765,-103.51430908169074,14000,21.400000000000002,2.7018514,16,5,-1.3,-2.3000000000000003,-69.10000000000001,2019-10-25 17:15:36.3360+0000,-0.20945405960083008,0.0,0.1,-2.7,true,53,-23021,2113,21439,47.950000000000045,14,false,100,100,0,0,0,0,0,3558,3592,3582,3541,3579,3601,0.0,0.0,0.0,Started waypoint mission,
20.745513602528348,-103.51430898043517,14000,21.700000000000003,2.7,16,5,-1.2000000000000002,-2.6,-69.10000000000001,2019-10-25 17:15:36.3440+0000,-0.0078029632568359375,0.0,0.0,-2.7,true,53,-23021,2113,21439,47.950000000000045,14,false,100,100,0,0,0,0,0,3558,3592,3582,3541,3579,3601,0.0,0.0,0.0,Started waypoint mission,
20.745513874284345,-103.51430893278697,14000,21.900000000000002,2.7,16,5,-1.2000000000000002,-2.8000000000000003,-68.9,2019-10-25 17:15:36.4340+0000,-0.08898699283599854,0.0,0.0,-2.7,true,53,-23021,2113,21439,47.950000000000045,14,false,100,95,0,0,0,0,0,3558,3592,3582,3541,3579,3601,0.0,0.0,0.0,Started waypoint mission,
20.745514146798847,-103.51430890978203,15000,22.3,2.9,16,5,-1.0,-2.7,-68.8,2019-10-25 17:15:36.5440+0000,-0.10878801345825195,0.0,0.0,-2.9,true,53,-23021,2113,21439,47.950000000000045,14,false,100,95,0,0,0,0,0,0,0,0,0,0,0,0.0,0.0,0.0,Started waypoint mission,
20.745514436900496,-103.5143088702894,15000,22.6,3.0,16,5,-0.30000000000000004,-2.5,-68.7,2019-10-25 17:15:36.6750+0000,-0.130437970161438,0.0,0.0,-3.0,true,53,-23021,2113,21439,47.950000000000045,14,false,100,95,0,0,0,0,0,3558,3592,3582,3541,3579,3601,0.0,0.0,0.0,Started waypoint mission,
20.745514737293714,-103.51430883862739,15000,22.8,2.9,16,5,0.2,-3.0,-68.5,2019-10-25 17:15:36.7850+0000,-0.11035299301147461,0.0,0.0,-2.9,true,53,-23021,2113,21439,47.950000000000045,14,false,100,95,0,0,0,0,0,3558,3592,3582,3541,3579,3601,0.0,0.0,0.0,Started waypoint mission,
20.745515063347828,-103.51430883130644,15000,23.200000000000003,3.0,16,5,0.6000000000000001,-3.5,-68.5,2019-10-25 17:15:36.8620+0000,-0.07467103004455566,0.0,0.0,-3.0,true,53,-23021,2113,21439,47.950000000000045,14,false,100,95,0,0,0,0,0,3558,3592,3582,3541,3579,3601,0.0,0.0,0.0,Started waypoint mission,
20.745515375230603,-103.51430881397525,15000,23.5,2.9,16,5,0.6000000000000001,-3.7,-68.5,2019-10-25 17:15:36.9610+0000,-0.09818494319915771,0.0,0.0,-2.9,true,53,-23021,2113,21439,47.950000000000045,14,false,100,95,0,0,0,0,0,3558,3592,3582,3541,3579,3601,0.0,0.0,0.0,Started waypoint mission,
20.7455156805662,-103.51430874239101,15000,23.8,3.0,16,5,0.30000000000000004,-3.9000000000000004,-68.5,2019-10-25 17:15:37.0840+0000,-0.12271201610565186,0.0,0.0,-3.0,true,53,-22473,2113,21427,47.950000000000045,14,false,100,95,0,0,0,0,0,0,0,0,0,0,0,0.0,0.0,0.0,Started waypoint mission,
20.7455159709741,-103.51430865221263,15000,24.1,2.9,16,5,-0.1,-4.2,-68.60000000000001,2019-10-25 17:15:37.1660+0000,-0.08096396923065186,0.0,0.0,-2.9,true,53,-22473,2113,21427,47.950000000000045,14,false,100,95,0,0,0,0,0,3562,3589,3573,3537,3576,3586,0.0,0.0,0.0,Started waypoint mission,
20.745516242576905,-103.51430859739999,15000,24.400000000000002,3.0,16,5,-0.4,-4.3,-68.60000000000001,2019-10-25 17:15:37.2650+0000,-0.0993509292602539,0.0,0.0,-3.0,true,53,-22473,2113,21427,47.950000000000045,14,false,100,95,0,0,0,0,0,3562,3589,3573,3537,3576,3586,0.0,0.0,0.0,Started waypoint mission,
20.74551649865244,-103.51430854891602,15000,24.700000000000003,2.9,16,5,-0.8,-4.5,-68.60000000000001,2019-10-25 17:15:37.3930+0000,-0.12688899040222168,0.0,0.0,-2.9,true,53,-22473,2113,21427,47.950000000000045,14,false,100,95,0,0,0,0,0,3562,3589,3573,3537,3576,3586,0.0,0.0,0.0,Started waypoint mission,
20.74551674961698,-103.51430861565812,16000,25.0,2.9,16,5,-0.9,-4.6000000000000005,-68.60000000000001,2019-10-25 17:15:37.4880+0000,-0.0941319465637207,0.0,0.0,-2.9,true,53,-22473,2113,21427,47.950000000000045,14,false,100,95,0,0,0,0,0,3562,3589,3573,3537,3576,3586,0.0,0.0,0.0,Started waypoint mission,
20.745516980368336,-103.51430871593426,16000,25.3,2.8,16,5,-0.4,-4.4,-68.60000000000001,2019-10-25 17:15:37.5870+0000,-0.0980910062789917,0.0,0.0,-2.8,true,53,-22473,2113,21427,47.950000000000045,14,false,100,95,0,0,0,0,0,3562,3589,3573,3537,3576,3586,0.0,0.0,0.0,Started waypoint mission,
20.74551713239954,-103.5143088963868,16000,25.5,2.7018514,16,5,0.2,-4.1000000000000005,-68.60000000000001,2019-10-25 17:15:37.6960+0000,-0.10812997817993164,-0.1,0.0,-2.7,true,53,-22473,2113,21427,47.950000000000045,14,false,100,95,0,0,0,0,0,3562,3589,3573,3537,3576,3586,0.0,0.0,0.0,Started waypoint mission,
20.745517261025647,-103.51430909228291,16000,25.8,2.7018514,16,5,0.6000000000000001,-3.8000000000000003,-68.60000000000001,2019-10-25 17:15:37.7940+0000,-0.09812402725219727,-0.1,0.0,-2.7,true,53,-22473,2113,21427,47.950000000000045,14,false,100,95,0,0,0,0,0,3562,3589,3573,3537,3576,3586,0.0,0.0,0.0,Started waypoint mission,
20.745517432453624,-103.51430932204497,16000,26.0,2.9017239,16,5,0.8,-3.4000000000000004,-68.8,2019-10-25 17:15:37.7970+0000,-0.0021420717239379883,-0.1,0.0,-2.9,true,53,-22473,2113,21427,47.950000000000045,14,false,100,95,0,0,0,0,0,3562,3589,3573,3537,3576,3586,0.0,0.0,0.0,Started waypoint mission,
20.74551759168907,-103.51430955970382,16000,26.400000000000002,3.0016663,16,5,1.1,-3.2,-68.9,2019-10-25 17:15:37.9180+0000,-0.1201930046081543,-0.1,0.0,-3.0,true,53,-22473,2113,21427,47.950000000000045,14,false,100,100,0,0,0,0,0,3562,3589,3573,3537,3576,3586,0.0,0.0,0.0,Started waypoint mission,
20.745517693728907,-103.51430985615379,16000,26.700000000000003,2.9017239,16,5,1.5,-3.1,-69.10000000000001,2019-10-25 17:15:38.1110+0000,-0.19246602058410645,-0.1,0.0,-2.9,true,53,-23895,2113,21444,47.950000000000045,14,false,100,100,0,0,0,0,0,3562,3589,3573,3537,3576,3586,0.0,0.0,0.0,Started waypoint mission,
20.74551778361497,-103.51431015225118,16000,26.900000000000002,2.8071337,16,5,1.7000000000000002,-3.0,-69.10000000000001,2019-10-25 17:15:38.1120+0000,-0.0008469820022583008,-0.2,0.0,-2.8,true,53,-23895,2113,21444,47.950000000000045,14,false,100,100,0,0,0,0,0,3562,3589,3573,3537,3576,3586,0.0,0.0,0.0,Started waypoint mission,
20.745517904023757,-103.51431045567548,16000,27.200000000000003,2.8071337,16,5,1.8,-2.9000000000000004,-69.2,2019-10-25 17:15:38.2070+0000,-0.0942150354385376,-0.2,0.0,-2.8,true,53,-23895,2113,21444,47.950000000000045,14,false,100,100,0,0,0,0,0,3562,3589,3573,3537,3576,3586,0.0,0.0,0.0,Started waypoint mission,
20.745518015919174,-103.5143107569382,16000,27.5,2.9068885,16,5,2.0,-2.8000000000000003,-69.2,2019-10-25 17:15:38.3160+0000,-0.10839998722076416,-0.2,0.0,-2.9,true,53,-23895,2113,21444,47.950000000000045,14,false,100,100,0,0,0,0,0,3562,3589,3573,3537,3576,3586,0.0,0.0,0.0,Started waypoint mission,
20.745518023921502,-103.51431108726325,16000,27.8,2.9068885,16,5,2.2,-2.8000000000000003,-69.2,2019-10-25 17:15:38.4120+0000,-0.09587204456329346,-0.2,0.0,-2.9,true,53,-23895,2113,21444,47.950000000000045,14,false,100,100,0,0,0,0,0,3562,3589,3573,3537,3576,3586,0.0,0.0,0.0,Started waypoint mission,
20.745518011839383,-103.51431140887843,17000,28.1,3.0066593,16,5,2.4000000000000004,-2.6,-69.10000000000001,2019-10-25 17:15:38.5160+0000,-0.10277700424194336,-0.2,0.0,-3.0,true,53,-23895,2113,21444,47.950000000000045,14,false,100,100,0,0,0,0,0,0,0,0,0,0,0,0.0,0.0,0.0,Started waypoint mission,
20.745517986783966,-103.51431172125942,17000,28.400000000000002,3.1064448,16,5,2.5,-2.3000000000000003,-69.0,2019-10-25 17:15:38.6380+0000,-0.12192404270172119,-0.2,0.0,-3.1,true,53,-23895,2113,21444,47.950000000000045,14,false,100,100,0,0,0,0,0,3569,3594,3560,3536,3580,3585,0.0,0.0,0.0,Started waypoint mission,
20.745517943556447,-103.51431202107251,17000,28.700000000000003,3.1064448,16,5,2.6,-2.0,-68.8,2019-10-25 17:15:38.7270+0000,-0.0885460376739502,-0.2,0.0,-3.1,true,53,-23895,2113,21444,47.950000000000045,14,false,100,100,0,0,0,0,0,3569,3594,3560,3536,3580,3585,0.0,0.0,0.0,Started waypoint mission,
20.74551781653706,-103.5143123344221,17000,29.0,2.915476,16,5,2.6,-1.7000000000000002,-68.7,2019-10-25 17:15:38.8580+0000,-0.1299349069595337,-0.3,0.0,-2.9,true,53,-23895,2113,21444,47.950000000000045,14,false,100,100,0,0,0,0,0,3569,3594,3560,3536,3580,3585,0.0,0.0,0.0,Started waypoint mission,
20.745517675591426,-103.51431263243113,17000,29.3,2.8160255,16,5,2.4000000000000004,-1.4000000000000001,-68.7,2019-10-25 17:15:38.9610+0000,-0.10203206539154053,-0.3,0.0,-2.8,true,53,-23895,2113,21444,47.950000000000045,14,false,100,100,0,0,0,0,0,3569,3594,3560,3536,3580,3585,0.0,0.0,0.0,Started waypoint mission,
20.74551750005699,-103.5143129384035,17000,29.6,2.8160255,16,5,2.3000000000000003,-1.0,-68.7,2019-10-25 17:15:39.0620+0000,-0.10094499588012695,-0.3,0.0,-2.8,true,53,-23895,2113,21444,47.950000000000045,14,false,100,100,0,0,0,0,0,0,0,0,0,0,0,0.0,0.0,0.0,Started waypoint mission,
20.745517316490645,-103.51431323041112,17000,29.900000000000002,3.1144822,16,5,2.3000000000000003,-0.7000000000000001,-68.60000000000001,2019-10-25 17:15:39.1610+0000,-0.09829390048980713,-0.3,0.0,-3.1,true,53,-23895,2113,21444,47.950000000000045,14,false,100,100,0,0,0,0,0,3569,3594,3560,3536,3580,3585,0.0,0.0,0.0,Started waypoint mission,
20.745517073982892,-103.51431351567358,17000,30.200000000000003,3.0166206,16,5,2.4000000000000004,-0.5,-68.60000000000001,2019-10-25 17:15:39.2580+0000,-0.09691298007965088,-0.3,0.1,-3.0,true,53,-23895,2113,21444,47.950000000000045,14,false,100,100,0,0,0,0,0,3569,3594,3560,3536,3580,3585,0.0,0.0,0.0,Started waypoint mission,
20.74551682723094,-103.51431378434532,17000,30.5,2.9171906,16,5,2.4000000000000004,-0.30000000000000004,-68.7,2019-10-25 17:15:39.3920+0000,-0.1330169439315796,-0.3,0.1,-2.9,true,53,-23895,2113,21444,47.950000000000045,14,false,100,100,0,0,0,0,0,3569,3594,3560,3536,3580,3585,0.0,0.0,0.0,Started waypoint mission,
20.74551651824782,-103.51431401440234,18000,30.8,2.9171906,16,5,2.4000000000000004,0.0,-68.7,2019-10-25 17:15:39.4570+0000,-0.06399297714233398,-0.3,0.1,-2.9,true,53,-23895,2113,21444,47.950000000000045,14,false,100,98,0,0,0,0,0,3569,3594,3560,3536,3580,3585,0.0,0.0,0.0,Started waypoint mission,
20.745516205054752,-103.51431422555818,18000,31.1,3.1160872,16,5,2.2,0.30000000000000004,-68.7,2019-10-25 17:15:39.5610+0000,-0.10336995124816895,-0.3,0.1,-3.1,true,53,-23530,2113,21386,47.950000000000045,14,false,100,98,0,0,0,0,0,0,0,0,0,0,0,0.0,0.0,0.0,Started waypoint mission,
20.74551587423722,-103.5143144372589,18000,31.400000000000002,3.2155871,16,5,2.1,0.5,-68.60000000000001,2019-10-25 17:15:39.6570+0000,-0.09586000442504883,-0.3,0.1,-3.2,true,53,-23530,2113,21386,47.950000000000045,14,false,100,98,0,0,0,0,0,3549,3580,3557,3513,3552,3586,0.0,0.0,0.0,Started waypoint mission,
20.745515542736815,-103.51431463613312,18000,31.8,3.1160872,16,5,2.1,0.8,-68.60000000000001,2019-10-25 17:15:39.7650+0000,-0.10737693309783936,-0.3,0.1,-3.1,true,53,-23530,2113,21386,47.950000000000045,14,false,100,98,0,0,0,0,0,3549,3580,3557,3513,3552,3586,0.0,0.0,0.0,Started waypoint mission,
20.745515161948212,-103.51431477237207,18000,32.1,3.021589,16,5,2.0,1.2000000000000002,-68.5,2019-10-25 17:15:39.9070+0000,-0.140982985496521,-0.3,0.2,-3.0,true,53,-23530,2113,21386,47.950000000000045,14,false,100,98,0,0,0,0,0,3549,3580,3557,3513,3552,3586,0.0,0.0,0.0,Started waypoint mission,
20.745514784541644,-103.51431488549267,18000,32.4,2.922328,16,5,1.7000000000000002,1.7000000000000002,-68.4,2019-10-25 17:15:39.9700+0000,-0.06307506561279297,-0.3,0.2,-2.9,true,53,-23530,2113,21386,47.950000000000045,14,false,100,98,0,0,0,0,0,3549,3580,3557,3513,3552,3586,0.0,0.0,0.0,Started waypoint mission,
20.74551438633151,-103.5143149472041,18000,32.7,2.8231187,16,5,1.3,2.1,-68.4,2019-10-25 17:15:40.1090+0000,-0.13748598098754883,-0.3,0.2,-2.8,true,53,-23530,2113,21386,47.950000000000045,14,false,100,98,0,0,0,0,0,3549,3580,3557,3513,3552,3586,0.0,0.0,0.0,Started waypoint mission,
20.745514004214414,-103.51431498150164,18000,33.0,2.9137607,16,5,0.9,2.2,-68.5,2019-10-25 17:15:40.1940+0000,-0.0850980281829834,-0.2,0.2,-2.9,true,53,-23530,2113,21386,47.950000000000045,14,false,100,98,0,0,0,0,0,3549,3580,3557,3513,3552,3586,0.0,0.0,0.0,Started waypoint mission,
20.745513611745675,-103.51431494375343,18000,33.300000000000004,3.021589,16,5,0.6000000000000001,2.1,-68.5,2019-10-25 17:15:40.2850+0000,-0.09058797359466553,-0.2,0.3,-3.0,true,53,-23530,2113,21386,47.950000000000045,14,false,100,98,0,0,0,0,0,3549,3580,3557,3513,3552,3586,0.0,0.0,0.0,Started waypoint mission,
20.74551323524164,-103.5143148906486,18000,33.6,3.1208973,16,5,0.4,2.1,-68.5,2019-10-25 17:15:40.3940+0000,-0.10840189456939697,-0.2,0.3,-3.1,true,53,-23530,2113,21386,47.950000000000045,14,false,100,98,0,0,0,0,0,3549,3580,3557,3513,3552,3586,0.0,0.0,0.0,Started waypoint mission,
20.745512816681607,-103.51431480415404,19000,33.9,3.021589,16,5,0.1,2.0,-68.4,2019-10-25 17:15:40.4950+0000,-0.10013997554779053,-0.2,0.3,-3.0,true,53,-23530,2113,21386,47.950000000000045,14,false,100,98,0,0,0,0,0,3549,3580,3557,3513,3552,3586,0.0,0.0,0.0,Started waypoint mission,
20.74551241043127,-103.51431470583809,19000,34.300000000000004,3.021589,16,5,-0.2,2.1,-68.4,2019-10-25 17:15:40.5960+0000,-0.10061109066009521,-0.2,0.3,-3.0,true,53,-23829,2073,21321,48.150000000000034,14,false,100,98,0,0,0,0,0,3544,3575,3549,3513,3554,3587,0.0,0.0,0.0,Started waypoint mission,
20.745512053158087,-103.51431455195288,19000,34.5,2.8178005,16,5,-0.4,2.3000000000000003,-68.3,2019-10-25 17:15:40.6960+0000,-0.09966301918029785,-0.1,0.3,-2.8,true,53,-23829,2073,21321,48.150000000000034,14,false,100,98,0,0,0,0,0,3544,3575,3549,3513,3554,3587,0.0,0.0,0.0,Started waypoint mission,
20.74551171757428,-103.5143143961788,19000,34.800000000000004,2.7184556,16,5,-0.6000000000000001,2.4000000000000004,-68.3,2019-10-25 17:15:40.8160+0000,-0.11910903453826904,-0.1,0.3,-2.7,true,53,-23829,2073,21321,48.150000000000034,14,false,100,98,0,0,0,0,0,3544,3575,3549,3513,3554,3587,0.0,0.0,0.0,Started waypoint mission,
20.745511361154428,-103.51431420906863,19000,35.1,2.9171906,16,5,-0.7000000000000001,2.4000000000000004,-68.3,2019-10-25 17:15:40.8190+0000,-0.002229928970336914,-0.1,0.3,-2.9,true,53,-23829,2073,21321,48.150000000000034,14,false,100,98,0,0,0,0,0,3544,3575,3549,3513,3554,3587,0.0,0.0,0.0,Started waypoint mission,
20.745511023747266,-103.51431402036016,19000,35.4,3.1160872,16,5,-0.7000000000000001,2.4000000000000004,-68.3,2019-10-25 17:15:40.9360+0000,-0.11685001850128174,-0.1,0.3,-3.1,true,53,-23829,2073,21321,48.150000000000034,14,false,100,100,0,0,0,0,0,3544,3575,3549,3513,3554,3587,0.0,0.0,0.0,Started waypoint mission,
20.74551072271935,-103.51431378590483,19000,35.800000000000004,3.1160872,16,5,-0.7000000000000001,2.5,-68.2,2019-10-25 17:15:41.0260+0000,-0.08842897415161133,-0.1,0.3,-3.1,true,52,-23829,2073,21321,48.150000000000034,14,false,100,100,0,0,0,0,0,0,0,0,0,0,0,0.0,0.0,0.0,Started waypoint mission,
20.74551044186515,-103.51431354206655,19000,36.1,3.1144822,16,5,-1.1,2.5,-68.2,2019-10-25 17:15:41.1220+0000,-0.09583902359008789,0.0,0.3,-3.1,true,52,-23829,2073,21321,48.150000000000034,14,false,100,100,0,0,0,0,0,3544,3575,3549,3513,3554,3587,0.0,0.0,0.0,Started waypoint mission,
20.745510211379024,-103.5143132174158,19000,36.4,2.915476,16,5,-1.4000000000000001,2.4000000000000004,-68.2,2019-10-25 17:15:41.2160+0000,-0.0936359167098999,0.0,0.3,-2.9,true,52,-23829,2073,21321,48.150000000000034,14,false,100,100,0,0,0,0,0,3544,3575,3549,3513,3554,3587,0.0,0.0,0.0,Started waypoint mission,
20.745510010130207,-103.51431288668384,19000,36.7,2.915476,16,5,-1.7000000000000002,1.9000000000000001,-68.2,2019-10-25 17:15:41.3360+0000,-0.11865508556365967,0.0,0.3,-2.9,true,52,-23829,2073,21321,48.150000000000034,14,false,100,100,0,0,0,0,0,3544,3575,3549,3513,3554,3587,0.0,0.0,0.0,Started waypoint mission,
20.74550985102569,-103.51431251040673,19000,37.0,2.7166157,16,5,-1.9000000000000001,1.7000000000000002,-68.3,2019-10-25 17:15:41.4470+0000,-0.11072993278503418,0.0,0.3,-2.7,true,52,-23829,2073,21321,48.150000000000034,14,false,100,100,0,0,0,0,0,3544,3575,3549,3513,3554,3587,0.0,0.0,0.0,Started waypoint mission,
20.74550972107877,-103.51431214013745,20000,37.300000000000004,2.8160255,16,5,-2.2,1.5,-68.4,2019-10-25 17:15:41.5270+0000,-0.07965397834777832,0.0,0.3,-2.8,true,52,-23859,2073,21324,48.25,14,false,100,100,0,0,0,0,0,0,0,0,0,0,0,0.0,0.0,0.0,Started waypoint mission,
20.74550964248376,-103.51431174103499,20000,37.5,2.7166157,16,5,-2.3000000000000003,1.1,-68.5,2019-10-25 17:15:41.6460+0000,-0.11839306354522705,0.0,0.3,-2.7,true,52,-23859,2073,21324,48.25,14,false,100,100,0,0,0,0,0,3550,3577,3536,3504,3550,3562,0.0,0.0,0.0,Started waypoint mission,
20.74550958751084,-103.51431134250942,20000,37.800000000000004,2.915476,16,5,-2.4000000000000004,0.8,-68.7,2019-10-25 17:15:41.7580+0000,-0.11177098751068115,0.0,0.3,-2.9,true,52,-23859,2073,21324,48.25,14,false,100,100,0,0,0,0,0,3550,3577,3536,3504,3550,3562,0.0,0.0,0.0,Started waypoint mission,
20.745509584185925,-103.51431091330267,20000,38.1,3.1160872,16,5,-2.5,0.4,-68.8,2019-10-25 17:15:41.8640+0000,-0.10534000396728516,0.1,0.3,-3.1,true,52,-23859,2073,21324,48.25,14,false,100,100,0,0,0,0,0,3550,3577,3536,3504,3550,3562,0.0,0.0,0.0,Started waypoint mission,
20.745509602638435,-103.5143104948801,20000,38.400000000000006,3.108054,16,5,-2.5,0.0,-68.8,2019-10-25 17:15:41.9540+0000,-0.08901309967041016,0.1,0.2,-3.1,true,52,-23859,2073,21324,48.25,14,false,100,100,0,0,0,0,0,3550,3577,3536,3504,3550,3562,0.0,0.0,0.0,Started waypoint mission,
20.745509672048364,-103.51431005386806,20000,38.800000000000004,3.108054,16,5,-2.7,-0.2,-68.8,2019-10-25 17:15:42.0470+0000,-0.0929570198059082,0.1,0.2,-3.1,true,52,-23859,2073,21324,48.25,14,false,100,100,0,0,0,0,0,0,0,0,0,0,0,0.0,0.0,0.0,Started waypoint mission,
