latitude,longitude,flight_time,altitude,speed,satellites,gps_level,pitch,roll,yaw,timestamp,last_updated,velocityX,velocityY,velocityZ,isflying,remainBatteryPercent,currentCurrent,batteryChargeRemaining,batteryVoltage,batteryTemperature,flightMode,istakingphoto,downlinkSignal,uplinkSignal,radioChannel,rc_elevator,rc_aileron,rc_throttle,rc_rudder,Battery_Cell1,Battery_Cell2,Battery_Cell3,Battery_Cell4,Battery_Cell5,Battery_Cell6,gimbalPitch,gimbalYaw,gimbalRoll,app_Tip,app_Warning,appVersion,AircraftComercialName,AircraftSerialNumber,RemoteSerialNumber,BatterySerialNumber,BatteryFullCapacity,dischargeCount,batteryLife,AircraftModel,sonar_altitude,isTakingVideo
20.74550112537066,-103.51431137935904,0,0.0,0.0,13,4,-2.7,-4.3,-60.6,2019-10-25 16:36:02.0060+0000,-0.106423020362854,0.0,0.0,0.0,false,48,-976,1850,23123,46.950000000000045,6,false,100,100,0,0,0,0,0,3857,3855,3856,3836,3857,3862,0.0,0.0,0.0,Started waypoint mission,,Flight1_3.1.0_(3),DJI,041DE70691,03LJ7004AS,9971171300860,3855,99,76,Explore1, ,false
20.74550111805687,-103.5143113729526,0,0.0,0.0,13,4,-2.7,-4.3,-60.6,2019-10-25 16:36:02.1150+0000,-0.1075279712677002,0.0,0.0,0.0,false,48,-976,1850,23123,46.950000000000045,6,false,100,100,0,0,0,0,0,3857,3855,3856,3836,3857,3862,0.0,0.0,0.0,Started waypoint mission,
20.745501111198088,-103.51431136629888,0,0.0,0.0,13,4,-2.7,-4.3,-60.6,2019-10-25 16:36:02.1990+0000,-0.0840139389038086,0.0,0.0,0.0,false,48,-976,1850,23123,46.950000000000045,6,false,100,100,0,0,0,0,0,3857,3855,3856,3836,3857,3862,0.0,0.0,0.0,Started waypoint mission,
20.745501104902438,-103.5143113591357,0,0.0,0.0,13,4,-2.7,-4.3,-60.6,2019-10-25 16:36:02.2990+0000,-0.09879195690155029,0.0,0.0,0.0,false,48,-976,1850,23123,46.950000000000045,6,false,100,100,0,0,0,0,0,3857,3855,3856,3836,3857,3862,0.0,0.0,0.0,Started waypoint mission,
20.745501098846603,-103.51431135214314,0,0.0,0.0,13,4,-2.7,-4.3,-60.7,2019-10-25 16:36:02.4170+0000,-0.11688399314880371,0.0,0.0,0.0,false,48,-959,1850,23124,46.950000000000045,6,false,100,100,0,0,0,0,0,3857,3856,3857,3835,3857,3863,0.0,0.0,0.0,Started waypoint mission,
20.745501093395653,-103.51431134578249,0,0.0,0.0,13,4,-2.7,-4.3,-60.7,2019-10-25 16:36:02.5460+0000,-0.12890899181365967,0.0,0.0,0.0,false,48,-959,1850,23124,46.950000000000045,6,false,100,100,0,0,0,0,0,3857,3856,3857,3835,3857,3863,0.0,0.0,0.0,Started waypoint mission,
20.745501087958623,-103.51431133966224,0,0.0,0.0,13,4,-2.7,-4.3,-60.7,2019-10-25 16:36:02.6220+0000,-0.07449901103973389,0.0,0.0,0.0,false,48,-959,1850,23124,46.950000000000045,6,false,100,100,0,0,0,0,0,3857,3856,3857,3835,3857,3863,0.0,0.0,0.0,Started waypoint mission,
20.745501082036615,-103.51431133388203,0,0.0,0.0,13,4,-2.7,-4.3,-60.7,2019-10-25 16:36:02.7290+0000,-0.10636603832244873,0.0,0.0,0.0,false,48,-959,1850,23124,46.950000000000045,6,false,100,100,0,0,0,0,0,3857,3856,3857,3835,3857,3863,0.0,0.0,0.0,Started waypoint mission,
20.74550107615154,-103.51431132836397,0,0.0,0.0,13,4,-2.7,-4.3,-60.7,2019-10-25 16:36:02.8320+0000,-0.10283100605010986,0.0,0.0,0.0,false,48,-959,1850,23124,46.950000000000045,6,false,100,100,0,0,0,0,0,3857,3856,3857,3835,3857,3863,0.0,0.0,0.0,Started waypoint mission,
20.745501070491823,-103.51431132311153,0,0.0,0.0,13,4,-2.7,-4.3,-60.7,2019-10-25 16:36:02.9460+0000,-0.11400091648101807,0.0,0.0,0.0,false,48,-959,1850,23124,46.950000000000045,6,false,100,100,0,0,0,0,0,3857,3856,3857,3835,3857,3863,0.0,0.0,0.0,Started waypoint mission,
20.745501064697752,-103.51431131773887,0,0.0,0.0,13,4,-2.7,-4.3,-60.7,2019-10-25 16:36:02.9500+0000,-0.0025240182876586914,0.0,0.0,0.0,false,48,-959,1850,23124,46.950000000000045,6,false,100,100,0,0,0,0,0,3857,3856,3857,3835,3857,3863,0.0,0.0,0.0,Started waypoint mission,
20.745501058298785,-103.51431131188538,0,0.0,0.0,13,4,-2.7,-4.3,-60.7,2019-10-25 16:36:03.0340+0000,-0.08374905586242676,0.0,0.0,0.0,false,48,-959,1850,23124,46.950000000000045,6,false,100,100,0,0,0,0,0,3857,3856,3857,3835,3857,3863,0.0,0.0,0.0,Started waypoint mission,
20.745501052320037,-103.51431130644286,0,0.0,0.0,13,4,-2.7,-4.3,-60.7,2019-10-25 16:36:03.1480+0000,-0.11342799663543701,0.0,0.0,0.0,false,48,-959,1850,23124,46.950000000000045,6,false,100,100,0,0,0,0,0,3857,3856,3857,3835,3857,3863,0.0,0.0,0.0,Started waypoint mission,
20.74550104767311,-103.51431130147661,0,0.0,0.0,13,4,-2.7,-4.3,-60.7,2019-10-25 16:36:03.2490+0000,-0.10031497478485107,0.0,0.0,0.0,false,48,-959,1850,23124,46.950000000000045,6,false,100,100,0,0,0,0,0,3857,3856,3857,3835,3857,3863,0.0,0.0,0.0,Started waypoint mission,
20.745501042914835,-103.51431129618409,0,0.0,0.0,13,4,-2.7,-4.2,-60.7,2019-10-25 16:36:03.3480+0000,-0.09838402271270752,0.0,0.0,0.0,false,48,-1041,1850,23124,46.950000000000045,6,false,100,100,0,0,0,0,0,0,0,0,0,0,0,0.0,0.0,0.0,Started waypoint mission,
20.74550103846704,-103.5143112929534,0,0.0,0.0,13,4,-2.7,-4.2,-60.7,2019-10-25 16:36:03.4540+0000,-0.10583508014678955,0.0,0.0,0.0,false,48,-1041,1850,23124,46.950000000000045,6,false,100,100,0,0,0,0,0,3857,3856,3853,3831,3856,3861,0.0,0.0,0.0,Started waypoint mission,
20.745501031099717,-103.51431128874846,0,0.0,0.0,13,4,-2.7,-4.2,-60.7,2019-10-25 16:36:03.5500+0000,-0.09508299827575684,0.0,0.0,0.0,false,48,-1041,1850,23124,46.950000000000045,6,false,100,100,0,0,0,0,0,3857,3856,3853,3831,3856,3861,0.0,0.0,0.0,Started waypoint mission,
20.745501020335396,-103.5143112861543,0,0.0,0.0,13,4,-2.7,-4.2,-60.7,2019-10-25 16:36:03.6490+0000,-0.09855103492736816,0.0,0.0,0.0,false,48,-1041,1850,23124,46.950000000000045,6,false,100,100,0,0,0,0,0,3857,3856,3853,3831,3856,3861,0.0,0.0,0.0,Started waypoint mission,
20.745501009168528,-103.51431128727964,0,0.0,0.0,13,4,-2.7,-4.1000000000000005,-60.800000000000004,2019-10-25 16:36:03.7770+0000,-0.12718093395233154,0.0,0.0,0.0,false,48,-1041,1850,23124,46.950000000000045,6,false,100,100,0,0,0,0,0,3857,3856,3853,3831,3856,3861,0.0,0.0,0.0,Started waypoint mission,
20.74550100043138,-103.51431129468894,0,0.0,0.0,13,4,-2.7,-4.1000000000000005,-60.800000000000004,2019-10-25 16:36:03.8840+0000,-0.1057819128036499,0.0,0.0,0.0,false,48,-1041,1850,23124,46.950000000000045,6,false,100,100,0,0,0,0,0,3857,3856,3853,3831,3856,3861,0.0,0.0,0.0,Started waypoint mission,
20.745500991544876,-103.51431130225966,0,0.0,0.0,13,4,-2.7,-4.1000000000000005,-60.800000000000004,2019-10-25 16:36:03.9850+0000,-0.10070407390594482,0.0,0.0,0.0,false,48,-1041,1850,23124,46.950000000000045,6,false,100,100,0,0,0,0,0,3857,3856,3853,3831,3856,3861,0.0,0.0,0.0,Started waypoint mission,
20.74550097947282,-103.51431130045084,0,0.0,0.0,13,4,-2.7,-4.1000000000000005,-60.800000000000004,2019-10-25 16:36:04.0840+0000,-0.09796297550201416,0.0,0.0,0.0,false,48,-1041,1850,23124,46.950000000000045,6,false,100,100,0,0,0,0,0,3857,3856,3853,3831,3856,3861,0.0,0.0,0.0,Started waypoint mission,
20.745500967584373,-103.51431129723389,0,0.0,0.0,13,4,-2.7,-4.2,-60.800000000000004,2019-10-25 16:36:04.1860+0000,-0.10170602798461914,0.0,0.0,0.0,false,48,-1041,1850,23124,46.950000000000045,11,false,100,100,0,0,0,0,0,3857,3856,3853,3831,3856,3861,0.0,0.0,0.0,Started waypoint mission,
20.745500961338507,-103.51431129844853,0,0.0,0.0,13,4,-2.7,-4.1000000000000005,-60.800000000000004,2019-10-25 16:36:04.2890+0000,-0.10234296321868896,0.0,0.0,0.0,false,48,-1041,1850,23124,46.950000000000045,11,false,100,100,0,0,0,0,0,3857,3856,3853,3831,3856,3861,0.0,0.0,0.0,Started waypoint mission,
20.745500954649952,-103.51431129813143,0,0.0,0.0,13,4,-2.7,-4.1000000000000005,-60.800000000000004,2019-10-25 16:36:04.3920+0000,-0.102836012840271,0.0,0.0,0.0,false,48,-1268,1850,23108,46.950000000000045,11,false,100,100,0,0,0,0,0,3854,3853,3853,3832,3854,3860,0.0,0.0,0.0,Started waypoint mission,
20.745500959622873,-103.51431128456869,0,0.0,0.0,13,4,-2.7,-4.1000000000000005,-60.800000000000004,2019-10-25 16:36:04.4960+0000,-0.1029670238494873,0.0,0.0,0.0,false,48,-1268,1850,23108,46.950000000000045,11,false,100,100,0,0,0,0,0,3854,3853,3853,3832,3854,3860,0.0,0.0,0.0,Started waypoint mission,
20.7455009577595,-103.51431127063847,0,0.0,0.0,13,4,-2.7,-4.1000000000000005,-60.800000000000004,2019-10-25 16:36:04.6420+0000,-0.14545702934265137,0.0,0.0,0.0,false,48,-1268,1850,23108,46.950000000000045,11,false,100,100,0,0,0,0,0,3854,3853,3853,3832,3854,3860,0.0,0.0,0.0,Started waypoint mission,
20.745500953517254,-103.51431126001336,0,0.0,0.0,13,4,-2.7,-4.0,-60.800000000000004,2019-10-25 16:36:04.7310+0000,-0.0890660285949707,0.0,0.0,0.0,false,48,-1268,1850,23108,46.950000000000045,11,false,100,100,0,0,0,0,0,3854,3853,3853,3832,3854,3860,0.0,0.0,0.0,Started waypoint mission,
20.74550094533574,-103.51431124830522,0,0.0,0.0,13,4,-2.7,-4.0,-60.900000000000006,2019-10-25 16:36:04.8200+0000,-0.08862805366516113,0.0,0.0,0.0,false,48,-1268,1850,23108,46.950000000000045,11,false,100,100,0,0,0,0,0,3854,3853,3853,3832,3854,3860,0.0,0.0,0.0,Started waypoint mission,
20.74550093271499,-103.51431124215978,0,0.0,0.0,13,4,-2.7,-3.9000000000000004,-60.900000000000006,2019-10-25 16:36:04.9190+0000,-0.0981760025024414,0.0,0.0,0.0,false,48,-1268,1850,23108,46.950000000000045,11,false,100,100,0,0,0,0,0,3854,3853,3853,3832,3854,3860,0.0,0.0,0.0,Started waypoint mission,
20.745500919360875,-103.51431123610935,0,0.0,0.0,13,4,-2.7,-3.9000000000000004,-60.900000000000006,2019-10-25 16:36:05.0190+0000,-0.09913289546966553,0.0,0.0,0.0,false,48,-1268,1850,23108,46.950000000000045,11,false,100,100,0,0,0,0,0,3854,3853,3853,3832,3854,3860,0.0,0.0,0.0,Started waypoint mission,
20.745500912380027,-103.5143112296445,0,0.0,0.1,13,4,-2.7,-3.9000000000000004,-60.900000000000006,2019-10-25 16:36:05.0220+0000,-0.0024880170822143555,0.0,0.0,0.1,false,48,-1268,1850,23108,46.950000000000045,11,false,100,100,0,0,0,0,0,3854,3853,3853,3832,3854,3860,0.0,0.0,0.0,Started waypoint mission,
20.745500903843062,-103.51431122133302,0,0.0,0.1,13,4,-2.7,-3.8000000000000003,-61.0,2019-10-25 16:36:05.2470+0000,-0.22450494766235352,0.0,0.0,0.1,false,48,-1268,1850,23108,46.950000000000045,11,false,100,100,0,0,0,0,0,3854,3853,3853,3832,3854,3860,0.0,0.0,0.0,Started waypoint mission,
20.745500887583873,-103.51431121489105,0,-0.1,0.1,13,4,-2.6,-3.9000000000000004,-61.0,2019-10-25 16:36:05.2500+0000,-0.0025500059127807617,0.0,0.0,0.1,false,48,-1268,1850,23108,46.950000000000045,11,false,100,100,0,0,0,0,0,3854,3853,3853,3832,3854,3860,0.0,0.0,0.0,Started waypoint mission,
20.74550086602041,-103.5143112097805,0,-0.1,0.1,13,4,-2.6,-4.0,-61.1,2019-10-25 16:36:05.3530+0000,-0.10296201705932617,0.0,0.0,0.1,false,48,-3900,1850,23028,46.950000000000045,11,false,100,100,0,0,0,0,0,0,0,0,0,0,0,0.0,0.0,0.0,Started waypoint mission,
20.745500845620146,-103.514311205042,0,-0.1,0.1,13,4,-2.6,-4.2,-61.1,2019-10-25 16:36:05.4490+0000,-0.09554600715637207,0.0,0.0,0.1,false,48,-3900,1850,23028,46.950000000000045,11,false,100,100,0,0,0,0,0,3854,3853,3853,3832,3854,3860,0.0,0.0,0.0,Started waypoint mission,
20.7455008245652,-103.51431120334189,0,-0.2,0.1,13,4,-2.7,-3.6,-61.1,2019-10-25 16:36:05.5510+0000,-0.10122597217559814,0.0,0.0,0.1,false,48,-3900,1850,23028,46.950000000000045,11,false,100,100,0,0,0,0,0,3854,3853,3853,3832,3854,3860,0.0,0.0,0.0,Started waypoint mission,
20.745500809566103,-103.51431120717012,0,-0.2,0.1,13,4,-2.6,-2.0,-61.300000000000004,2019-10-25 16:36:05.6570+0000,-0.105010986328125,0.0,0.0,0.1,false,48,-3900,1850,23028,46.950000000000045,11,false,100,100,0,0,0,0,0,3854,3853,3853,3832,3854,3860,0.0,0.0,0.0,Started waypoint mission,
20.745500828094393,-103.51431120755592,0,-0.2,0.1,13,4,-2.7,0.2,-61.900000000000006,2019-10-25 16:36:05.7520+0000,-0.09507393836975098,0.0,0.0,-0.1,true,48,-3900,1850,23028,46.950000000000045,11,false,100,100,0,0,0,0,0,3854,3853,3853,3832,3854,3860,0.0,0.0,0.0,Started waypoint mission,
20.745500915457857,-103.51431119272132,3000,-0.2,0.31622776,13,4,-2.3000000000000003,1.0,-62.800000000000004,2019-10-25 16:36:05.8580+0000,-0.10482704639434814,0.1,0.0,-0.3,true,48,-3900,1850,23028,46.950000000000045,11,false,100,100,0,0,0,0,0,3832,3840,3841,3812,3843,3842,0.0,0.0,0.0,Started waypoint mission,
20.745501073472216,-103.51431115099142,3000,-0.1,0.53851646,13,4,-1.9000000000000001,-0.2,-63.5,2019-10-25 16:36:05.9600+0000,-0.10183393955230713,0.2,0.0,-0.5,true,48,-3900,1850,23028,46.950000000000045,11,false,100,100,0,0,0,0,0,3832,3840,3841,3812,3843,3842,0.0,0.0,0.0,Started waypoint mission,
20.745501282496807,-103.51431108316066,4000,-0.1,0.53851646,13,4,-1.3,-1.1,-64.10000000000001,2019-10-25 16:36:06.0670+0000,-0.10606002807617188,0.2,0.0,-0.5,true,48,-3900,1850,23028,46.950000000000045,11,false,100,100,0,0,0,0,0,3832,3840,3841,3812,3843,3842,0.0,0.0,0.0,Started waypoint mission,
20.745501524554147,-103.5143109793996,4000,0.0,0.5477226,13,4,-0.7000000000000001,-1.7000000000000002,-64.4,2019-10-25 16:36:06.1760+0000,-0.10837507247924805,0.2,0.1,-0.5,true,48,-3900,1850,23028,46.950000000000045,11,false,100,100,0,0,0,0,0,3832,3840,3841,3812,3843,3842,0.0,0.0,0.0,Started waypoint mission,
20.745501787783624,-103.51431082087014,4000,0.0,0.5477226,13,4,-0.6000000000000001,-3.0,-64.5,2019-10-25 16:36:06.2890+0000,-0.11224102973937988,0.2,0.1,-0.5,true,48,-3900,1850,23028,46.950000000000045,11,false,100,100,0,0,0,0,0,3832,3840,3841,3812,3843,3842,0.0,0.0,0.0,Started waypoint mission,
20.745502047070612,-103.51431063797762,4000,0.0,0.4582576,14,4,-0.4,-4.0,-64.4,2019-10-25 16:36:06.4060+0000,-0.1164700984954834,0.2,0.1,-0.4,true,48,-3900,1850,23028,46.950000000000045,11,false,100,100,0,0,0,0,0,3832,3840,3841,3812,3843,3842,0.0,0.0,0.0,Started waypoint mission,
20.745502278165553,-103.51431043577995,4000,0.0,0.4582576,14,4,-0.4,-4.3,-64.0,2019-10-25 16:36:06.4910+0000,-0.08474600315093994,0.2,0.1,-0.4,true,48,-3900,1850,23028,46.950000000000045,11,false,100,100,0,0,0,0,0,3832,3840,3841,3812,3843,3842,0.0,0.0,0.0,Started waypoint mission,
20.74550248796843,-103.51431020972298,4000,0.1,0.41231057,14,4,-0.6000000000000001,-4.5,-63.6,2019-10-25 16:36:06.5970+0000,-0.10540497303009033,0.2,0.2,-0.3,true,48,-3900,1850,23028,46.950000000000045,11,false,100,100,0,0,0,0,0,3832,3840,3841,3812,3843,3842,0.0,0.0,0.0,Started waypoint mission,
20.745502672997677,-103.51430996789027,4000,0.1,0.34641016,14,4,-1.0,-4.3,-63.2,2019-10-25 16:36:06.7270+0000,-0.1284550428390503,0.2,0.2,-0.2,true,48,-3900,1850,23028,46.950000000000045,11,false,100,100,0,0,0,0,0,3832,3840,3841,3812,3843,3842,0.0,0.0,0.0,Started waypoint mission,
20.745502827759513,-103.51430973358936,4000,0.1,0.3,14,4,-1.2000000000000002,-3.8000000000000003,-62.900000000000006,2019-10-25 16:36:06.8130+0000,-0.08527207374572754,0.1,0.2,-0.2,true,48,-3900,1850,23028,46.950000000000045,11,false,100,100,0,0,0,0,0,3832,3840,3841,3812,3843,3842,0.0,0.0,0.0,Started waypoint mission,
20.74550295189852,-103.51430951835323,4000,0.1,0.37416577,14,4,-1.4000000000000001,-3.4000000000000004,-62.5,2019-10-25 16:36:06.9080+0000,-0.09488904476165771,0.1,0.2,-0.3,true,48,-9325,1850,22673,46.950000000000045,11,false,100,100,0,0,0,0,0,3773,3776,3759,3743,3767,3756,0.0,0.0,0.0,Started waypoint mission,
20.745503077272996,-103.51430928701744,4000,0.2,0.37416577,13,4,-1.7000000000000002,-3.4000000000000004,-62.2,2019-10-25 16:36:07.0080+0000,-0.09969198703765869,0.1,0.2,-0.3,true,48,-9325,1850,22673,46.950000000000045,11,false,100,100,0,0,0,0,0,3773,3776,3759,3743,3767,3756,0.0,0.0,0.0,Started waypoint mission,
20.745503219416257,-103.51430903169992,5000,0.2,0.5477226,13,4,-1.7000000000000002,-3.8000000000000003,-61.900000000000006,2019-10-25 16:36:07.1390+0000,-0.12989699840545654,0.1,0.2,-0.5,true,48,-9325,1850,22673,46.950000000000045,11,false,100,100,0,0,0,0,0,3773,3776,3759,3743,3767,3756,0.0,0.0,0.0,Started waypoint mission,
20.745503350254275,-103.51430876688612,5000,0.30000000000000004,0.5477226,13,4,-1.6,-4.0,-61.7,2019-10-25 16:36:07.2370+0000,-0.09748101234436035,0.1,0.2,-0.5,true,48,-9325,1850,22673,46.950000000000045,11,false,100,100,0,0,0,0,0,3773,3776,3759,3743,3767,3756,0.0,0.0,0.0,Started waypoint mission,
20.745503452865716,-103.51430848750897,5000,0.30000000000000004,0.5477226,13,4,-1.6,-4.1000000000000005,-61.6,2019-10-25 16:36:07.3370+0000,-0.09978199005126953,0.1,0.2,-0.5,true,48,-9325,1850,22673,46.950000000000045,11,false,100,100,0,0,0,0,0,3773,3776,3759,3743,3767,3756,0.0,0.0,0.0,Started waypoint mission,
20.7455035632976,-103.51430821783877,5000,0.30000000000000004,0.4582576,14,4,-1.9000000000000001,-4.1000000000000005,-61.5,2019-10-25 16:36:07.4370+0000,-0.09972500801086426,0.1,0.2,-0.4,true,48,-9325,1850,22673,46.950000000000045,11,false,100,100,0,0,0,0,0,3773,3776,3759,3743,3767,3756,0.0,0.0,0.0,Started waypoint mission,
20.745503703801763,-103.51430797998783,5000,0.4,0.4582576,14,4,-2.2,-4.0,-61.6,2019-10-25 16:36:07.5380+0000,-0.10037398338317871,0.1,0.2,-0.4,true,48,-9325,1850,22673,46.950000000000045,11,false,100,100,0,0,0,0,0,3773,3776,3759,3743,3767,3756,0.0,0.0,0.0,Started waypoint mission,
20.745503859790507,-103.51430771016881,5000,0.4,0.4582576,13,4,-2.1,-3.5,-61.7,2019-10-25 16:36:07.5410+0000,-0.0023670196533203125,0.1,0.2,-0.4,true,48,-9325,1850,22673,46.950000000000045,11,false,100,100,0,0,0,0,0,3773,3776,3759,3743,3767,3756,0.0,0.0,0.0,Started waypoint mission,
20.745504050279784,-103.5143073630924,5000,0.4,0.37416577,13,4,-2.1,-3.3000000000000003,-61.7,2019-10-25 16:36:07.6380+0000,-0.09639596939086914,0.1,0.2,-0.3,true,48,-9325,1850,22673,46.950000000000045,11,false,100,100,0,0,0,0,0,3773,3776,3759,3743,3767,3756,0.0,0.0,0.0,Started waypoint mission,
20.745504220228582,-103.51430703270992,5000,0.5,0.4582576,13,4,-2.2,-3.5,-61.6,2019-10-25 16:36:07.7420+0000,-0.10280799865722656,0.1,0.2,-0.4,true,48,-9325,1850,22673,46.950000000000045,11,false,100,100,0,0,0,0,0,3773,3776,3759,3743,3767,3756,0.0,0.0,0.0,Started waypoint mission,
20.745504330609883,-103.51430675739009,5000,0.5,0.5477226,13,4,-2.2,-3.9000000000000004,-61.400000000000006,2019-10-25 16:36:07.8700+0000,-0.12777698040008545,0.1,0.2,-0.5,true,48,-18132,1850,22172,46.950000000000045,11,false,100,100,0,0,0,0,0,0,0,0,0,0,0,0.0,0.0,0.0,Started waypoint mission,
20.745504466021746,-103.514306461642,5000,0.6000000000000001,0.5477226,14,4,-2.2,-4.3,-61.2,2019-10-25 16:36:07.9600+0000,-0.08942699432373047,0.1,0.2,-0.5,true,48,-18132,1850,22172,46.950000000000045,11,false,100,100,0,0,0,0,0,3686,3701,3700,3657,3700,3696,0.0,0.0,0.0,Started waypoint mission,
20.745504657251068,-103.51430612183299,6000,0.6000000000000001,0.4582576,14,4,-2.4000000000000004,-4.6000000000000005,-61.1,2019-10-25 16:36:08.0590+0000,-0.09820306301116943,0.1,0.2,-0.4,true,48,-18132,1850,22172,46.950000000000045,11,false,100,100,0,0,0,0,0,3686,3701,3700,3657,3700,3696,0.0,0.0,0.0,Started waypoint mission,
20.745504846537525,-103.51430581121359,6000,0.6000000000000001,0.4582576,14,4,-2.4000000000000004,-4.6000000000000005,-61.1,2019-10-25 16:36:08.1760+0000,-0.1155860424041748,0.1,0.2,-0.4,true,48,-18132,1850,22172,46.950000000000045,11,false,100,100,0,0,0,0,0,3686,3701,3700,3657,3700,3696,0.0,0.0,0.0,Started waypoint mission,
20.745505033682647,-103.51430555823725,6000,0.7000000000000001,0.4582576,14,4,-2.1,-4.3,-61.2,2019-10-25 16:36:08.2590+0000,-0.08197200298309326,0.1,0.2,-0.4,true,48,-18132,1850,22172,46.950000000000045,11,false,100,100,0,0,0,0,0,3686,3701,3700,3657,3700,3696,0.0,0.0,0.0,Started waypoint mission,
20.74550521631186,-103.51430530719568,6000,0.7000000000000001,0.4582576,13,4,-1.9000000000000001,-4.2,-61.5,2019-10-25 16:36:08.3590+0000,-0.09940707683563232,0.1,0.2,-0.4,true,48,-18132,1850,22172,46.950000000000045,11,false,100,100,0,0,0,0,0,3686,3701,3700,3657,3700,3696,0.0,0.0,0.0,Started waypoint mission,
20.745505385990853,-103.51430504505042,6000,0.7000000000000001,0.4582576,13,4,-1.9000000000000001,-4.3,-61.800000000000004,2019-10-25 16:36:08.4890+0000,-0.12991297245025635,0.1,0.2,-0.4,true,48,-18132,1850,22172,46.950000000000045,11,false,100,100,0,0,0,0,0,3686,3701,3700,3657,3700,3696,0.0,0.0,0.0,Started waypoint mission,
20.745505552261065,-103.5143047679618,6000,0.8,0.4582576,14,4,-2.0,-4.4,-62.1,2019-10-25 16:36:08.5880+0000,-0.09832203388214111,0.1,0.2,-0.4,true,48,-18132,1850,22172,46.950000000000045,11,false,100,100,0,0,0,0,0,3686,3701,3700,3657,3700,3696,0.0,0.0,0.0,Started waypoint mission,
20.74550571147617,-103.51430446933105,6000,0.8,0.5477226,14,4,-2.1,-4.3,-62.400000000000006,2019-10-25 16:36:08.6940+0000,-0.10534799098968506,0.1,0.2,-0.5,true,48,-18132,1850,22172,46.950000000000045,11,false,100,100,0,0,0,0,0,3686,3701,3700,3657,3700,3696,0.0,0.0,0.0,Started waypoint mission,
20.74550586558071,-103.51430417131847,6000,0.9,0.4582576,14,4,-2.3000000000000003,-4.3,-62.5,2019-10-25 16:36:08.7920+0000,-0.09619295597076416,0.1,0.2,-0.4,true,48,-18132,1850,22172,46.950000000000045,11,false,100,100,0,0,0,0,0,3686,3701,3700,3657,3700,3696,0.0,0.0,0.0,Started waypoint mission,
20.74550601186132,-103.5143038801897,6000,0.9,0.37416577,14,4,-2.2,-4.3,-62.400000000000006,2019-10-25 16:36:08.9070+0000,-0.11342191696166992,0.1,0.2,-0.3,true,48,-19127,1850,22030,46.950000000000045,14,false,100,100,0,0,0,0,0,3658,3683,3675,3642,3685,3673,0.0,0.0,0.0,Started waypoint mission,
20.74550617813366,-103.51430357382098,7000,0.9,0.3,13,4,-2.2,-4.7,-62.300000000000004,2019-10-25 16:36:09.0150+0000,-0.10820698738098145,0.1,0.2,-0.2,true,48,-19127,1850,22030,46.950000000000045,14,false,100,100,0,0,0,0,0,3658,3683,3675,3642,3685,3673,0.0,0.0,0.0,Started waypoint mission,
20.74550638313008,-103.51430323310521,7000,0.9,0.24494898,13,4,-2.7,-5.2,-62.2,2019-10-25 16:36:09.1310+0000,-0.11430299282073975,0.1,0.2,-0.1,true,48,-19127,1850,22030,46.950000000000045,14,false,100,100,0,0,0,0,0,3658,3683,3675,3642,3685,3673,0.0,0.0,0.0,Started waypoint mission,
20.74550658284434,-103.51430295295987,7000,0.9,0.3,13,4,-2.9000000000000004,-5.5,-62.2,2019-10-25 16:36:09.2170+0000,-0.085548996925354,0.1,0.2,-0.2,true,48,-19127,1850,22030,46.950000000000045,14,false,100,100,0,0,0,0,0,3658,3683,3675,3642,3685,3673,0.0,0.0,0.0,Started waypoint mission,
20.745506765141563,-103.514302808696,7000,0.9,0.33166248,13,4,-3.0,-5.6000000000000005,-62.300000000000004,2019-10-25 16:36:09.3190+0000,-0.10129702091217041,0.1,0.1,-0.3,true,48,-19127,1850,22030,46.950000000000045,14,false,100,100,0,0,0,0,0,3658,3683,3675,3642,3685,3673,0.0,0.0,0.0,Started waypoint mission,
20.745506929044325,-103.51430265790215,7000,1.0,0.51961523,13,4,-2.8000000000000003,-5.5,-62.5,2019-10-25 16:36:09.4300+0000,-0.11051404476165771,0.1,0.1,-0.5,true,48,-19127,1850,22030,46.950000000000045,14,false,100,100,0,0,0,0,0,3658,3683,3675,3642,3685,3673,0.0,0.0,0.0,Started waypoint mission,
20.745507066550726,-103.51430244439481,7000,1.0,0.6164414,13,4,-2.6,-5.300000000000001,-62.7,2019-10-25 16:36:09.5200+0000,-0.08950090408325195,0.1,0.1,-0.6,true,48,-19127,1850,22030,46.950000000000045,14,false,100,100,0,0,0,0,0,3658,3683,3675,3642,3685,3673,0.0,0.0,0.0,Started waypoint mission,
20.7455071820967,-103.5143022769347,7000,1.0,0.8,13,4,-2.3000000000000003,-5.300000000000001,-62.900000000000006,2019-10-25 16:36:09.6230+0000,-0.10168695449829102,0.0,0.0,-0.8,true,48,-19127,1850,22030,46.950000000000045,14,false,100,100,0,0,0,0,0,3658,3683,3675,3642,3685,3673,0.0,0.0,0.0,Started waypoint mission,
20.74550726701457,-103.51430217068837,7000,1.1,0.9,13,4,-2.1,-5.2,-63.0,2019-10-25 16:36:09.7270+0000,-0.10379302501678467,0.0,0.0,-0.9,true,48,-19127,1850,22030,46.950000000000045,14,false,100,100,0,0,0,0,0,3658,3683,3675,3642,3685,3673,0.0,0.0,0.0,Started waypoint mission,
20.745507368229006,-103.5143020960438,7000,1.2000000000000002,1.1,14,4,-1.9000000000000001,-5.1000000000000005,-63.2,2019-10-25 16:36:09.7280+0000,-0.000926971435546875,0.0,0.0,-1.1,true,48,-19127,1850,22030,46.950000000000045,14,false,100,100,0,0,0,0,0,3658,3683,3675,3642,3685,3673,0.0,0.0,0.0,Started waypoint mission,
20.745507528006318,-103.51430205347722,7000,1.3,1.2,14,4,-2.0,-4.800000000000001,-63.400000000000006,2019-10-25 16:36:09.8300+0000,-0.10095798969268799,0.0,0.0,-1.2,true,48,-19248,1811,21955,46.950000000000045,14,false,100,100,0,0,0,0,0,0,0,0,0,0,0,0.0,0.0,0.0,Started waypoint mission,
20.745507677697688,-103.51430201000632,8000,1.4000000000000001,1.5,15,4,-2.3000000000000003,-4.3,-63.7,2019-10-25 16:36:10.0380+0000,-0.2079840898513794,0.0,0.0,-1.5,true,48,-19248,1811,21955,46.950000000000045,14,false,100,100,0,0,0,0,0,3652,3667,3666,3631,3666,3682,0.0,0.0,0.0,Started waypoint mission,
20.745507825222024,-103.51430193941698,8000,1.6,1.8,15,4,-2.5,-4.0,-64.0,2019-10-25 16:36:10.0410+0000,-0.0025299787521362305,0.0,0.0,-1.8,true,48,-19248,1811,21955,46.950000000000045,14,false,100,100,0,0,0,0,0,3652,3667,3666,3631,3666,3682,0.0,0.0,0.0,Started waypoint mission,
20.745508004050077,-103.514301888308,8000,1.7000000000000002,2.0,15,4,-2.5,-4.0,-64.2,2019-10-25 16:36:10.1660+0000,-0.12368297576904297,0.0,0.0,-2.0,true,48,-19248,1811,21955,46.950000000000045,14,false,100,100,0,0,0,0,0,3652,3667,3666,3631,3666,3682,0.0,0.0,0.0,Started waypoint mission,
20.745508239514788,-103.51430186683636,8000,1.9000000000000001,2.3,15,4,-2.3000000000000003,-4.1000000000000005,-64.5,2019-10-25 16:36:10.2390+0000,-0.07260000705718994,0.0,0.0,-2.3,true,48,-19248,1811,21955,46.950000000000045,14,false,100,100,0,0,0,0,0,3652,3667,3666,3631,3666,3682,0.0,0.0,0.0,Started waypoint mission,
20.745508492158674,-103.51430180769323,8000,2.2,2.5,14,4,-1.7000000000000002,-4.5,-64.60000000000001,2019-10-25 16:36:10.3490+0000,-0.10976803302764893,0.0,0.0,-2.5,true,48,-19248,1811,21955,46.950000000000045,14,false,100,100,0,0,0,0,0,0,0,0,0,0,0,0.0,0.0,0.0,Started waypoint mission,
20.74550874108315,-103.51430164442613,8000,2.4000000000000004,2.7,14,4,-1.3,-5.0,-64.60000000000001,2019-10-25 16:36:10.4490+0000,-0.09962594509124756,0.0,0.0,-2.7,true,48,-19248,1811,21955,46.950000000000045,14,false,100,100,0,0,0,0,0,3652,3667,3666,3631,3666,3682,0.0,0.0,0.0,Started waypoint mission,
20.745508998535698,-103.51430147214252,8000,2.7,3.0,15,4,-0.7000000000000001,-5.9,-64.3,2019-10-25 16:36:10.5690+0000,-0.11952698230743408,0.0,0.0,-3.0,true,48,-19248,1811,21955,46.950000000000045,14,false,100,100,0,0,0,0,0,3652,3667,3666,3631,3666,3682,0.0,0.0,0.0,Started waypoint mission,
20.745509262038034,-103.51430129409592,8000,3.0,3.1,15,4,0.2,-7.300000000000001,-63.6,2019-10-25 16:36:10.6680+0000,-0.09797704219818115,0.0,0.0,-3.1,true,48,-19248,1811,21955,46.950000000000045,14,false,100,100,0,0,0,0,0,3652,3667,3666,3631,3666,3682,0.0,0.0,0.0,Started waypoint mission,
20.74550948793762,-103.51430109984327,8000,3.3000000000000003,3.2,15,4,0.1,-7.9,-62.800000000000004,2019-10-25 16:36:10.7580+0000,-0.08896803855895996,0.0,0.0,-3.2,true,48,-19248,1811,21955,46.950000000000045,14,false,100,100,0,0,0,0,0,3652,3667,3666,3631,3666,3682,0.0,0.0,0.0,Started waypoint mission,
20.745509679860724,-103.51430089729067,8000,3.7,3.3,15,4,-0.6000000000000001,-7.7,-62.0,2019-10-25 16:36:10.8650+0000,-0.1072620153427124,0.0,0.0,-3.3,true,47,-23248,1811,21630,46.950000000000045,14,false,100,99,0,0,0,0,0,3652,3667,3666,3631,3666,3682,0.0,0.0,0.0,Started waypoint mission,
20.745509784017074,-103.51430066376376,8000,4.0,3.3015149,15,4,-1.7000000000000002,-7.300000000000001,-61.300000000000004,2019-10-25 16:36:10.9880+0000,-0.12231194972991943,-0.1,0.0,-3.3,true,47,-23248,1811,21630,46.950000000000045,14,false,100,99,0,0,0,0,0,3652,3667,3666,3631,3666,3682,0.0,0.0,0.0,Started waypoint mission,
20.74550976222359,-103.51430039412912,9000,4.3,3.4014704,15,4,-2.5,-7.0,-60.900000000000006,2019-10-25 16:36:11.0980+0000,-0.10867393016815186,-0.1,0.0,-3.4,true,47,-23248,1811,21630,46.950000000000045,14,false,100,99,0,0,0,0,0,3652,3667,3666,3631,3666,3682,0.0,0.0,0.0,Started waypoint mission,
20.745509737925975,-103.51430017919195,9000,4.6000000000000005,3.5014284,15,4,-3.0,-6.4,-60.800000000000004,2019-10-25 16:36:11.1920+0000,-0.0931628942489624,-0.1,0.0,-3.5,true,47,-23248,1811,21630,46.950000000000045,14,false,100,99,0,0,0,0,0,3652,3667,3666,3631,3666,3682,0.0,0.0,0.0,Started waypoint mission,
20.74550975767377,-103.514300065368,9000,5.0,3.6013885,15,4,-3.3000000000000003,-5.9,-60.800000000000004,2019-10-25 16:36:11.2870+0000,-0.09509193897247314,-0.1,0.0,-3.6,true,47,-23248,1811,21630,46.950000000000045,14,false,100,99,0,0,0,0,0,3652,3667,3666,3631,3666,3682,0.0,0.0,0.0,Started waypoint mission,
20.745509763581953,-103.51429998971254,9000,5.4,3.6013885,15,4,-3.2,-5.4,-60.800000000000004,2019-10-25 16:36:11.4010+0000,-0.11342298984527588,-0.1,0.0,-3.6,true,47,-23248,1811,21630,46.950000000000045,14,false,100,99,0,0,0,0,0,3599,3615,3596,3577,3605,3595,0.0,0.0,0.0,Started waypoint mission,
20.745509744246274,-103.51429996614654,9000,5.800000000000001,3.6013885,15,4,-3.1,-5.4,-60.900000000000006,2019-10-25 16:36:11.5000+0000,-0.09789204597473145,-0.1,0.0,-3.6,true,47,-23248,1811,21630,46.950000000000045,14,false,100,99,0,0,0,0,0,3599,3615,3596,3577,3605,3595,0.0,0.0,0.0,Started waypoint mission,
20.745509729184164,-103.51429996813518,9000,6.1000000000000005,3.5014284,15,4,-2.8000000000000003,-5.5,-61.1,2019-10-25 16:36:11.6000+0000,-0.09929299354553223,-0.1,0.0,-3.5,true,47,-23248,1811,21630,46.950000000000045,14,false,100,99,0,0,0,0,0,3599,3615,3596,3577,3605,3595,0.0,0.0,0.0,Started waypoint mission,
20.745509662115257,-103.51430002894159,9000,6.800000000000001,3.5014284,15,4,-2.3000000000000003,-6.1000000000000005,-61.6,2019-10-25 16:36:11.8160+0000,-0.2155979871749878,-0.1,0.0,-3.5,true,47,-23248,1811,21630,46.950000000000045,14,false,100,99,0,0,0,0,0,3599,3615,3596,3577,3605,3595,0.0,0.0,0.0,Started waypoint mission,
20.745509559206976,-103.51430004737905,9000,7.2,3.4014704,15,4,-1.9000000000000001,-5.9,-61.900000000000006,2019-10-25 16:36:11.9300+0000,-0.11283504962921143,-0.1,0.0,-3.4,true,47,-23248,1811,21630,46.950000000000045,14,false,100,97,0,0,0,0,0,3599,3615,3596,3577,3605,3595,0.0,0.0,0.0,Started waypoint mission,
20.74550943897324,-103.51430009374111,9000,7.5,3.4014704,15,4,-2.0,-5.9,-62.0,2019-10-25 16:36:12.0080+0000,-0.07801198959350586,-0.1,0.0,-3.4,true,47,-23248,1811,21630,46.950000000000045,14,false,100,97,0,0,0,0,0,3599,3615,3596,3577,3605,3595,0.0,0.0,0.0,Started waypoint mission,
20.745509295165,-103.5143002027226,10000,7.800000000000001,3.3030288,15,4,-2.6,-5.4,-62.0,2019-10-25 16:36:12.1080+0000,-0.09882402420043945,-0.1,-0.1,-3.3,true,47,-23248,1811,21630,46.950000000000045,14,false,100,97,0,0,0,0,0,3599,3615,3596,3577,3605,3595,0.0,0.0,0.0,Started waypoint mission,
20.745509120518253,-103.51430032137549,10000,8.200000000000001,3.2031236,15,4,-3.0,-4.800000000000001,-62.1,2019-10-25 16:36:12.2340+0000,-0.1247481107711792,-0.1,-0.1,-3.2,true,47,-23248,1811,21630,46.950000000000045,14,false,100,97,0,0,0,0,0,3599,3615,3596,3577,3605,3595,0.0,0.0,0.0,Started waypoint mission,
20.74550890057621,-103.51430045113086,10000,8.5,3.207803,15,4,-3.0,-4.5,-62.300000000000004,2019-10-25 16:36:12.2350+0000,-0.0009769201278686523,-0.2,-0.1,-3.2,true,47,-23248,1811,21630,46.950000000000045,14,false,100,97,0,0,0,0,0,3599,3615,3596,3577,3605,3595,0.0,0.0,0.0,Started waypoint mission,
20.745508682483912,-103.51430063437921,10000,8.8,3.207803,15,4,-3.1,-4.1000000000000005,-62.400000000000006,2019-10-25 16:36:12.4480+0000,-0.21208202838897705,-0.2,-0.1,-3.2,true,47,-29632,1811,21381,46.950000000000045,14,false,100,98,0,0,0,0,0,3556,3588,3581,3549,3583,3590,0.0,0.0,0.0,Started waypoint mission,
20.745508477731523,-103.51430091687233,10000,9.1,3.3030288,15,4,-2.8000000000000003,-3.4000000000000004,-62.5,2019-10-25 16:36:12.4500+0000,-0.0013350248336791992,-0.1,-0.1,-3.3,true,47,-29632,1811,21381,46.950000000000045,14,false,100,98,0,0,0,0,0,3556,3588,3581,3549,3583,3590,0.0,0.0,0.0,Started waypoint mission,
20.745508286389164,-103.51430121768041,10000,9.5,3.407345,15,4,-2.0,-3.0,-62.6,2019-10-25 16:36:12.5380+0000,-0.08749604225158691,-0.1,-0.2,-3.4,true,47,-29632,1811,21381,46.950000000000045,14,false,100,98,0,0,0,0,0,3556,3588,3581,3549,3583,3590,0.0,0.0,0.0,Started waypoint mission,
20.745508109280536,-103.5143015074752,10000,9.9,3.3075671,15,4,-1.3,-2.9000000000000004,-62.5,2019-10-25 16:36:12.6500+0000,-0.11096405982971191,-0.1,-0.2,-3.3,true,47,-29632,1811,21381,46.950000000000045,14,false,100,98,0,0,0,0,0,3556,3588,3581,3549,3583,3590,0.0,0.0,0.0,Started waypoint mission,
20.745507954826145,-103.51430179160532,10000,10.200000000000001,3.2031236,15,4,-1.0,-2.8000000000000003,-62.5,2019-10-25 16:36:12.7380+0000,-0.08804893493652344,-0.1,-0.1,-3.2,true,47,-29632,1811,21381,46.950000000000045,14,false,100,98,0,0,0,0,0,3556,3588,3581,3549,3583,3590,0.0,0.0,0.0,Started waypoint mission,
20.74550783287412,-103.51430207059289,10000,10.600000000000001,3.2031236,15,4,-0.8,-2.8000000000000003,-62.5,2019-10-25 16:36:12.8570+0000,-0.11776900291442871,-0.1,-0.1,-3.2,true,47,-29632,1811,21381,46.950000000000045,14,false,100,98,0,0,0,0,0,3556,3588,3581,3549,3583,3590,0.0,0.0,0.0,Started waypoint mission,
20.745507703258784,-103.51430233217678,10000,10.9,3.103224,15,4,-0.6000000000000001,-2.8000000000000003,-62.400000000000006,2019-10-25 16:36:12.9760+0000,-0.11902201175689697,-0.1,-0.1,-3.1,true,47,-29632,1811,21381,46.950000000000045,14,false,100,98,0,0,0,0,0,3556,3588,3581,3549,3583,3590,0.0,0.0,0.0,Started waypoint mission,
20.745507547899585,-103.5143025700513,11000,11.200000000000001,3.0033317,15,4,-0.4,-2.8000000000000003,-62.300000000000004,2019-10-25 16:36:13.1040+0000,-0.1275569200515747,-0.1,-0.1,-3.0,true,47,-29632,1811,21381,46.950000000000045,14,false,100,98,0,0,0,0,0,3556,3588,3581,3549,3583,3590,0.0,0.0,0.0,Started waypoint mission,
20.74550738913243,-103.51430279009408,11000,11.5,3.0033317,15,4,-0.4,-2.7,-62.300000000000004,2019-10-25 16:36:13.1910+0000,-0.08586502075195312,-0.1,-0.1,-3.0,true,47,-29632,1811,21381,46.950000000000045,14,false,100,98,0,0,0,0,0,3556,3588,3581,3549,3583,3590,0.0,0.0,0.0,Started waypoint mission,
20.74550722237413,-103.51430299314082,11000,11.9,3.103224,15,4,-0.5,-2.7,-62.300000000000004,2019-10-25 16:36:13.2840+0000,-0.09171402454376221,-0.1,-0.1,-3.1,true,47,-29632,1811,21381,46.950000000000045,14,false,100,98,0,0,0,0,0,3556,3588,3581,3549,3583,3590,0.0,0.0,0.0,Started waypoint mission,
20.745507026593142,-103.51430318184286,11000,12.200000000000001,3.0016663,15,4,-0.8,-2.5,-62.300000000000004,2019-10-25 16:36:13.4040+0000,-0.11985397338867188,-0.1,0.0,-3.0,true,47,-22696,1811,21611,46.950000000000045,14,false,100,100,0,0,0,0,0,3591,3618,3614,3585,3618,3614,0.0,0.0,0.0,Started waypoint mission,
20.745506775970554,-103.51430335727864,11000,12.5,2.9017239,15,4,-1.0,-2.2,-62.400000000000006,2019-10-25 16:36:13.4940+0000,-0.08868789672851562,-0.1,0.0,-2.9,true,47,-22696,1811,21611,46.950000000000045,14,false,100,100,0,0,0,0,0,3591,3618,3614,3585,3618,3614,0.0,0.0,0.0,Started waypoint mission,
20.745506548869567,-103.51430352119984,11000,12.8,3.0016663,15,4,-1.1,-2.0,-62.400000000000006,2019-10-25 16:36:13.5990+0000,-0.10438990592956543,-0.1,0.0,-3.0,true,47,-22696,1811,21611,46.950000000000045,14,false,100,100,0,0,0,0,0,3591,3618,3614,3585,3618,3614,0.0,0.0,0.0,Started waypoint mission,
20.745506375504334,-103.51430367589833,11000,13.100000000000001,3.0016663,15,4,-1.3,-1.9000000000000001,-62.400000000000006,2019-10-25 16:36:13.6900+0000,-0.0903630256652832,-0.1,0.0,-3.0,true,47,-22696,1811,21611,46.950000000000045,14,false,100,100,0,0,0,0,0,3591,3618,3614,3585,3618,3614,0.0,0.0,0.0,Started waypoint mission,
20.74550621317715,-103.51430382346685,11000,13.4,3.0,15,4,-1.3,-1.9000000000000001,-62.400000000000006,2019-10-25 16:36:13.7900+0000,-0.1001739501953125,0.0,0.0,-3.0,true,47,-22696,1811,21611,46.950000000000045,14,false,100,100,0,0,0,0,0,3591,3618,3614,3585,3618,3614,0.0,0.0,0.0,Started waypoint mission,
20.74550605660805,-103.51430396787224,11000,13.8,3.0,15,4,-1.3,-1.9000000000000001,-62.5,2019-10-25 16:36:13.9000+0000,-0.10900604724884033,0.0,0.0,-3.0,true,47,-22696,1811,21611,46.950000000000045,14,false,100,100,0,0,0,0,0,3591,3618,3614,3585,3618,3614,0.0,0.0,0.0,Started waypoint mission,
20.74550591926772,-103.51430408907316,11000,14.100000000000001,3.0,15,4,-1.2000000000000002,-1.9000000000000001,-62.5,2019-10-25 16:36:13.9990+0000,-0.09807407855987549,0.0,0.0,-3.0,true,47,-22696,1811,21611,46.950000000000045,14,false,100,100,0,0,0,0,0,3591,3618,3614,3585,3618,3614,0.0,0.0,0.0,Started waypoint mission,
20.74550580705561,-103.51430416960653,12000,14.4,2.9,15,4,-1.2000000000000002,-1.7000000000000002,-62.5,2019-10-25 16:36:14.1330+0000,-0.13342607021331787,0.0,0.0,-2.9,true,47,-22696,1811,21611,46.950000000000045,14,false,100,100,0,0,0,0,0,3591,3618,3614,3585,3618,3614,0.0,0.0,0.0,Started waypoint mission,
20.74550571243586,-103.51430422533733,12000,14.700000000000001,2.9,15,4,-1.2000000000000002,-1.8,-62.5,2019-10-25 16:36:14.2310+0000,-0.09728598594665527,0.0,0.0,-2.9,true,47,-22696,1811,21611,46.950000000000045,14,false,100,100,0,0,0,0,0,3591,3618,3614,3585,3618,3614,0.0,0.0,0.0,Started waypoint mission,
20.74550563213152,-103.51430424461473,12000,15.0,3.0,15,4,-1.3,-2.2,-62.400000000000006,2019-10-25 16:36:14.3310+0000,-0.10020697116851807,0.0,0.0,-3.0,true,47,-22696,1811,21611,46.950000000000045,14,false,100,100,0,0,0,0,0,3591,3618,3614,3585,3618,3614,0.0,0.0,0.0,Started waypoint mission,
20.745505566706317,-103.51430425577998,12000,15.3,3.0,15,4,-1.3,-2.6,-62.300000000000004,2019-10-25 16:36:14.4260+0000,-0.0938340425491333,0.0,0.0,-3.0,true,47,-21700,1811,21671,47.05000000000001,14,false,100,100,0,0,0,0,0,3598,3624,3607,3577,3617,3626,0.0,0.0,0.0,Started waypoint mission,
20.74550551042119,-103.51430426946956,12000,15.600000000000001,3.0,15,4,-1.4000000000000001,-2.8000000000000003,-62.2,2019-10-25 16:36:14.4280+0000,-0.00115203857421875,0.0,0.0,-3.0,true,47,-21700,1811,21671,47.05000000000001,14,false,100,100,0,0,0,0,0,3598,3624,3607,3577,3617,3626,0.0,0.0,0.0,Started waypoint mission,
20.74550545573474,-103.51430425600053,12000,15.9,3.0,15,4,-1.5,-2.9000000000000004,-62.1,2019-10-25 16:36:14.5310+0000,-0.1033940315246582,0.0,0.0,-3.0,true,47,-21700,1811,21671,47.05000000000001,14,false,100,100,0,0,0,0,0,3598,3624,3607,3577,3617,3626,0.0,0.0,0.0,Started waypoint mission,
20.745505397710037,-103.5143041919876,12000,16.2,2.9,15,4,-1.8,-3.1,-62.0,2019-10-25 16:36:14.6300+0000,-0.09758305549621582,0.0,0.0,-2.9,true,47,-21700,1811,21671,47.05000000000001,14,false,100,100,0,0,0,0,0,3598,3624,3607,3577,3617,3626,0.0,0.0,0.0,Started waypoint mission,
20.745505353456405,-103.51430412662724,12000,16.6,2.9,15,5,-2.1,-3.2,-62.0,2019-10-25 16:36:14.7540+0000,-0.12417197227478027,0.0,0.0,-2.9,true,47,-21700,1811,21671,47.05000000000001,14,false,100,100,0,0,0,0,0,3598,3624,3607,3577,3617,3626,0.0,0.0,0.0,Started waypoint mission,
20.745505344219655,-103.5143040767368,12000,16.900000000000002,2.9,15,5,-2.3000000000000003,-3.2,-62.0,2019-10-25 16:36:14.8390+0000,-0.08378493785858154,0.0,0.0,-2.9,true,47,-21700,1811,21671,47.05000000000001,14,false,100,100,0,0,0,0,0,0,0,0,0,0,0,0.0,0.0,0.0,Started waypoint mission,
20.745505331515112,-103.5143040087628,12000,17.2,3.0,15,5,-2.3000000000000003,-3.2,-62.0,2019-10-25 16:36:14.9770+0000,-0.1372699737548828,0.0,0.0,-3.0,true,47,-21700,1811,21671,47.05000000000001,14,false,100,100,0,0,0,0,0,3598,3624,3607,3577,3617,3626,0.0,0.0,0.0,Started waypoint mission,
20.745505303364833,-103.51430390142069,13000,17.5,2.9,15,5,-2.3000000000000003,-3.1,-62.1,2019-10-25 16:36:15.0750+0000,-0.09797799587249756,0.0,0.0,-2.9,true,47,-21700,1811,21671,47.05000000000001,14,false,100,100,0,0,0,0,0,3598,3624,3607,3577,3617,3626,0.0,0.0,0.0,Started waypoint mission,
20.74550529534763,-103.51430380507688,13000,17.8,2.9,15,5,-2.4000000000000004,-3.2,-62.2,2019-10-25 16:36:15.1680+0000,-0.09000599384307861,0.0,0.0,-2.9,true,47,-21700,1811,21671,47.05000000000001,14,false,100,100,0,0,0,0,0,3598,3624,3607,3577,3617,3626,0.0,0.0,0.0,Started waypoint mission,
20.74550531876723,-103.5143037353078,13000,18.1,2.8,15,5,-2.5,-3.3000000000000003,-62.300000000000004,2019-10-25 16:36:15.2650+0000,-0.09670603275299072,0.0,0.0,-2.8,true,47,-21700,1811,21671,47.05000000000001,14,false,100,100,0,0,0,0,0,3598,3624,3607,3577,3617,3626,0.0,0.0,0.0,Started waypoint mission,
20.74550533672759,-103.51430366217406,13000,18.400000000000002,2.8,15,5,-2.5,-3.2,-62.400000000000006,2019-10-25 16:36:15.3990+0000,-0.1331690549850464,0.0,0.0,-2.8,true,47,-21444,1811,21654,47.05000000000001,14,false,100,100,0,0,0,0,0,3594,3615,3607,3571,3619,3617,0.0,0.0,0.0,Started waypoint mission,
20.745505344593585,-103.51430357433055,13000,18.7,2.9,15,5,-2.4000000000000004,-3.3000000000000003,-62.400000000000006,2019-10-25 16:36:15.4890+0000,-0.08883202075958252,0.0,0.0,-2.9,true,47,-21444,1811,21654,47.05000000000001,14,false,100,100,0,0,0,0,0,3594,3615,3607,3571,3619,3617,0.0,0.0,0.0,Started waypoint mission,
20.745505348938256,-103.51430347651105,13000,19.0,2.8,15,5,-2.2,-3.4000000000000004,-62.5,2019-10-25 16:36:15.6030+0000,-0.11312901973724365,0.0,0.0,-2.8,true,47,-21444,1811,21654,47.05000000000001,14,false,100,100,0,0,0,0,0,3594,3615,3607,3571,3619,3617,0.0,0.0,0.0,Started waypoint mission,
20.745505337719703,-103.51430335388558,13000,19.3,2.8,15,5,-2.3000000000000003,-3.4000000000000004,-62.5,2019-10-25 16:36:15.6970+0000,-0.09391307830810547,0.0,0.0,-2.8,true,47,-21444,1811,21654,47.05000000000001,14,false,100,100,0,0,0,0,0,3594,3615,3607,3571,3619,3617,0.0,0.0,0.0,Started waypoint mission,
20.745505344509613,-103.51430324950391,13000,19.6,2.7,15,5,-2.3000000000000003,-3.3000000000000003,-62.5,2019-10-25 16:36:15.7960+0000,-0.09786498546600342,0.0,0.0,-2.7,true,47,-21444,1811,21654,47.05000000000001,14,false,100,100,0,0,0,0,0,3594,3615,3607,3571,3619,3617,0.0,0.0,0.0,Started waypoint mission,
20.74550540325506,-103.51430318391806,13000,19.900000000000002,2.8,15,5,-2.4000000000000004,-3.4000000000000004,-62.5,2019-10-25 16:36:15.9020+0000,-0.10546302795410156,0.0,0.0,-2.8,true,47,-21444,1811,21654,47.05000000000001,14,false,100,100,0,0,0,0,0,3594,3615,3607,3571,3619,3617,0.0,0.0,0.0,Started waypoint mission,
20.745505466678463,-103.51430312507748,14000,20.200000000000003,2.8,15,5,-2.2,-3.4000000000000004,-62.400000000000006,2019-10-25 16:36:16.0180+0000,-0.11488103866577148,0.0,0.0,-2.8,true,47,-21444,1811,21654,47.05000000000001,14,false,100,100,0,0,0,0,0,3594,3615,3607,3571,3619,3617,0.0,0.0,0.0,Started waypoint mission,
20.74550553527939,-103.51430306959809,14000,20.5,2.9,15,5,-2.1,-3.4000000000000004,-62.300000000000004,2019-10-25 16:36:16.1190+0000,-0.10079503059387207,0.0,0.0,-2.9,true,47,-21444,1811,21654,47.05000000000001,14,false,100,100,0,0,0,0,0,3594,3615,3607,3571,3619,3617,0.0,0.0,0.0,Started waypoint mission,
20.745505589174222,-103.51430300573396,14000,20.700000000000003,2.8,15,5,-2.0,-3.4000000000000004,-62.2,2019-10-25 16:36:16.2110+0000,-0.0907050371170044,0.0,0.0,-2.8,true,47,-21444,1811,21654,47.05000000000001,14,false,100,100,0,0,0,0,0,3594,3615,3607,3571,3619,3617,0.0,0.0,0.0,Started waypoint mission,
20.745505606332824,-103.51430291356536,14000,21.0,2.8,15,5,-2.1,-3.5,-62.2,2019-10-25 16:36:16.3400+0000,-0.1282179355621338,0.0,0.0,-2.8,true,47,-21444,1811,21654,47.05000000000001,14,false,100,100,0,0,0,0,0,3594,3615,3607,3571,3619,3617,0.0,0.0,0.0,Started waypoint mission,
20.74550563462118,-103.51430280478083,14000,21.3,2.8,15,5,-2.2,-3.6,-62.1,2019-10-25 16:36:16.4350+0000,-0.09464502334594727,0.0,0.0,-2.8,true,47,-20582,1811,21658,47.150000000000034,14,false,100,100,0,0,0,0,0,3594,3615,3607,3571,3619,3617,0.0,0.0,0.0,Started waypoint mission,
20.74550569244629,-103.51430267146512,14000,21.6,2.8,15,5,-2.4000000000000004,-3.7,-62.1,2019-10-25 16:36:16.4360+0000,-0.0006279945373535156,0.0,0.0,-2.8,true,47,-20582,1811,21658,47.150000000000034,14,false,100,100,0,0,0,0,0,3594,3615,3607,3571,3619,3617,0.0,0.0,0.0,Started waypoint mission,
20.745505743947465,-103.51430254965487,14000,21.900000000000002,3.0,15,5,-2.4000000000000004,-3.8000000000000003,-62.2,2019-10-25 16:36:16.6480+0000,-0.21145594120025635,0.0,0.0,-3.0,true,47,-20582,1811,21658,47.150000000000034,14,false,100,100,0,0,0,0,0,3594,3615,3607,3571,3619,3617,0.0,0.0,0.0,Started waypoint mission,
20.745505784914194,-103.51430244781722,14000,22.200000000000003,2.9,15,5,-2.6,-3.8000000000000003,-62.2,2019-10-25 16:36:16.6500+0000,-0.0011080503463745117,0.0,0.0,-2.9,true,47,-20582,1811,21658,47.150000000000034,14,false,100,100,0,0,0,0,0,3594,3615,3607,3571,3619,3617,0.0,0.0,0.0,Started waypoint mission,
20.745505839238046,-103.51430235182043,14000,22.5,2.9,15,5,-2.8000000000000003,-3.8000000000000003,-62.300000000000004,2019-10-25 16:36:16.7350+0000,-0.08457696437835693,0.0,0.0,-2.9,true,47,-20582,1811,21658,47.150000000000034,14,false,100,100,0,0,0,0,0,3594,3615,3607,3571,3619,3617,0.0,0.0,0.0,Started waypoint mission,
20.745505929729223,-103.51430227101534,14000,22.8,2.8,15,5,-3.0,-3.7,-62.400000000000006,2019-10-25 16:36:16.8390+0000,-0.1033480167388916,0.0,0.0,-2.8,true,47,-20582,1811,21658,47.150000000000034,14,false,100,98,0,0,0,0,0,3594,3615,3607,3571,3619,3617,0.0,0.0,0.0,Started waypoint mission,
20.745506020323496,-103.5143022006762,14000,23.1,2.8,15,5,-3.0,-3.8000000000000003,-62.5,2019-10-25 16:36:16.9380+0000,-0.09857499599456787,0.0,0.0,-2.8,true,47,-20582,1811,21658,47.150000000000034,14,false,100,98,0,0,0,0,0,3594,3615,3607,3571,3619,3617,0.0,0.0,0.0,Started waypoint mission,
20.745506103012442,-103.51430214620437,15000,23.400000000000002,2.9,15,5,-2.8000000000000003,-3.8000000000000003,-62.6,2019-10-25 16:36:17.0660+0000,-0.12800097465515137,0.0,0.0,-2.9,true,47,-20582,1811,21658,47.150000000000034,14,false,100,98,0,0,0,0,0,3594,3615,3607,3571,3619,3617,0.0,0.0,0.0,Started waypoint mission,
20.74550619671631,-103.51430210665858,15000,23.700000000000003,2.8,15,5,-2.6,-3.9000000000000004,-62.7,2019-10-25 16:36:17.1710+0000,-0.10391199588775635,0.0,0.0,-2.8,true,47,-20582,1811,21658,47.150000000000034,14,false,100,98,0,0,0,0,0,3594,3615,3607,3571,3619,3617,0.0,0.0,0.0,Started waypoint mission,
20.745506312151914,-103.51430208118269,15000,24.0,2.8,15,5,-2.6,-4.0,-62.7,2019-10-25 16:36:17.2990+0000,-0.12700200080871582,0.0,0.0,-2.8,true,47,-20582,1811,21658,47.150000000000034,14,false,100,98,0,0,0,0,0,3594,3615,3607,3571,3619,3617,0.0,0.0,0.0,Started waypoint mission,
20.745506417632296,-103.51430206934168,15000,24.3,2.9,15,5,-2.4000000000000004,-4.1000000000000005,-62.7,2019-10-25 16:36:17.4150+0000,-0.11541092395782471,0.0,0.0,-2.9,true,46,-20582,1773,21658,47.25,14,false,100,96,0,0,0,0,0,3604,3616,3604,3582,3615,3617,0.0,0.0,0.0,Started waypoint mission,
20.74550649853047,-103.51430207111709,15000,24.6,2.8,15,5,-2.2,-4.1000000000000005,-62.6,2019-10-25 16:36:17.4740+0000,-0.05814695358276367,0.0,0.0,-2.8,true,46,-20582,1773,21658,47.25,14,false,100,96,0,0,0,0,0,3604,3616,3604,3582,3615,3617,0.0,0.0,0.0,Started waypoint mission,
20.74550658683426,-103.51430208310886,15000,24.900000000000002,2.8,15,5,-2.0,-4.0,-62.5,2019-10-25 16:36:17.5800+0000,-0.10515999794006348,0.0,0.0,-2.8,true,46,-20582,1773,21658,47.25,14,false,100,96,0,0,0,0,0,3604,3616,3604,3582,3615,3617,0.0,0.0,0.0,Started waypoint mission,
20.745506697940716,-103.51430210493236,15000,25.1,2.8,15,5,-1.9000000000000001,-3.9000000000000004,-62.400000000000006,2019-10-25 16:36:17.6790+0000,-0.09900498390197754,0.0,0.0,-2.8,true,46,-20582,1773,21658,47.25,14,false,100,96,0,0,0,0,0,3604,3616,3604,3582,3615,3617,0.0,0.0,0.0,Started waypoint mission,
20.745506802730212,-103.51430213127564,15000,25.400000000000002,2.9,15,5,-1.8,-4.0,-62.400000000000006,2019-10-25 16:36:17.8040+0000,-0.12345099449157715,0.0,0.0,-2.9,true,46,-20582,1773,21658,47.25,14,false,100,96,0,0,0,0,0,3604,3616,3604,3582,3615,3617,0.0,0.0,0.0,Started waypoint mission,
20.745506983787394,-103.51430218011772,15000,26.0,2.8,15,5,-1.8,-4.1000000000000005,-62.400000000000006,2019-10-25 16:36:18.0040+0000,-0.1995859146118164,0.0,0.0,-2.8,true,46,-21465,1773,21613,47.25,14,false,100,96,0,0,0,0,0,3593,3604,3602,3573,3604,3616,0.0,0.0,0.0,Started waypoint mission,
20.745507076609336,-103.51430220188621,16000,26.3,2.8,15,5,-1.9000000000000001,-4.2,-62.400000000000006,2019-10-25 16:36:18.1160+0000,-0.11142206192016602,0.0,0.0,-2.8,true,46,-21465,1773,21613,47.25,14,false,100,96,0,0,0,0,0,3593,3604,3602,3573,3604,3616,0.0,0.0,0.0,Started waypoint mission,
20.745507169161762,-103.51430223459464,16000,26.6,2.9,15,5,-1.8,-4.1000000000000005,-62.400000000000006,2019-10-25 16:36:18.1970+0000,-0.0807420015335083,0.0,0.0,-2.9,true,46,-21465,1773,21613,47.25,14,false,100,96,0,0,0,0,0,3593,3604,3602,3573,3604,3616,0.0,0.0,0.0,Started waypoint mission,
20.745507354733302,-103.51430235100176,16000,27.1,2.9,15,5,-1.5,-4.1000000000000005,-62.5,2019-10-25 16:36:18.4190+0000,-0.22118008136749268,0.0,0.0,-2.9,true,46,-21465,1773,21613,47.25,14,false,100,97,0,0,0,0,0,3593,3604,3602,3573,3604,3616,0.0,0.0,0.0,Started waypoint mission,
20.745507436562676,-103.51430244095353,16000,27.400000000000002,3.0,15,5,-1.3,-4.2,-62.5,2019-10-25 16:36:18.5190+0000,-0.09883499145507812,0.0,0.0,-3.0,true,46,-21465,1773,21613,47.25,14,false,100,97,0,0,0,0,0,3593,3604,3602,3573,3604,3616,0.0,0.0,0.0,Started waypoint mission,
20.74550750062418,-103.51430253301864,16000,27.8,3.0,15,5,-1.2000000000000002,-4.1000000000000005,-62.400000000000006,2019-10-25 16:36:18.6170+0000,-0.09815001487731934,0.0,0.0,-3.0,true,46,-21465,1773,21613,47.25,14,false,100,97,0,0,0,0,0,3593,3604,3602,3573,3604,3616,0.0,0.0,0.0,Started waypoint mission,
20.745507539147958,-103.5143026186155,16000,28.1,3.0,15,5,-1.2000000000000002,-4.0,-62.300000000000004,2019-10-25 16:36:18.6210+0000,-0.0027899742126464844,0.0,0.0,-3.0,true,46,-21465,1773,21613,47.25,14,false,100,97,0,0,0,0,0,3593,3604,3602,3573,3604,3616,0.0,0.0,0.0,Started waypoint mission,
20.74550757579626,-103.51430270275608,16000,28.400000000000002,2.9,15,5,-1.1,-4.0,-62.300000000000004,2019-10-25 16:36:18.7470+0000,-0.12569892406463623,0.0,0.0,-2.9,true,46,-21465,1773,21613,47.25,14,false,100,97,0,0,0,0,0,3593,3604,3602,3573,3604,3616,0.0,0.0,0.0,Started waypoint mission,
20.745507612561653,-103.51430279162474,16000,28.6,2.9,15,5,-1.1,-3.9000000000000004,-62.2,2019-10-25 16:36:18.9290+0000,-0.18136489391326904,0.0,0.0,-2.9,true,46,-21986,1773,21548,47.25,14,false,100,99,0,0,0,0,0,3570,3604,3595,3564,3599,3610,0.0,0.0,0.0,Started waypoint mission,
20.74550764215695,-103.5143028712707,16000,28.900000000000002,2.8,15,5,-1.1,-3.8000000000000003,-62.2,2019-10-25 16:36:18.9310+0000,-0.0007770061492919922,0.0,0.0,-2.8,true,46,-21986,1773,21548,47.25,14,false,100,99,0,0,0,0,0,3570,3604,3595,3564,3599,3610,0.0,0.0,0.0,Started waypoint mission,
20.745507671157128,-103.51430293183475,17000,29.200000000000003,2.8,15,5,-1.1,-3.7,-62.2,2019-10-25 16:36:19.0570+0000,-0.12606000900268555,0.0,0.0,-2.8,true,46,-21986,1773,21548,47.25,14,false,100,99,0,0,0,0,0,3570,3604,3595,3564,3599,3610,0.0,0.0,0.0,Started waypoint mission,
20.74550769194077,-103.51430298883174,17000,29.5,3.0,15,5,-1.1,-3.6,-62.300000000000004,2019-10-25 16:36:19.1520+0000,-0.09480106830596924,0.0,0.0,-3.0,true,46,-21986,1773,21548,47.25,14,false,100,99,0,0,0,0,0,3570,3604,3595,3564,3599,3610,0.0,0.0,0.0,Started waypoint mission,
20.74550769797566,-103.51430304414579,17000,29.8,3.0,15,5,-1.2000000000000002,-3.7,-62.400000000000006,2019-10-25 16:36:19.2490+0000,-0.09589004516601562,0.0,0.0,-3.0,true,46,-21986,1773,21548,47.25,14,false,100,99,0,0,0,0,0,3570,3604,3595,3564,3599,3610,0.0,0.0,0.0,Started waypoint mission,
20.745507701315198,-103.51430310117709,17000,30.1,3.0,15,5,-1.2000000000000002,-3.8000000000000003,-62.400000000000006,2019-10-25 16:36:19.3490+0000,-0.09972202777862549,0.0,0.0,-3.0,true,46,-21986,1773,21548,47.25,14,false,100,100,0,0,0,0,0,3570,3604,3595,3564,3599,3610,0.0,0.0,0.0,Started waypoint mission,
20.745507698012112,-103.5143031643194,17000,30.400000000000002,3.0,15,5,-1.2000000000000002,-3.9000000000000004,-62.400000000000006,2019-10-25 16:36:19.4780+0000,-0.12864196300506592,0.0,0.0,-3.0,true,46,-21986,1773,21548,47.25,14,false,100,100,0,0,0,0,0,3570,3604,3595,3564,3599,3610,0.0,0.0,0.0,Started waypoint mission,
20.745507686850004,-103.5143032234938,17000,30.8,3.0,15,5,-1.1,-4.0,-62.400000000000006,2019-10-25 16:36:19.5580+0000,-0.07909500598907471,0.0,0.0,-3.0,true,46,-21986,1773,21548,47.25,14,false,100,100,0,0,0,0,0,3570,3604,3595,3564,3599,3610,0.0,0.0,0.0,Started waypoint mission,
20.745507661358022,-103.51430328109056,17000,31.1,2.9,15,5,-0.9,-4.1000000000000005,-62.5,2019-10-25 16:36:19.6580+0000,-0.0989459753036499,0.0,0.0,-2.9,true,46,-21986,1773,21548,47.25,14,false,100,100,0,0,0,0,0,3570,3604,3595,3564,3599,3610,0.0,0.0,0.0,Started waypoint mission,
20.745507627904317,-103.51430333083155,17000,31.400000000000002,2.9,15,5,-1.0,-4.1000000000000005,-62.5,2019-10-25 16:36:19.7810+0000,-0.12250101566314697,0.0,0.0,-2.9,true,46,-21986,1773,21548,47.25,14,false,100,100,0,0,0,0,0,3570,3604,3595,3564,3599,3610,0.0,0.0,0.0,Started waypoint mission,
20.7455075855004,-103.51430337239391,17000,31.6,2.8,15,5,-1.3,-4.0,-62.5,2019-10-25 16:36:19.8870+0000,-0.10529696941375732,0.0,0.0,-2.8,true,46,-22910,1773,21497,47.35000000000002,14,false,100,100,0,0,0,0,0,3577,3592,3588,3550,3598,3600,0.0,0.0,0.0,Started waypoint mission,
20.74550751965319,-103.51430342661567,17000,31.900000000000002,2.8017852,15,5,-1.5,-3.6,-62.5,2019-10-25 16:36:19.9950+0000,-0.10732805728912354,-0.1,0.0,-2.8,true,46,-22910,1773,21497,47.35000000000002,14,false,100,100,0,0,0,0,0,3577,3592,3588,3550,3598,3600,0.0,0.0,0.0,Started waypoint mission,
20.745507419228133,-103.51430350762405,18000,32.2,3.0016663,15,5,-1.6,-3.3000000000000003,-62.400000000000006,2019-10-25 16:36:20.1160+0000,-0.1206129789352417,-0.1,0.0,-3.0,true,46,-22910,1773,21497,47.35000000000002,14,false,100,100,0,0,0,0,0,3577,3592,3588,3550,3598,3600,0.0,0.0,0.0,Started waypoint mission,
20.745507321926578,-103.51430359461746,18000,32.5,3.0016663,15,5,-1.5,-3.0,-62.400000000000006,2019-10-25 16:36:20.1980+0000,-0.08105504512786865,-0.1,0.0,-3.0,true,46,-22910,1773,21497,47.35000000000002,14,false,100,100,0,0,0,0,0,3577,3592,3588,3550,3598,3600,0.0,0.0,0.0,Started waypoint mission,
20.745507238991767,-103.51430368107056,18000,32.9,3.0016663,15,5,-1.4000000000000001,-2.8000000000000003,-62.400000000000006,2019-10-25 16:36:20.2990+0000,-0.10023105144500732,-0.1,0.0,-3.0,true,46,-22910,1773,21497,47.35000000000002,14,false,100,100,0,0,0,0,0,3577,3592,3588,3550,3598,3600,0.0,0.0,0.0,Started waypoint mission,
20.745507149780526,-103.51430375403876,18000,33.2,2.9017239,15,5,-1.2000000000000002,-2.7,-62.5,2019-10-25 16:36:20.4010+0000,-0.1015709638595581,-0.1,0.0,-2.9,true,46,-22910,1773,21497,47.35000000000002,14,false,100,100,0,0,0,0,0,3577,3592,3588,3550,3598,3600,0.0,0.0,0.0,Started waypoint mission,
20.74550703431125,-103.51430380271613,18000,33.4,2.8017852,15,5,-1.3,-2.5,-62.6,2019-10-25 16:36:20.5020+0000,-0.10075199604034424,-0.1,0.0,-2.8,true,46,-22910,1773,21497,47.35000000000002,14,false,100,100,0,0,0,0,0,3577,3592,3588,3550,3598,3600,0.0,0.0,0.0,Started waypoint mission,
20.745506931587,-103.51430384081883,18000,33.7,2.9,15,5,-1.6,-2.5,-62.7,2019-10-25 16:36:20.6220+0000,-0.11924707889556885,0.0,0.0,-2.9,true,46,-22910,1773,21497,47.35000000000002,14,false,100,100,0,0,0,0,0,3577,3592,3588,3550,3598,3600,0.0,0.0,0.0,Started waypoint mission,
20.745506853775083,-103.51430387467775,18000,34.0,2.9,15,5,-1.8,-2.7,-62.7,2019-10-25 16:36:20.7260+0000,-0.10376095771789551,0.0,0.0,-2.9,true,46,-22910,1773,21497,47.35000000000002,14,false,100,100,0,0,0,0,0,3577,3592,3588,3550,3598,3600,0.0,0.0,0.0,Started waypoint mission,
20.74550669195963,-103.51430390861648,18000,34.6,3.0,15,5,-1.8,-3.0,-62.6,2019-10-25 16:36:20.9190+0000,-0.19056403636932373,0.0,0.0,-3.0,true,46,-22817,1773,21472,47.35000000000002,14,false,100,100,0,0,0,0,0,3566,3587,3580,3553,3583,3586,0.0,0.0,0.0,Started waypoint mission,
20.74550661651785,-103.5143039236684,18000,34.9,3.1,15,5,-1.7000000000000002,-3.2,-62.5,2019-10-25 16:36:20.9210+0000,-0.001024007797241211,0.0,0.0,-3.1,true,46,-22817,1773,21472,47.35000000000002,14,false,100,100,0,0,0,0,0,3566,3587,3580,3553,3583,3586,0.0,0.0,0.0,Started waypoint mission,
20.745506556383503,-103.51430395420047,19000,35.300000000000004,3.0,15,5,-1.7000000000000002,-3.2,-62.300000000000004,2019-10-25 16:36:21.0430+0000,-0.12205398082733154,0.0,0.0,-3.0,true,46,-22817,1773,21472,47.35000000000002,14,false,100,100,0,0,0,0,0,3566,3587,3580,3553,3583,3586,0.0,0.0,0.0,Started waypoint mission,
20.745506488670436,-103.51430397878283,19000,35.5,2.9,15,5,-1.7000000000000002,-3.2,-62.300000000000004,2019-10-25 16:36:21.1480+0000,-0.10413694381713867,0.0,0.0,-2.9,true,46,-22817,1773,21472,47.35000000000002,14,false,100,100,0,0,0,0,0,3566,3587,3580,3553,3583,3586,0.0,0.0,0.0,Started waypoint mission,
20.745506399623768,-103.51430399004641,19000,35.800000000000004,2.9,15,5,-1.8,-2.9000000000000004,-62.300000000000004,2019-10-25 16:36:21.2390+0000,-0.09087991714477539,0.0,0.0,-2.9,true,46,-22817,1773,21472,47.35000000000002,14,false,100,100,0,0,0,0,0,3566,3587,3580,3553,3583,3586,0.0,0.0,0.0,Started waypoint mission,
20.745506320321862,-103.51430400892416,19000,36.1,2.9,15,5,-1.9000000000000001,-2.7,-62.300000000000004,2019-10-25 16:36:21.3920+0000,-0.1514500379562378,0.0,0.0,-2.9,true,46,-22817,1773,21472,47.35000000000002,14,false,100,100,0,0,0,0,0,3566,3587,3580,3553,3583,3586,0.0,0.0,0.0,Started waypoint mission,
20.745506268073242,-103.51430404290664,19000,36.4,3.0,15,5,-1.8,-2.6,-62.400000000000006,2019-10-25 16:36:21.4680+0000,-0.07563602924346924,0.0,0.0,-3.0,true,46,-22817,1773,21472,47.35000000000002,14,false,100,100,0,0,0,0,0,3566,3587,3580,3553,3583,3586,0.0,0.0,0.0,Started waypoint mission,
20.74550621543959,-103.51430406849657,19000,36.7,3.1,15,5,-1.6,-2.6,-62.400000000000006,2019-10-25 16:36:21.5690+0000,-0.10045802593231201,0.0,0.0,-3.1,true,46,-22817,1773,21472,47.35000000000002,14,false,100,100,0,0,0,0,0,3566,3587,3580,3553,3583,3586,0.0,0.0,0.0,Started waypoint mission,
20.745506099028507,-103.5143040537395,19000,37.4,3.0,15,5,-1.6,-2.8000000000000003,-62.300000000000004,2019-10-25 16:36:21.7720+0000,-0.20210504531860352,0.0,0.0,-3.0,true,46,-22817,1773,21472,47.35000000000002,14,false,100,100,0,0,0,0,0,3566,3587,3580,3553,3583,3586,0.0,0.0,0.0,Started waypoint mission,
20.74550607691488,-103.51430403602096,19000,37.7,3.1,15,5,-1.8,-3.0,-62.300000000000004,2019-10-25 16:36:21.8690+0000,-0.09729599952697754,0.0,0.0,-3.1,true,46,-23645,1773,21422,47.450000000000045,14,false,100,99,0,0,0,0,0,3566,3587,3580,3553,3583,3586,0.0,0.0,0.0,Started waypoint mission,
20.745506056326782,-103.51430400672481,19000,38.0,2.9,15,5,-1.8,-3.1,-62.300000000000004,2019-10-25 16:36:21.9860+0000,-0.11609506607055664,0.0,0.0,-2.9,true,46,-23645,1773,21422,47.450000000000045,14,false,100,99,0,0,0,0,0,3566,3587,3580,3553,3583,3586,0.0,0.0,0.0,Started waypoint mission,
20.745506029474583,-103.51430395760268,20000,38.300000000000004,2.9,15,5,-1.9000000000000001,-3.1,-62.300000000000004,2019-10-25 16:36:22.0830+0000,-0.09633493423461914,0.0,0.0,-2.9,true,46,-23645,1773,21422,47.450000000000045,14,false,100,99,0,0,0,0,0,3566,3587,3580,3553,3583,3586,0.0,0.0,0.0,Started waypoint mission,
20.745506003235903,-103.51430390441416,20000,38.6,2.8,15,5,-2.1,-3.2,-62.300000000000004,2019-10-25 16:36:22.1790+0000,-0.09529995918273926,0.0,0.0,-2.8,true,46,-23645,1773,21422,47.450000000000045,14,false,100,99,0,0,0,0,0,3566,3587,3580,3553,3583,3586,0.0,0.0,0.0,Started waypoint mission,
20.745505966167595,-103.51430385321534,20000,38.900000000000006,2.9,15,5,-2.3000000000000003,-3.2,-62.300000000000004,2019-10-25 16:36:22.2890+0000,-0.10856306552886963,0.0,0.0,-2.9,true,46,-23645,1773,21422,47.450000000000045,14,false,100,99,0,0,0,0,0,3566,3587,3580,3553,3583,3586,0.0,0.0,0.0,Started waypoint mission,
