latitude,longitude,flight_time,altitude,speed,satellites,gps_level,pitch,roll,yaw,timestamp,last_updated,velocityX,velocityY,velocityZ,isflying,remainBatteryPercent,currentCurrent,batteryChargeRemaining,batteryVoltage,batteryTemperature,flightMode,istakingphoto,downlinkSignal,uplinkSignal,radioChannel,rc_elevator,rc_aileron,rc_throttle,rc_rudder,Battery_Cell1,Battery_Cell2,Battery_Cell3,Battery_Cell4,Battery_Cell5,Battery_Cell6,gimbalPitch,gimbalYaw,gimbalRoll,app_Tip,app_Warning,appVersion,AircraftComercialName,AircraftSerialNumber,RemoteSerialNumber,BatterySerialNumber,BatteryFullCapacity,dischargeCount,batteryLife,AircraftModel,sonar_altitude,isTakingVideo
20.745505061906016,-103.51431191909785,0,0.0,0.0,16,5,-1.4000000000000001,-3.0,-88.7,2019-10-25 16:52:00.8000+0000,-0.09967398643493652,0.0,0.0,0.0,false,56,-879,2208,23438,44.25,6,false,100,100,0,0,0,0,0,3910,3882,3911,3912,3921,3904,0.0,0.0,0.0,Started waypoint mission,,Flight1_3.1.0_(3),DJI,041DE70691,03LJ7004AS,9971173700620,3943,85,79,Explore1, ,false
20.745505060889748,-103.51431191770975,0,0.0,0.0,16,5,-1.4000000000000001,-3.0,-88.7,2019-10-25 16:52:00.9000+0000,-0.09849894046783447,0.0,0.0,0.0,false,56,-879,2208,23438,44.25,6,false,100,100,0,0,0,0,0,3910,3882,3911,3912,3921,3904,0.0,0.0,0.0,Started waypoint mission,
20.745505060155857,-103.51431191600167,0,0.0,0.0,16,5,-1.4000000000000001,-3.0,-88.7,2019-10-25 16:52:01.0080+0000,-0.10708892345428467,0.0,0.0,0.0,false,56,-879,2208,23438,44.25,6,false,100,100,0,0,0,0,0,3910,3882,3911,3912,3921,3904,0.0,0.0,0.0,Started waypoint mission,
20.745505060073686,-103.51431191387516,0,0.0,0.0,16,5,-1.4000000000000001,-3.0,-88.7,2019-10-25 16:52:01.1080+0000,-0.09992098808288574,0.0,0.0,0.0,false,56,-879,2208,23438,44.25,6,false,100,100,0,0,0,0,0,3910,3882,3911,3912,3921,3904,0.0,0.0,0.0,Started waypoint mission,
20.745505060095102,-103.51431191177325,0,0.0,0.0,16,5,-1.4000000000000001,-3.0,-88.7,2019-10-25 16:52:01.2090+0000,-0.1005479097366333,0.0,0.0,0.0,false,56,-879,2208,23438,44.25,6,false,100,100,0,0,0,0,0,3910,3882,3911,3912,3921,3904,0.0,0.0,0.0,Started waypoint mission,
20.745505060108748,-103.51431190970743,0,0.0,0.0,16,5,-1.4000000000000001,-3.0,-88.7,2019-10-25 16:52:01.3070+0000,-0.09775996208190918,0.0,0.0,0.0,false,56,-879,2208,23438,44.25,6,false,100,100,0,0,0,0,0,3910,3882,3911,3912,3921,3904,0.0,0.0,0.0,Started waypoint mission,
20.74550506000062,-103.51431190752253,0,0.0,0.0,16,5,-1.4000000000000001,-3.0,-88.7,2019-10-25 16:52:01.4190+0000,-0.1108170747756958,0.0,0.0,0.0,false,56,-874,2208,23439,44.25,6,false,100,100,0,0,0,0,0,3911,3881,3910,3912,3921,3904,0.0,0.0,0.0,Started waypoint mission,
20.745505060232134,-103.51431190521285,0,0.0,0.0,16,5,-1.4000000000000001,-3.0,-88.7,2019-10-25 16:52:01.5220+0000,-0.10186409950256348,0.0,0.0,0.0,false,56,-874,2208,23439,44.25,6,false,100,100,0,0,0,0,0,3911,3881,3910,3912,3921,3904,0.0,0.0,0.0,Started waypoint mission,
20.74550506047918,-103.5143119029501,0,0.0,0.0,16,5,-1.4000000000000001,-3.0,-88.7,2019-10-25 16:52:01.6210+0000,-0.09754204750061035,0.0,0.0,0.0,false,56,-874,2208,23439,44.25,6,false,100,100,0,0,0,0,0,3911,3881,3910,3912,3921,3904,0.0,0.0,0.0,Started waypoint mission,
20.745505060641904,-103.51431190071483,0,0.0,0.0,16,5,-1.4000000000000001,-3.0,-88.7,2019-10-25 16:52:01.7210+0000,-0.09867799282073975,0.0,0.0,0.0,false,56,-874,2208,23439,44.25,6,false,100,100,0,0,0,0,0,3911,3881,3910,3912,3921,3904,0.0,0.0,0.0,Started waypoint mission,
20.7455050604773,-103.51431189880239,0,0.0,0.0,16,5,-1.4000000000000001,-3.0,-88.7,2019-10-25 16:52:01.8210+0000,-0.09885001182556152,0.0,0.0,0.0,false,56,-874,2208,23439,44.25,6,false,100,100,0,0,0,0,0,3911,3881,3910,3912,3921,3904,0.0,0.0,0.0,Started waypoint mission,
20.74550506038389,-103.51431189730668,0,0.0,0.0,16,5,-1.4000000000000001,-3.0,-88.7,2019-10-25 16:52:01.9310+0000,-0.10764002799987793,0.0,0.0,0.0,false,56,-874,2208,23439,44.25,6,false,100,100,0,0,0,0,0,3911,3881,3910,3912,3921,3904,0.0,0.0,0.0,Started waypoint mission,
20.745505060185565,-103.51431189546923,0,0.0,0.0,16,5,-1.4000000000000001,-3.0,-88.7,2019-10-25 16:52:02.0320+0000,-0.10035407543182373,0.0,0.0,0.0,false,56,-874,2208,23439,44.25,6,false,100,100,0,0,0,0,0,3911,3881,3910,3912,3921,3904,0.0,0.0,0.0,Started waypoint mission,
20.745505060014,-103.51431189355681,0,0.0,0.0,16,5,-1.4000000000000001,-3.0,-88.80000000000001,2019-10-25 16:52:02.1340+0000,-0.0997159481048584,0.0,0.0,0.0,false,56,-874,2208,23439,44.25,6,false,100,100,0,0,0,0,0,3911,3881,3910,3912,3921,3904,0.0,0.0,0.0,Started waypoint mission,
20.745505059674617,-103.51431189189911,0,0.0,0.0,16,5,-1.4000000000000001,-3.0,-88.80000000000001,2019-10-25 16:52:02.2320+0000,-0.09644103050231934,0.0,0.0,0.0,false,56,-874,2208,23439,44.25,6,false,100,100,0,0,0,0,0,3911,3881,3910,3912,3921,3904,0.0,0.0,0.0,Started waypoint mission,
20.74550505944712,-103.51431189025514,0,0.0,0.0,16,5,-1.5,-3.0,-88.80000000000001,2019-10-25 16:52:02.3290+0000,-0.09699892997741699,0.0,0.0,0.0,false,56,-874,2208,23439,44.25,6,false,100,100,0,0,0,0,0,3911,3881,3910,3912,3921,3904,0.0,0.0,0.0,Started waypoint mission,
20.745505058894153,-103.51431188764896,0,0.0,0.0,16,5,-1.5,-3.0,-88.80000000000001,2019-10-25 16:52:02.4310+0000,-0.10106098651885986,0.0,0.0,0.0,false,56,-1074,2208,23423,44.25,6,false,100,100,0,0,0,0,0,3911,3881,3910,3912,3921,3904,0.0,0.0,0.0,Started waypoint mission,
20.745505058254476,-103.51431188462776,0,0.0,0.0,16,5,-1.5,-3.0,-88.80000000000001,2019-10-25 16:52:02.5400+0000,-0.10699295997619629,0.0,0.0,0.0,false,56,-1074,2208,23423,44.25,6,false,100,100,0,0,0,0,0,3911,3881,3910,3912,3921,3904,0.0,0.0,0.0,Started waypoint mission,
20.745505057764138,-103.51431188304046,0,0.0,0.0,16,5,-1.5,-3.0,-88.80000000000001,2019-10-25 16:52:02.6400+0000,-0.09928703308105469,0.0,0.0,0.0,false,56,-1074,2208,23423,44.25,6,false,100,100,0,0,0,0,0,3911,3881,3910,3912,3921,3904,0.0,0.0,0.0,Started waypoint mission,
20.745505057608366,-103.51431188219216,0,0.0,0.0,16,5,-1.5,-3.0,-88.80000000000001,2019-10-25 16:52:02.6430+0000,-0.0014740228652954102,0.0,0.0,0.0,false,56,-1074,2208,23423,44.25,6,false,100,100,0,0,0,0,0,3911,3881,3910,3912,3921,3904,0.0,0.0,0.0,Started waypoint mission,
20.74550505788485,-103.51431188064264,0,0.0,0.0,16,5,-1.5,-3.0,-88.80000000000001,2019-10-25 16:52:02.7410+0000,-0.09656405448913574,0.0,0.0,0.0,false,56,-1074,2208,23423,44.25,6,false,100,100,0,0,0,0,0,3911,3881,3910,3912,3921,3904,0.0,0.0,0.0,Started waypoint mission,
20.745505058802618,-103.51431187860369,0,0.0,0.0,16,5,-1.5,-3.0,-88.80000000000001,2019-10-25 16:52:02.8420+0000,-0.09951996803283691,0.0,0.0,0.0,false,56,-1074,2208,23423,44.25,11,false,100,100,0,0,0,0,0,3908,3878,3908,3910,3917,3901,0.0,0.0,0.0,Started waypoint mission,
20.74550505875364,-103.51431187707136,0,0.0,0.0,16,5,-1.5,-3.0,-88.80000000000001,2019-10-25 16:52:03.0520+0000,-0.20935797691345215,0.0,0.0,0.0,false,56,-1074,2208,23423,44.25,11,false,100,100,0,0,0,0,0,3908,3878,3908,3910,3917,3901,0.0,0.0,0.0,Started waypoint mission,
20.74550505794721,-103.51431187592712,0,0.0,0.0,16,5,-1.5,-3.0,-88.80000000000001,2019-10-25 16:52:03.0570+0000,-0.0029799938201904297,0.0,0.0,0.0,false,56,-1074,2208,23423,44.25,11,false,100,100,0,0,0,0,0,3908,3878,3908,3910,3917,3901,0.0,0.0,0.0,Started waypoint mission,
20.745505057506925,-103.51431187418298,0,0.0,0.0,16,5,-1.5,-3.0,-88.80000000000001,2019-10-25 16:52:03.1490+0000,-0.0898820161819458,0.0,0.0,0.0,false,56,-1074,2208,23423,44.25,11,false,100,100,0,0,0,0,0,3908,3878,3908,3910,3917,3901,0.0,0.0,0.0,Started waypoint mission,
20.74550505791081,-103.51431187205189,0,0.0,0.0,16,5,-1.5,-3.0,-88.80000000000001,2019-10-25 16:52:03.2500+0000,-0.10027503967285156,0.0,0.0,0.0,false,56,-1074,2208,23423,44.25,11,false,100,100,0,0,0,0,0,3908,3878,3908,3910,3917,3901,0.0,0.0,0.0,Started waypoint mission,
20.745505058132686,-103.51431187133063,0,0.0,0.0,16,5,-1.5,-2.9000000000000004,-88.9,2019-10-25 16:52:03.3500+0000,-0.09927105903625488,0.0,0.0,0.0,false,56,-1074,2208,23423,44.25,11,false,100,100,0,0,0,0,0,3908,3878,3908,3910,3917,3901,0.0,0.0,0.0,Started waypoint mission,
20.745505054728454,-103.51431187338045,0,0.0,0.0,16,5,-1.5,-2.8000000000000003,-88.9,2019-10-25 16:52:03.4540+0000,-0.1024390459060669,0.0,0.0,0.0,false,56,-1074,2208,23423,44.25,11,false,100,100,0,0,0,0,0,3908,3878,3908,3910,3917,3901,0.0,0.0,0.0,Started waypoint mission,
20.745505045548885,-103.51431187919616,0,0.0,0.0,16,5,-1.5,-2.8000000000000003,-88.9,2019-10-25 16:52:03.5630+0000,-0.10772395133972168,0.0,0.0,0.0,false,56,-1074,2208,23423,44.25,11,false,100,100,0,0,0,0,0,3908,3878,3908,3910,3917,3901,0.0,0.0,0.0,Started waypoint mission,
20.74550503392621,-103.51431188786707,0,0.0,0.0,16,5,-1.5,-2.7,-88.9,2019-10-25 16:52:03.6620+0000,-0.0977010726928711,0.0,0.0,0.0,false,56,-1074,2208,23423,44.25,11,false,100,100,0,0,0,0,0,3908,3878,3908,3910,3917,3901,0.0,0.0,0.0,Started waypoint mission,
20.74550501739538,-103.51431189259291,0,0.0,0.0,16,5,-1.4000000000000001,-2.6,-88.9,2019-10-25 16:52:03.7620+0000,-0.09861195087432861,0.0,0.0,0.0,false,56,-1074,2208,23423,44.25,11,false,100,97,0,0,0,0,0,3908,3878,3908,3910,3917,3901,0.0,0.0,0.0,Started waypoint mission,
20.745504990332012,-103.5143118961934,0,0.0,0.0,16,5,-1.4000000000000001,-2.6,-89.0,2019-10-25 16:52:03.8630+0000,-0.0989539623260498,0.0,0.0,0.0,false,56,-2902,2208,23234,44.25,11,false,100,97,0,0,0,0,0,3894,3875,3875,3897,3915,3849,0.0,0.0,0.0,Started waypoint mission,
20.745504958416966,-103.51431190633599,0,0.0,0.0,16,5,-1.5,-2.7,-89.0,2019-10-25 16:52:03.9710+0000,-0.10717499256134033,0.0,0.0,0.0,false,56,-2902,2208,23234,44.25,11,false,100,97,0,0,0,0,0,3894,3875,3875,3897,3915,3849,0.0,0.0,0.0,Started waypoint mission,
20.745504922791493,-103.51431192103556,0,0.0,0.1,16,5,-1.5,-2.9000000000000004,-89.10000000000001,2019-10-25 16:52:04.0710+0000,-0.09866797924041748,0.0,0.0,0.1,false,56,-2902,2208,23234,44.25,11,false,100,97,0,0,0,0,0,3894,3875,3875,3897,3915,3849,0.0,0.0,0.0,Started waypoint mission,
20.74550488586605,-103.5143119318141,0,0.0,0.1,16,5,-1.4000000000000001,-2.9000000000000004,-89.2,2019-10-25 16:52:04.1840+0000,-0.11237502098083496,0.0,0.0,0.1,false,56,-2902,2208,23234,44.25,11,false,100,97,0,0,0,0,0,3894,3875,3875,3897,3915,3849,0.0,0.0,0.0,Started waypoint mission,
20.74550485737691,-103.5143119369332,0,0.0,0.0,16,5,-1.5,-2.1,-89.4,2019-10-25 16:52:04.2700+0000,-0.08479011058807373,0.0,0.0,0.0,false,56,-2902,2208,23234,44.25,11,false,100,97,0,0,0,0,0,3894,3875,3875,3897,3915,3849,0.0,0.0,0.0,Started waypoint mission,
20.745504852973802,-103.51431193682734,0,-0.1,0.0,16,5,-1.7000000000000002,-0.2,-90.0,2019-10-25 16:52:04.3690+0000,-0.09939002990722656,0.0,0.0,0.0,false,56,-2902,2208,23234,44.25,11,false,100,97,0,0,0,0,0,3894,3875,3875,3897,3915,3849,0.0,0.0,0.0,Started waypoint mission,
20.745505019151928,-103.51431193689027,0,0.0,0.22360681,16,5,-2.6,1.4000000000000001,-92.4,2019-10-25 16:52:04.5860+0000,-0.21636295318603516,0.1,0.0,-0.2,true,56,-2902,2208,23234,44.25,11,false,100,97,0,0,0,0,0,3894,3875,3875,3897,3915,3849,0.0,0.0,0.0,Started waypoint mission,
20.745505233754788,-103.51431195591147,3000,0.0,0.44721362,16,5,-1.9000000000000001,0.0,-93.30000000000001,2019-10-25 16:52:04.6890+0000,-0.10165297985076904,0.2,0.0,-0.4,true,56,-2902,2208,23234,44.25,11,false,100,97,0,0,0,0,0,3894,3875,3875,3897,3915,3849,0.0,0.0,0.0,Started waypoint mission,
20.745505506187037,-103.51431196222737,3000,0.0,0.44721362,16,5,-1.3,-1.2000000000000002,-93.9,2019-10-25 16:52:04.7950+0000,-0.10484504699707031,0.2,0.0,-0.4,true,56,-2902,2208,23234,44.25,11,false,100,98,0,0,0,0,0,3894,3875,3875,3897,3915,3849,0.0,0.0,0.0,Started waypoint mission,
20.745505816319024,-103.51431194823297,4000,0.0,0.5,16,5,-0.7000000000000001,-2.1,-94.0,2019-10-25 16:52:04.8860+0000,-0.09045994281768799,0.3,0.0,-0.4,true,56,-3736,2208,23296,44.25,11,false,100,98,0,0,0,0,0,3888,3837,3873,3879,3887,3867,0.0,0.0,0.0,Started waypoint mission,
20.745506145206537,-103.514311890429,4000,0.1,0.5,16,5,-0.30000000000000004,-3.1,-93.80000000000001,2019-10-25 16:52:04.9900+0000,-0.10261499881744385,0.3,0.0,-0.4,true,56,-3736,2208,23296,44.25,11,false,100,98,0,0,0,0,0,3888,3837,3873,3879,3887,3867,0.0,0.0,0.0,Started waypoint mission,
20.74550647346105,-103.51431178214516,4000,0.1,0.5,16,5,-0.4,-4.0,-93.5,2019-10-25 16:52:05.0940+0000,-0.10332703590393066,0.3,0.0,-0.4,true,56,-3736,2208,23296,44.25,11,false,100,98,0,0,0,0,0,3888,3837,3873,3879,3887,3867,0.0,0.0,0.0,Started waypoint mission,
20.745506755748387,-103.51431157759991,4000,0.1,0.37416577,14,5,-0.7000000000000001,-4.5,-93.0,2019-10-25 16:52:05.1890+0000,-0.09408295154571533,0.2,0.1,-0.3,true,56,-3736,2208,23296,44.25,11,false,100,98,0,0,0,0,0,3888,3837,3873,3879,3887,3867,0.0,0.0,0.0,Started waypoint mission,
20.74550698887323,-103.51431128163473,4000,0.2,0.4582576,14,5,-1.3,-4.0,-92.5,2019-10-25 16:52:05.2900+0000,-0.10021102428436279,0.2,0.1,-0.4,true,56,-3736,2208,23296,44.25,11,false,100,98,0,0,0,0,0,3888,3837,3873,3879,3887,3867,0.0,0.0,0.0,Started waypoint mission,
20.745507202189746,-103.51431099119102,4000,0.2,0.4582576,14,5,-2.0,-3.1,-92.0,2019-10-25 16:52:05.3900+0000,-0.09925591945648193,0.2,0.1,-0.4,true,56,-3736,2208,23296,44.25,11,false,100,98,0,0,0,0,0,3888,3837,3873,3879,3887,3867,0.0,0.0,0.0,Started waypoint mission,
20.745507411314005,-103.51431071437531,4000,0.30000000000000004,0.4582576,14,5,-2.4000000000000004,-3.0,-91.7,2019-10-25 16:52:05.4910+0000,-0.10103702545166016,0.2,0.1,-0.4,true,56,-3736,2208,23296,44.25,11,false,100,98,0,0,0,0,0,3888,3837,3873,3879,3887,3867,0.0,0.0,0.0,Started waypoint mission,
20.745507611662035,-103.51431044439364,4000,0.30000000000000004,0.4582576,15,5,-2.6,-3.0,-91.5,2019-10-25 16:52:05.6040+0000,-0.11188006401062012,0.2,0.1,-0.4,true,56,-3736,2208,23296,44.25,11,false,100,98,0,0,0,0,0,3888,3837,3873,3879,3887,3867,0.0,0.0,0.0,Started waypoint mission,
20.745507799189525,-103.51431018238223,4000,0.4,0.42426407,15,5,-2.7,-2.9000000000000004,-91.30000000000001,2019-10-25 16:52:05.7020+0000,-0.0961599349975586,0.1,0.1,-0.4,true,56,-3736,2208,23296,44.25,11,false,100,98,0,0,0,0,0,3888,3837,3873,3879,3887,3867,0.0,0.0,0.0,Started waypoint mission,
20.745507960816422,-103.51430992888147,5000,0.4,0.33166248,16,5,-2.8000000000000003,-2.8000000000000003,-91.10000000000001,2019-10-25 16:52:05.8110+0000,-0.10846197605133057,0.1,0.1,-0.3,true,56,-3736,2208,23296,44.25,11,false,100,98,0,0,0,0,0,3888,3837,3873,3879,3887,3867,0.0,0.0,0.0,Started waypoint mission,
20.745508102923893,-103.51430968487243,5000,0.5,0.51961523,16,5,-2.6,-2.8000000000000003,-90.9,2019-10-25 16:52:05.9090+0000,-0.09596407413482666,0.1,0.1,-0.5,true,56,-15972,2208,22622,44.25,11,false,100,98,0,0,0,0,0,3764,3738,3772,3773,3794,3747,0.0,0.0,0.0,Started waypoint mission,
20.745508273694973,-103.51430940529427,5000,0.5,0.5477226,15,5,-2.5,-2.9000000000000004,-90.80000000000001,2019-10-25 16:52:06.0500+0000,-0.1395639181137085,0.1,0.2,-0.5,true,56,-15972,2208,22622,44.25,11,false,100,98,0,0,0,0,0,3764,3738,3772,3773,3794,3747,0.0,0.0,0.0,Started waypoint mission,
20.74550846941452,-103.51430909488657,5000,0.6000000000000001,0.4582576,15,5,-2.7,-2.6,-90.60000000000001,2019-10-25 16:52:06.1350+0000,-0.08380794525146484,0.1,0.2,-0.4,true,56,-15972,2208,22622,44.25,11,false,100,98,0,0,0,0,0,3764,3738,3772,3773,3794,3747,0.0,0.0,0.0,Started waypoint mission,
20.745508692884027,-103.5143088805955,5000,0.6000000000000001,0.37416577,14,5,-2.9000000000000004,-2.6,-90.60000000000001,2019-10-25 16:52:06.2370+0000,-0.10101103782653809,0.1,0.2,-0.3,true,56,-15972,2208,22622,44.25,11,false,100,98,0,0,0,0,0,3764,3738,3772,3773,3794,3747,0.0,0.0,0.0,Started waypoint mission,
20.74550893934341,-103.51430874759377,5000,0.7000000000000001,0.42426407,14,5,-2.8000000000000003,-2.7,-90.7,2019-10-25 16:52:06.3190+0000,-0.08192300796508789,0.1,0.1,-0.4,true,56,-15972,2208,22622,44.25,11,false,100,100,0,0,0,0,0,3764,3738,3772,3773,3794,3747,0.0,0.0,0.0,Started waypoint mission,
20.745509552581023,-103.51430792138207,6000,0.8,0.5477226,16,5,-2.3000000000000003,-2.9000000000000004,-90.9,2019-10-25 16:52:06.8540+0000,-0.5339930057525635,0.1,0.2,-0.5,true,56,-15972,2208,22622,44.25,11,false,100,100,0,0,0,0,0,3764,3738,3772,3773,3794,3747,0.0,0.0,0.0,Started waypoint mission,
20.745509822202614,-103.51430769624379,6000,0.9,0.48989797,16,5,-2.6,-3.0,-90.9,2019-10-25 16:52:06.8560+0000,-0.001855015754699707,0.2,0.2,-0.4,true,56,-15972,2208,22622,44.25,6,false,100,100,0,0,0,0,0,3764,3738,3772,3773,3794,3747,0.0,0.0,0.0,Started waypoint mission,
20.745510086625917,-103.51430740966505,6000,0.9,0.48989797,16,5,-2.9000000000000004,-3.4000000000000004,-90.7,2019-10-25 16:52:07.0060+0000,-0.14929497241973877,0.2,0.2,-0.4,true,56,-15972,2208,22622,44.25,14,false,100,96,0,0,0,0,0,3764,3738,3772,3773,3794,3747,0.0,0.0,0.0,Started waypoint mission,
20.745510350279854,-103.51430707659733,6000,0.9,0.41231057,16,5,-3.3000000000000003,-4.2,-90.4,2019-10-25 16:52:07.0100+0000,-0.0031920671463012695,0.2,0.2,-0.3,true,56,-18380,2208,22499,44.25,14,false,100,96,0,0,0,0,0,0,0,0,0,0,0,0.0,0.0,0.0,Started waypoint mission,
20.745510603353488,-103.51430680724282,6000,1.0,0.24494898,16,5,-3.8000000000000003,-4.6000000000000005,-90.2,2019-10-25 16:52:07.0980+0000,-0.08767199516296387,0.1,0.2,-0.1,true,56,-18380,2208,22499,44.25,14,false,100,96,0,0,0,0,0,0,0,0,0,0,0,0.0,0.0,0.0,Started waypoint mission,
20.745510832597773,-103.51430660261495,6000,1.0,0.24494898,16,5,-4.0,-4.6000000000000005,-90.0,2019-10-25 16:52:07.1920+0000,-0.09268593788146973,0.1,0.1,-0.2,true,56,-18380,2208,22499,44.25,14,false,100,96,0,0,0,0,0,0,0,0,0,0,0,0.0,0.0,0.0,Started waypoint mission,
20.74551103627619,-103.51430640532081,6000,1.0,0.42426407,16,5,-3.9000000000000004,-4.4,-90.10000000000001,2019-10-25 16:52:07.2060+0000,-0.013659000396728516,0.1,0.1,-0.4,true,56,-18380,2208,22499,44.25,14,false,100,96,0,0,0,0,0,0,0,0,0,0,0,0.0,0.0,0.0,Started waypoint mission,
20.74551121137982,-103.5143062234606,6000,1.1,0.50990194,16,5,-3.9000000000000004,-4.0,-90.30000000000001,2019-10-25 16:52:07.2590+0000,-0.052152037620544434,0.0,0.1,-0.5,true,56,-18380,2208,22499,44.25,14,false,100,93,0,0,0,0,0,3740,3713,3751,3760,3772,3741,0.0,0.0,0.0,Started waypoint mission,
20.745511362143436,-103.51430609541859,6000,1.1,0.5,15,5,-3.6,-3.7,-90.5,2019-10-25 16:52:07.3760+0000,-0.11652004718780518,0.0,0.0,-0.5,true,56,-18380,2208,22499,44.25,14,false,100,93,0,0,0,0,0,3740,3713,3751,3760,3772,3741,0.0,0.0,0.0,Started waypoint mission,
20.7455116503441,-103.51430598427613,6000,1.2000000000000002,0.9,15,5,-2.9000000000000004,-2.7,-91.30000000000001,2019-10-25 16:52:07.5890+0000,-0.21208596229553223,0.0,0.0,-0.9,true,56,-18380,2208,22499,44.25,14,false,100,93,0,0,0,0,0,3740,3713,3751,3760,3772,3741,0.0,0.0,0.0,Started waypoint mission,
20.745511842923307,-103.5143059853705,6000,1.3,1.2,15,5,-2.6,-2.6,-91.80000000000001,2019-10-25 16:52:07.6910+0000,-0.1016240119934082,0.0,0.0,-1.2,true,56,-18380,2208,22499,44.25,14,false,100,93,0,0,0,0,0,3740,3713,3751,3760,3772,3741,0.0,0.0,0.0,Started waypoint mission,
20.74551207031591,-103.51430601059865,6000,1.5,1.5,13,4,-2.4000000000000004,-2.9000000000000004,-92.2,2019-10-25 16:52:07.7920+0000,-0.10025191307067871,0.0,0.0,-1.5,true,56,-18380,2208,22499,44.25,14,false,100,93,0,0,0,0,0,3740,3713,3751,3760,3772,3741,0.0,0.0,0.0,Started waypoint mission,
20.74551232349944,-103.51430605751229,7000,1.6,1.7,13,4,-2.2,-3.4000000000000004,-92.5,2019-10-25 16:52:07.8850+0000,-0.09217798709869385,0.0,0.0,-1.7,true,56,-20273,2208,22379,44.25,14,false,100,93,0,0,0,0,0,3740,3713,3751,3760,3772,3741,0.0,0.0,0.0,Started waypoint mission,
20.745512595176976,-103.5143060318587,7000,1.8,1.9,14,4,-1.9000000000000001,-3.8000000000000003,-92.60000000000001,2019-10-25 16:52:07.9900+0000,-0.10433590412139893,0.0,0.0,-1.9,true,56,-20273,2208,22379,44.25,14,false,100,93,0,0,0,0,0,3740,3713,3751,3760,3772,3741,0.0,0.0,0.0,Started waypoint mission,
20.745512872953675,-103.51430594303828,7000,2.0,2.1,14,4,-2.0,-4.1000000000000005,-92.7,2019-10-25 16:52:08.1180+0000,-0.12815701961517334,0.0,0.0,-2.1,true,56,-20273,2208,22379,44.25,14,false,100,93,0,0,0,0,0,3740,3713,3751,3760,3772,3741,0.0,0.0,0.0,Started waypoint mission,
20.74551318642939,-103.5143058550052,7000,2.2,2.3,15,4,-2.2,-4.2,-92.7,2019-10-25 16:52:08.1890+0000,-0.07024908065795898,0.0,0.0,-2.3,true,56,-20273,2208,22379,44.25,14,false,100,93,0,0,0,0,0,3740,3713,3751,3760,3772,3741,0.0,0.0,0.0,Started waypoint mission,
20.74551352347397,-103.51430576966303,7000,2.5,2.6,15,4,-2.3000000000000003,-4.3,-92.60000000000001,2019-10-25 16:52:08.3090+0000,-0.11889004707336426,0.0,0.0,-2.6,true,56,-20273,2208,22379,44.25,14,false,100,97,0,0,0,0,0,3740,3713,3751,3760,3772,3741,0.0,0.0,0.0,Started waypoint mission,
20.74551383208561,-103.51430567987377,7000,2.8000000000000003,2.8,15,4,-2.4000000000000004,-4.4,-92.5,2019-10-25 16:52:08.4210+0000,-0.11174702644348145,0.0,0.0,-2.8,true,56,-20273,2168,22379,44.25,14,false,100,97,0,0,0,0,0,3654,3649,3731,3737,3757,3770,0.0,0.0,0.0,Started waypoint mission,
20.745514120438294,-103.51430558490678,7000,3.0,3.0,15,4,-2.8000000000000003,-4.6000000000000005,-92.4,2019-10-25 16:52:08.5210+0000,-0.09881997108459473,0.0,0.0,-3.0,true,56,-20273,2168,22379,44.25,14,false,100,97,0,0,0,0,0,3654,3649,3731,3737,3757,3770,0.0,0.0,0.0,Started waypoint mission,
20.745514384591182,-103.51430551981854,7000,3.3000000000000003,3.1,15,4,-2.8000000000000003,-5.0,-92.2,2019-10-25 16:52:08.6370+0000,-0.11592400074005127,0.0,0.0,-3.1,true,56,-20273,2168,22379,44.25,14,false,100,97,0,0,0,0,0,3654,3649,3731,3737,3757,3770,0.0,0.0,0.0,Started waypoint mission,
20.745514624191493,-103.51430548207642,7000,3.7,3.2,15,4,-2.7,-5.2,-92.0,2019-10-25 16:52:08.7280+0000,-0.09022688865661621,0.0,0.0,-3.2,true,56,-20273,2168,22379,44.25,14,false,100,97,0,0,0,0,0,3654,3649,3731,3737,3757,3770,0.0,0.0,0.0,Started waypoint mission,
20.745514878245324,-103.51430544904406,8000,4.0,3.4,15,4,-2.6,-5.6000000000000005,-91.80000000000001,2019-10-25 16:52:08.8090+0000,-0.08034491539001465,0.0,0.0,-3.4,true,56,-20273,2168,22379,44.25,14,false,100,99,0,0,0,0,0,3654,3649,3731,3737,3757,3770,0.0,0.0,0.0,Started waypoint mission,
20.74551514575656,-103.51430541299227,8000,4.4,3.3,15,4,-2.6,-5.9,-91.7,2019-10-25 16:52:08.9350+0000,-0.12465500831604004,0.0,0.0,-3.3,true,56,-20273,2168,22379,44.150000000000034,14,false,100,99,0,0,0,0,0,3654,3649,3731,3737,3757,3770,0.0,0.0,0.0,Started waypoint mission,
20.745515378439137,-103.51430544551742,8000,4.7,3.2,14,4,-2.7,-5.9,-91.60000000000001,2019-10-25 16:52:09.0550+0000,-0.11904001235961914,0.0,0.0,-3.2,true,56,-20273,2168,22379,44.150000000000034,14,false,100,99,0,0,0,0,0,3654,3649,3731,3737,3757,3770,0.0,0.0,0.0,Started waypoint mission,
20.745515576281274,-103.51430553405362,8000,5.0,3.2,14,4,-2.7,-5.9,-91.80000000000001,2019-10-25 16:52:09.1410+0000,-0.08630192279815674,0.0,0.0,-3.2,true,56,-20273,2168,22379,44.150000000000034,14,false,100,99,0,0,0,0,0,3654,3649,3731,3737,3757,3770,0.0,0.0,0.0,Started waypoint mission,
20.745515755365986,-103.51430560911065,8000,5.300000000000001,3.3,15,4,-2.7,-6.1000000000000005,-92.0,2019-10-25 16:52:09.2360+0000,-0.09410905838012695,0.0,0.0,-3.3,true,56,-20273,2168,22379,44.150000000000034,14,false,100,99,0,0,0,0,0,3654,3649,3731,3737,3757,3770,0.0,0.0,0.0,Started waypoint mission,
20.745515912244915,-103.51430567676267,8000,5.7,3.3015149,15,4,-2.5,-6.1000000000000005,-92.2,2019-10-25 16:52:09.3390+0000,-0.10262501239776611,-0.1,0.0,-3.3,true,56,-20273,2168,22379,44.150000000000034,14,false,100,99,0,0,0,0,0,3654,3649,3731,3737,3757,3770,0.0,0.0,0.0,Started waypoint mission,
20.745515981755123,-103.5143057635003,8000,6.0,3.3015149,15,4,-2.3000000000000003,-6.0,-92.4,2019-10-25 16:52:09.4400+0000,-0.09981298446655273,-0.1,0.0,-3.3,true,55,-28076,2168,21840,44.150000000000034,14,false,100,99,0,0,0,0,0,3626,3622,3636,3658,3678,3678,0.0,0.0,0.0,Started waypoint mission,
20.745515977876483,-103.51430586295236,8000,6.4,3.4014704,15,4,-2.2,-5.7,-92.4,2019-10-25 16:52:09.5400+0000,-0.09954094886779785,-0.1,0.0,-3.4,true,55,-28076,2168,21840,44.150000000000034,14,false,100,99,0,0,0,0,0,3626,3622,3636,3658,3678,3678,0.0,0.0,0.0,Started waypoint mission,
20.7455159233003,-103.51430597506211,8000,6.7,3.4058774,15,4,-2.0,-5.2,-92.4,2019-10-25 16:52:09.5420+0000,-0.0012519359588623047,-0.2,0.0,-3.4,true,55,-28076,2168,21840,44.150000000000034,14,false,100,99,0,0,0,0,0,3626,3622,3636,3658,3678,3678,0.0,0.0,0.0,Started waypoint mission,
20.745515832622008,-103.51430609238655,8000,7.0,3.306055,15,4,-2.0,-5.1000000000000005,-92.30000000000001,2019-10-25 16:52:09.6830+0000,-0.14080810546875,-0.2,0.0,-3.3,true,55,-28076,2168,21840,44.150000000000034,14,false,100,99,0,0,0,0,0,3626,3622,3636,3658,3678,3678,0.0,0.0,0.0,Started waypoint mission,
20.745515700086674,-103.51430622554014,8000,7.4,3.206244,15,4,-2.0,-4.800000000000001,-92.10000000000001,2019-10-25 16:52:09.7690+0000,-0.08601999282836914,-0.2,0.0,-3.2,true,55,-28076,2168,21840,44.150000000000034,14,false,100,100,0,0,0,0,0,3626,3622,3636,3658,3678,3678,0.0,0.0,0.0,Started waypoint mission,
20.74551553226294,-103.51430637765546,9000,7.6000000000000005,3.0066593,15,4,-1.8,-4.3,-91.9,2019-10-25 16:52:09.8690+0000,-0.09931707382202148,-0.2,0.0,-3.0,true,55,-28076,2168,21840,44.150000000000034,14,false,100,100,0,0,0,0,0,3626,3622,3636,3658,3678,3678,0.0,0.0,0.0,Started waypoint mission,
20.74551533621774,-103.51430657068614,9000,7.9,3.1064448,15,4,-1.4000000000000001,-3.8000000000000003,-91.9,2019-10-25 16:52:09.9710+0000,-0.10088503360748291,-0.2,0.0,-3.1,true,55,-28076,2168,21840,44.150000000000034,14,false,100,100,0,0,0,0,0,3626,3622,3636,3658,3678,3678,0.0,0.0,0.0,Started waypoint mission,
20.745515125147794,-103.51430678994498,9000,8.3,3.207803,15,4,-1.0,-3.7,-91.9,2019-10-25 16:52:10.1030+0000,-0.1313689947128296,-0.2,-0.1,-3.2,true,55,-28076,2168,21840,44.150000000000034,14,false,100,100,0,0,0,0,0,3626,3622,3636,3658,3678,3678,0.0,0.0,0.0,Started waypoint mission,
20.745514880152815,-103.51430702650833,9000,8.6,3.306055,15,4,-0.7000000000000001,-3.7,-91.9,2019-10-25 16:52:10.1910+0000,-0.08714306354522705,-0.2,0.0,-3.3,true,55,-28076,2168,21840,44.150000000000034,14,false,100,100,0,0,0,0,0,3626,3622,3636,3658,3678,3678,0.0,0.0,0.0,Started waypoint mission,
20.74551460525401,-103.51430727353366,9000,8.9,3.206244,15,4,-0.4,-3.5,-91.9,2019-10-25 16:52:10.2900+0000,-0.09871208667755127,-0.2,0.0,-3.2,true,55,-28076,2168,21840,44.150000000000034,14,false,100,100,0,0,0,0,0,3626,3622,3636,3658,3678,3678,0.0,0.0,0.0,Started waypoint mission,
20.745514343883805,-103.5143075105655,9000,9.3,3.206244,15,4,-0.2,-3.3000000000000003,-92.0,2019-10-25 16:52:10.3860+0000,-0.09566700458526611,-0.2,0.0,-3.2,true,55,-23202,2168,22025,44.25,14,false,100,100,0,0,0,0,0,3668,3646,3677,3682,3696,3673,0.0,0.0,0.0,Started waypoint mission,
20.745514096936144,-103.51430773658812,9000,9.600000000000001,3.306055,15,4,-0.2,-3.2,-92.0,2019-10-25 16:52:10.5010+0000,-0.11373496055603027,-0.2,0.0,-3.3,true,55,-23202,2168,22025,44.25,14,false,100,100,0,0,0,0,0,3668,3646,3677,3682,3696,3673,0.0,0.0,0.0,Started waypoint mission,
20.74551382360744,-103.5143079568809,9000,9.9,3.206244,16,4,-0.1,-3.0,-92.0,2019-10-25 16:52:10.5900+0000,-0.08884000778198242,-0.2,0.0,-3.2,true,55,-23202,2168,22025,44.25,14,false,100,100,0,0,0,0,0,3668,3646,3677,3682,3696,3673,0.0,0.0,0.0,Started waypoint mission,
20.74551353472086,-103.51430817152624,9000,10.3,3.206244,16,4,-0.1,-3.0,-92.0,2019-10-25 16:52:10.6910+0000,-0.10010707378387451,-0.2,0.0,-3.2,true,55,-23202,2168,22025,44.25,14,false,100,100,0,0,0,0,0,3668,3646,3677,3682,3696,3673,0.0,0.0,0.0,Started waypoint mission,
20.74551322880168,-103.5143083970571,10000,10.600000000000001,3.1064448,15,4,-0.1,-2.6,-91.9,2019-10-25 16:52:10.8170+0000,-0.12537801265716553,-0.2,0.0,-3.1,true,55,-23202,2168,22025,44.25,14,false,100,100,0,0,0,0,0,3668,3646,3677,3682,3696,3673,0.0,0.0,0.0,Started waypoint mission,
20.74551291639874,-103.5143086278633,10000,10.9,3.1064448,15,4,-0.1,-2.0,-91.9,2019-10-25 16:52:10.9200+0000,-0.10237598419189453,-0.2,0.0,-3.1,true,55,-23202,2168,22025,44.25,14,false,100,100,0,0,0,0,0,0,0,0,0,0,0,0.0,0.0,0.0,Started waypoint mission,
20.74551260589078,-103.51430883416567,10000,11.200000000000001,3.1064448,15,4,0.0,-1.8,-92.0,2019-10-25 16:52:11.0090+0000,-0.08846604824066162,-0.2,0.0,-3.1,true,55,-23202,2168,22025,44.25,14,false,100,100,0,0,0,0,0,3668,3646,3677,3682,3696,3673,0.0,0.0,0.0,Started waypoint mission,
20.745512316681552,-103.51430902060595,10000,11.5,3.1016126,15,4,0.4,-2.3000000000000003,-92.10000000000001,2019-10-25 16:52:11.1150+0000,-0.10515201091766357,-0.1,0.0,-3.1,true,55,-23202,2168,22025,44.25,14,false,100,100,0,0,0,0,0,3668,3646,3677,3682,3696,3673,0.0,0.0,0.0,Started waypoint mission,
20.7455120553477,-103.51430914743189,10000,11.9,3.1016126,15,4,0.6000000000000001,-2.7,-92.2,2019-10-25 16:52:11.2310+0000,-0.115090012550354,-0.1,0.0,-3.1,true,55,-23202,2168,22025,44.25,14,false,100,100,0,0,0,0,0,3668,3646,3677,3682,3696,3673,0.0,0.0,0.0,Started waypoint mission,
20.745511813837556,-103.51430922013861,10000,12.200000000000001,3.1016126,15,4,0.6000000000000001,-3.0,-92.30000000000001,2019-10-25 16:52:11.3190+0000,-0.08710598945617676,-0.1,0.0,-3.1,true,55,-23202,2168,22025,44.25,14,false,100,98,0,0,0,0,0,3668,3646,3677,3682,3696,3673,0.0,0.0,0.0,Started waypoint mission,
20.745511535103386,-103.51430928722431,10000,12.5,3.0016663,16,4,0.4,-3.2,-92.5,2019-10-25 16:52:11.4310+0000,-0.11168503761291504,-0.1,0.0,-3.0,true,55,-21634,2168,22066,44.25,14,false,100,98,0,0,0,0,0,3668,3660,3677,3696,3709,3675,0.0,0.0,0.0,Started waypoint mission,
20.745511220236384,-103.51430934314222,10000,12.8,3.1016126,16,4,0.1,-3.0,-92.5,2019-10-25 16:52:11.5540+0000,-0.1210169792175293,-0.1,0.0,-3.1,true,55,-21634,2168,22066,44.25,14,false,100,98,0,0,0,0,0,3668,3660,3677,3696,3709,3675,0.0,0.0,0.0,Started waypoint mission,
20.745510916215608,-103.51430934382702,10000,13.100000000000001,3.1016126,16,4,-0.1,-2.6,-92.60000000000001,2019-10-25 16:52:11.6420+0000,-0.08785903453826904,-0.1,0.0,-3.1,true,55,-21634,2168,22066,44.25,14,false,100,98,0,0,0,0,0,3668,3660,3677,3696,3709,3675,0.0,0.0,0.0,Started waypoint mission,
20.745510626910193,-103.51430930637326,10000,13.5,3.1016126,16,4,-0.30000000000000004,-2.4000000000000004,-92.5,2019-10-25 16:52:11.7300+0000,-0.08756101131439209,-0.1,0.0,-3.1,true,55,-21634,2168,22066,44.25,14,false,100,98,0,0,0,0,0,3668,3660,3677,3696,3709,3675,0.0,0.0,0.0,Started waypoint mission,
20.745510360746792,-103.51430923466243,11000,13.8,3.0,16,4,-0.4,-2.0,-92.5,2019-10-25 16:52:11.8670+0000,-0.13638901710510254,0.0,0.0,-3.0,true,55,-21634,2168,22066,44.25,14,false,100,95,0,0,0,0,0,3668,3660,3677,3696,3709,3675,0.0,0.0,0.0,Started waypoint mission,
20.745510121220097,-103.51430913804207,11000,14.0,2.9017239,16,4,-0.7000000000000001,-1.9000000000000001,-92.4,2019-10-25 16:52:11.8700+0000,-0.0022450685501098633,0.0,0.1,-2.9,true,55,-21634,2168,22066,44.25,14,false,100,95,0,0,0,0,0,0,0,0,0,0,0,0.0,0.0,0.0,Started waypoint mission,
20.745509871537752,-103.51430902480686,11000,14.3,2.9017239,16,4,-1.1,-1.8,-92.30000000000001,2019-10-25 16:52:11.9600+0000,-0.08958101272583008,0.0,0.1,-2.9,true,55,-21634,2168,22066,44.25,14,false,100,95,0,0,0,0,0,3668,3660,3677,3696,3709,3675,0.0,0.0,0.0,Started waypoint mission,
20.74550961955084,-103.51430890352756,11000,14.700000000000001,3.1016126,16,4,-1.3,-1.8,-92.30000000000001,2019-10-25 16:52:12.0500+0000,-0.08976900577545166,0.0,0.1,-3.1,true,55,-21634,2168,22066,44.25,14,false,100,95,0,0,0,0,0,3668,3660,3677,3696,3709,3675,0.0,0.0,0.0,Started waypoint mission,
20.745509383333072,-103.51430876648007,11000,15.0,3.1016126,16,4,-1.4000000000000001,-1.9000000000000001,-92.30000000000001,2019-10-25 16:52:12.2800+0000,-0.22880792617797852,0.0,0.1,-3.1,true,55,-21634,2168,22066,44.25,14,false,100,95,0,0,0,0,0,3668,3660,3677,3696,3709,3675,0.0,0.0,0.0,Started waypoint mission,
20.745509160250663,-103.51430861937246,11000,15.3,3.0016663,16,4,-1.6,-1.9000000000000001,-92.2,2019-10-25 16:52:12.2810+0000,-0.0008499622344970703,0.0,0.1,-3.0,true,55,-21634,2168,22066,44.25,14,false,100,95,0,0,0,0,0,3668,3660,3677,3696,3709,3675,0.0,0.0,0.0,Started waypoint mission,
20.745508991154946,-103.51430842962999,11000,15.600000000000001,3.1016126,16,4,-1.8,-1.6,-92.10000000000001,2019-10-25 16:52:12.3710+0000,-0.08946895599365234,0.0,0.1,-3.1,true,55,-20418,2168,22112,44.25,14,false,100,95,0,0,0,0,0,3671,3661,3676,3692,3715,3677,0.0,0.0,0.0,Started waypoint mission,
20.7455088798453,-103.51430820209413,11000,16.0,3.0016663,16,4,-2.0,-1.6,-91.9,2019-10-25 16:52:12.4820+0000,-0.10975098609924316,0.0,0.1,-3.0,true,55,-20418,2168,22112,44.25,14,false,100,95,0,0,0,0,0,3671,3661,3676,3692,3715,3677,0.0,0.0,0.0,Started waypoint mission,
20.74550878227872,-103.51430796592406,11000,16.3,3.0016663,16,4,-2.1,-1.8,-91.80000000000001,2019-10-25 16:52:12.5710+0000,-0.08925795555114746,0.0,0.1,-3.0,true,55,-20418,2168,22112,44.25,14,false,100,95,0,0,0,0,0,3671,3661,3676,3692,3715,3677,0.0,0.0,0.0,Started waypoint mission,
20.745508698025052,-103.51430772330065,11000,16.6,3.0016663,16,4,-2.4000000000000004,-2.1,-91.80000000000001,2019-10-25 16:52:12.6710+0000,-0.09877192974090576,0.0,0.1,-3.0,true,55,-20418,2168,22112,44.25,14,false,100,95,0,0,0,0,0,3671,3661,3676,3692,3715,3677,0.0,0.0,0.0,Started waypoint mission,
20.74550863508468,-103.51430742002638,11000,16.900000000000002,2.9017239,16,4,-2.6,-2.5,-91.80000000000001,2019-10-25 16:52:12.7910+0000,-0.11984598636627197,0.0,0.1,-2.9,true,55,-20418,2168,22112,44.25,14,false,100,97,0,0,0,0,0,3671,3661,3676,3692,3715,3677,0.0,0.0,0.0,Started waypoint mission,
20.74550858431442,-103.51430707178127,12000,17.2,2.9017239,16,4,-3.0,-2.7,-91.80000000000001,2019-10-25 16:52:12.8850+0000,-0.09246194362640381,0.0,0.1,-2.9,true,55,-20418,2168,22112,44.25,14,false,100,97,0,0,0,0,0,3671,3661,3676,3692,3715,3677,0.0,0.0,0.0,Started waypoint mission,
20.74550858327928,-103.51430676165471,12000,17.5,2.9034464,16,5,-3.3000000000000003,-2.8000000000000003,-91.80000000000001,2019-10-25 16:52:12.9870+0000,-0.10148894786834717,0.1,0.1,-2.9,true,55,-20418,2168,22112,44.25,14,false,100,97,0,0,0,0,0,3671,3661,3676,3692,3715,3677,0.0,0.0,0.0,Started waypoint mission,
20.74550861835618,-103.5143064852701,12000,17.8,2.9034464,16,5,-3.6,-2.8000000000000003,-91.9,2019-10-25 16:52:13.1030+0000,-0.11563396453857422,0.1,0.1,-2.9,true,55,-20418,2168,22112,44.25,14,false,100,97,0,0,0,0,0,3671,3661,3676,3692,3715,3677,0.0,0.0,0.0,Started waypoint mission,
20.74550867196306,-103.51430620841182,12000,18.1,2.9017239,16,5,-3.5,-2.8000000000000003,-91.9,2019-10-25 16:52:13.2270+0000,-0.12304496765136719,0.1,0.0,-2.9,true,55,-20418,2168,22112,44.25,14,false,100,97,0,0,0,0,0,3671,3661,3676,3692,3715,3677,0.0,0.0,0.0,Started waypoint mission,
20.745508743375883,-103.51430593200033,12000,18.400000000000002,2.9017239,16,5,-3.4000000000000004,-2.9000000000000004,-92.0,2019-10-25 16:52:13.3010+0000,-0.07387304306030273,0.1,0.0,-2.9,true,55,-20418,2168,22112,44.25,14,false,100,100,0,0,0,0,0,3671,3661,3676,3692,3715,3677,0.0,0.0,0.0,Started waypoint mission,
20.745508855543378,-103.51430564286791,12000,18.7,2.9017239,16,5,-3.6,-3.3000000000000003,-92.0,2019-10-25 16:52:13.4390+0000,-0.13693702220916748,0.1,0.0,-2.9,true,55,-20228,2168,22090,44.25,14,false,100,100,0,0,0,0,0,3671,3661,3676,3692,3715,3677,0.0,0.0,0.0,Started waypoint mission,
20.74550899776874,-103.51430534430446,12000,19.0,2.9017239,16,5,-3.7,-3.5,-91.9,2019-10-25 16:52:13.5100+0000,-0.07036495208740234,0.1,0.0,-2.9,true,55,-20228,2168,22090,44.25,14,false,100,100,0,0,0,0,0,3671,3661,3676,3692,3715,3677,0.0,0.0,0.0,Started waypoint mission,
20.745509166785006,-103.5143050554251,12000,19.3,2.9017239,16,5,-4.0,-3.8000000000000003,-91.9,2019-10-25 16:52:13.6210+0000,-0.10989797115325928,0.1,0.0,-2.9,true,55,-20228,2168,22090,44.25,14,false,100,100,0,0,0,0,0,3671,3661,3676,3692,3715,3677,0.0,0.0,0.0,Started waypoint mission,
20.7455093533786,-103.51430477634288,12000,19.6,2.9017239,16,5,-4.3,-4.2,-91.9,2019-10-25 16:52:13.7300+0000,-0.1089019775390625,0.1,0.0,-2.9,true,55,-20228,2168,22090,44.25,14,false,100,100,0,0,0,0,0,3671,3661,3676,3692,3715,3677,0.0,0.0,0.0,Started waypoint mission,
20.745509550184707,-103.51430451251437,13000,20.0,2.9017239,16,5,-4.6000000000000005,-4.5,-91.9,2019-10-25 16:52:13.8310+0000,-0.10001897811889648,0.1,0.0,-2.9,true,55,-20228,2168,22090,44.25,14,false,100,100,0,0,0,0,0,3671,3661,3676,3692,3715,3677,0.0,0.0,0.0,Started waypoint mission,
20.745509752821793,-103.51430426904986,13000,20.200000000000003,2.8017852,16,5,-4.7,-4.800000000000001,-92.0,2019-10-25 16:52:13.9290+0000,-0.09784400463104248,0.1,0.0,-2.8,true,55,-20228,2168,22090,44.25,14,false,100,100,0,0,0,0,0,3679,3661,3684,3696,3714,3678,0.0,0.0,0.0,Started waypoint mission,
20.745509979467656,-103.51430404847332,13000,20.5,2.8017852,16,5,-4.7,-4.800000000000001,-92.2,2019-10-25 16:52:14.0290+0000,-0.09969496726989746,0.1,0.0,-2.8,true,55,-20228,2168,22090,44.25,14,false,100,100,0,0,0,0,0,3679,3661,3684,3696,3714,3678,0.0,0.0,0.0,Started waypoint mission,
20.745510219160963,-103.51430385546023,13000,20.8,2.8017852,16,5,-4.6000000000000005,-4.6000000000000005,-92.30000000000001,2019-10-25 16:52:14.0330+0000,-0.0033309459686279297,0.1,0.0,-2.8,true,55,-20228,2168,22090,44.25,14,false,100,100,0,0,0,0,0,3679,3661,3684,3696,3714,3678,0.0,0.0,0.0,Started waypoint mission,
20.74551048234254,-103.5143036850074,13000,21.1,2.8017852,16,5,-4.4,-4.6000000000000005,-92.30000000000001,2019-10-25 16:52:14.2400+0000,-0.2056739330291748,0.1,0.0,-2.8,true,55,-20228,2168,22090,44.25,14,false,100,100,0,0,0,0,0,3679,3661,3684,3696,3714,3678,0.0,0.0,0.0,Started waypoint mission,
20.745510765239484,-103.5143035314322,13000,21.400000000000002,2.8017852,16,5,-4.3,-4.7,-92.30000000000001,2019-10-25 16:52:14.3490+0000,-0.10875701904296875,0.1,0.0,-2.8,true,55,-20228,2168,22090,44.25,14,false,100,100,0,0,0,0,0,3679,3661,3684,3696,3714,3678,0.0,0.0,0.0,Started waypoint mission,
20.74551102509095,-103.51430341899491,13000,21.6,2.6019223,16,5,-4.2,-4.800000000000001,-92.30000000000001,2019-10-25 16:52:14.4500+0000,-0.10012292861938477,0.1,0.0,-2.6,true,55,-20228,2168,22090,44.35000000000002,14,false,100,100,0,0,0,0,0,3679,3661,3684,3696,3714,3678,0.0,0.0,0.0,Started waypoint mission,
20.745511258614346,-103.51430333960043,13000,21.900000000000002,2.7018514,16,5,-4.1000000000000005,-4.800000000000001,-92.2,2019-10-25 16:52:14.4510+0000,-0.0011179447174072266,0.0,-0.1,-2.7,true,55,-20228,2168,22090,44.35000000000002,14,false,100,100,0,0,0,0,0,3679,3661,3684,3696,3714,3678,0.0,0.0,0.0,Started waypoint mission,
20.74551152467948,-103.5143032958103,13000,22.200000000000003,2.9017239,16,5,-3.9000000000000004,-4.800000000000001,-92.10000000000001,2019-10-25 16:52:14.5670+0000,-0.11558198928833008,0.0,-0.1,-2.9,true,55,-20228,2168,22090,44.35000000000002,14,false,100,100,0,0,0,0,0,3679,3661,3684,3696,3714,3678,0.0,0.0,0.0,Started waypoint mission,
20.745511827418284,-103.5143032860425,13000,22.5,3.0016663,16,5,-3.7,-4.9,-91.9,2019-10-25 16:52:14.6700+0000,-0.10157299041748047,0.0,-0.1,-3.0,true,55,-20228,2168,22090,44.35000000000002,14,false,100,100,0,0,0,0,0,3679,3661,3684,3696,3714,3678,0.0,0.0,0.0,Started waypoint mission,
20.745512164763745,-103.51430332231415,13000,22.8,2.9017239,16,5,-3.4000000000000004,-5.300000000000001,-91.7,2019-10-25 16:52:14.7850+0000,-0.11470496654510498,0.0,-0.1,-2.9,true,55,-20228,2168,22090,44.35000000000002,14,false,100,100,0,0,0,0,0,3679,3661,3684,3696,3714,3678,0.0,0.0,0.0,Started waypoint mission,
20.74551253164764,-103.51430339061473,14000,23.1,3.0016663,16,5,-3.2,-5.9,-91.60000000000001,2019-10-25 16:52:14.8950+0000,-0.10972297191619873,0.0,-0.1,-3.0,true,55,-20146,2129,22074,44.35000000000002,14,false,100,100,0,0,0,0,0,3670,3656,3676,3685,3710,3673,0.0,0.0,0.0,Started waypoint mission,
20.745512906742153,-103.5143034788484,14000,23.400000000000002,2.9017239,16,5,-2.9000000000000004,-6.4,-91.5,2019-10-25 16:52:14.9850+0000,-0.08902204036712646,0.0,-0.1,-2.9,true,55,-20146,2129,22074,44.35000000000002,14,false,100,100,0,0,0,0,0,3670,3656,3676,3685,3710,3673,0.0,0.0,0.0,Started waypoint mission,
20.745513278169323,-103.51430358287408,14000,23.700000000000003,2.9017239,16,5,-2.7,-6.7,-91.4,2019-10-25 16:52:15.0860+0000,-0.1002049446105957,0.0,-0.1,-2.9,true,55,-20146,2129,22074,44.35000000000002,14,false,100,100,0,0,0,0,0,3670,3656,3676,3685,3710,3673,0.0,0.0,0.0,Started waypoint mission,
20.745513954391974,-103.51430381653259,14000,24.200000000000003,2.9017239,16,5,-2.3000000000000003,-7.1000000000000005,-91.7,2019-10-25 16:52:15.2900+0000,-0.20348989963531494,0.0,-0.1,-2.9,true,55,-20146,2129,22074,44.35000000000002,14,false,100,98,0,0,0,0,0,3670,3656,3676,3685,3710,3673,0.0,0.0,0.0,Started waypoint mission,
20.745514252033747,-103.51430395864129,14000,24.5,3.0016663,16,5,-2.4000000000000004,-7.300000000000001,-91.9,2019-10-25 16:52:15.3920+0000,-0.10157597064971924,0.0,-0.1,-3.0,true,54,-20146,2129,22074,44.35000000000002,14,false,100,98,0,0,0,0,0,3670,3656,3676,3685,3710,3673,0.0,0.0,0.0,Started waypoint mission,
20.745514518911985,-103.51430411815556,14000,24.900000000000002,3.0016663,16,5,-2.3000000000000003,-7.300000000000001,-92.0,2019-10-25 16:52:15.5290+0000,-0.13621604442596436,0.0,-0.1,-3.0,true,54,-20146,2129,22074,44.35000000000002,14,false,100,98,0,0,0,0,0,3670,3656,3676,3685,3710,3673,0.0,0.0,0.0,Started waypoint mission,
20.7455147581475,-103.51430430443769,14000,25.200000000000003,3.0016663,16,5,-2.3000000000000003,-7.300000000000001,-92.2,2019-10-25 16:52:15.6180+0000,-0.08788192272186279,0.0,-0.1,-3.0,true,54,-20146,2129,22074,44.35000000000002,14,false,100,98,0,0,0,0,0,3670,3656,3676,3685,3710,3673,0.0,0.0,0.0,Started waypoint mission,
20.74551497206723,-103.51430451154093,14000,25.5,2.9017239,16,5,-2.1,-7.300000000000001,-92.30000000000001,2019-10-25 16:52:15.6990+0000,-0.08084797859191895,0.0,-0.1,-2.9,true,54,-20146,2129,22074,44.35000000000002,14,false,100,98,0,0,0,0,0,3670,3656,3676,3685,3710,3673,0.0,0.0,0.0,Started waypoint mission,
20.74551515868948,-103.51430478026249,15000,25.8,2.9086082,16,5,-2.0,-7.1000000000000005,-92.2,2019-10-25 16:52:15.8300+0000,-0.12975001335144043,-0.1,-0.2,-2.9,true,54,-20146,2129,22074,44.35000000000002,14,false,100,98,0,0,0,0,0,3670,3656,3676,3685,3710,3673,0.0,0.0,0.0,Started waypoint mission,
20.745515317353714,-103.51430509850049,15000,26.1,2.9086082,16,5,-1.7000000000000002,-6.800000000000001,-92.10000000000001,2019-10-25 16:52:15.9330+0000,-0.10247802734375,-0.1,-0.2,-2.9,true,54,-21122,2129,22011,44.35000000000002,14,false,100,98,0,0,0,0,0,3641,3634,3660,3667,3680,3656,0.0,0.0,0.0,Started waypoint mission,
20.745515422065417,-103.51430542777078,15000,26.3,2.9086082,16,5,-1.2000000000000002,-6.4,-92.10000000000001,2019-10-25 16:52:16.0360+0000,-0.10311102867126465,-0.1,-0.2,-2.9,true,54,-21122,2129,22011,44.35000000000002,14,false,100,98,0,0,0,0,0,3641,3634,3660,3667,3680,3656,0.0,0.0,0.0,Started waypoint mission,
20.74551548303213,-103.51430575948353,15000,26.700000000000003,3.0083218,16,5,-0.7000000000000001,-6.2,-92.10000000000001,2019-10-25 16:52:16.1380+0000,-0.10132706165313721,-0.1,-0.2,-3.0,true,54,-21122,2129,22011,44.35000000000002,14,false,100,98,0,0,0,0,0,3641,3634,3660,3667,3680,3656,0.0,0.0,0.0,Started waypoint mission,
20.745515535076002,-103.51430613634851,15000,26.900000000000002,2.9086082,16,5,-0.4,-6.0,-92.0,2019-10-25 16:52:16.2350+0000,-0.09588491916656494,-0.1,-0.2,-2.9,true,54,-21122,2129,22011,44.35000000000002,14,false,100,98,0,0,0,0,0,3641,3634,3660,3667,3680,3656,0.0,0.0,0.0,Started waypoint mission,
20.74551558266191,-103.51430654206602,15000,27.200000000000003,3.0133038,16,5,-0.1,-5.9,-92.0,2019-10-25 16:52:16.3300+0000,-0.09487295150756836,-0.2,-0.2,-3.0,true,54,-21122,2129,22011,44.35000000000002,14,false,100,98,0,0,0,0,0,3641,3634,3660,3667,3680,3656,0.0,0.0,0.0,Started waypoint mission,
20.74551560356867,-103.5143069413671,15000,27.5,2.9137607,16,5,0.2,-5.9,-92.0,2019-10-25 16:52:16.4310+0000,-0.09994709491729736,-0.2,-0.2,-2.9,true,54,-21122,2129,22011,44.35000000000002,14,false,100,98,0,0,0,0,0,3641,3634,3660,3667,3680,3656,0.0,0.0,0.0,Started waypoint mission,
20.745515601836107,-103.51430733153877,15000,27.8,3.0083218,16,5,0.6000000000000001,-5.9,-92.0,2019-10-25 16:52:16.5550+0000,-0.12323296070098877,-0.2,-0.1,-3.0,true,54,-21122,2129,22011,44.35000000000002,14,false,100,98,0,0,0,0,0,3641,3634,3660,3667,3680,3656,0.0,0.0,0.0,Started waypoint mission,
20.745515567197838,-103.51430773516746,15000,28.1,2.9086082,16,5,0.8,-5.7,-92.0,2019-10-25 16:52:16.5580+0000,-0.0020810365676879883,-0.2,-0.1,-2.9,true,54,-21122,2129,22011,44.35000000000002,14,false,100,98,0,0,0,0,0,3641,3634,3660,3667,3680,3656,0.0,0.0,0.0,Started waypoint mission,
20.74551550434996,-103.51430814126435,15000,28.400000000000002,3.0083218,16,5,1.0,-5.5,-92.0,2019-10-25 16:52:16.6410+0000,-0.08299195766448975,-0.2,-0.1,-3.0,true,54,-21122,2129,22011,44.35000000000002,14,false,100,98,0,0,0,0,0,3641,3634,3660,3667,3680,3656,0.0,0.0,0.0,Started waypoint mission,
20.74551539349194,-103.5143085500149,15000,28.700000000000003,2.9086082,16,5,1.1,-5.300000000000001,-92.0,2019-10-25 16:52:16.7520+0000,-0.10995900630950928,-0.2,-0.1,-2.9,true,54,-21122,2129,22011,44.35000000000002,14,false,100,100,0,0,0,0,0,3641,3634,3660,3667,3680,3656,0.0,0.0,0.0,Started waypoint mission,
20.745515239590194,-103.51430895844541,16000,29.0,3.0083218,16,5,1.3,-5.0,-92.0,2019-10-25 16:52:16.8700+0000,-0.11812794208526611,-0.2,-0.1,-3.0,true,54,-20816,2129,21976,44.35000000000002,14,false,100,100,0,0,0,0,0,3656,3645,3659,3666,3694,3658,0.0,0.0,0.0,Started waypoint mission,
20.745515058055965,-103.51430932925372,16000,29.3,2.9086082,16,5,1.4000000000000001,-4.6000000000000005,-92.0,2019-10-25 16:52:16.9630+0000,-0.09177398681640625,-0.2,-0.1,-2.9,true,54,-20816,2129,21976,44.35000000000002,14,false,100,100,0,0,0,0,0,3656,3645,3659,3666,3694,3658,0.0,0.0,0.0,Started waypoint mission,
20.74551486048587,-103.51430966276091,16000,29.6,3.0066593,16,5,1.6,-4.4,-92.10000000000001,2019-10-25 16:52:17.0600+0000,-0.09670400619506836,-0.2,0.0,-3.0,true,54,-20816,2129,21976,44.35000000000002,14,false,100,100,0,0,0,0,0,3656,3645,3659,3666,3694,3658,0.0,0.0,0.0,Started waypoint mission,
20.745514632394272,-103.51430998272428,16000,29.900000000000002,3.0066593,16,5,1.5,-4.2,-92.2,2019-10-25 16:52:17.1750+0000,-0.11362802982330322,-0.2,0.0,-3.0,true,54,-20816,2129,21976,44.35000000000002,14,false,100,100,0,0,0,0,0,3656,3645,3659,3666,3694,3658,0.0,0.0,0.0,Started waypoint mission,
20.745514383063757,-103.51431028852109,16000,30.200000000000003,3.0066593,16,5,1.4000000000000001,-4.0,-92.30000000000001,2019-10-25 16:52:17.3050+0000,-0.13004803657531738,-0.2,0.0,-3.0,true,54,-20816,2129,21976,44.35000000000002,14,false,100,100,0,0,0,0,0,3656,3645,3659,3666,3694,3658,0.0,0.0,0.0,Started waypoint mission,
20.745514084240316,-103.51431056682904,16000,30.5,3.0066593,16,5,1.4000000000000001,-3.8000000000000003,-92.30000000000001,2019-10-25 16:52:17.4030+0000,-0.09780097007751465,-0.2,0.0,-3.0,true,54,-20816,2129,21976,44.35000000000002,14,false,100,100,0,0,0,0,0,3656,3645,3659,3666,3694,3658,0.0,0.0,0.0,Started waypoint mission,
20.745513748766278,-103.51431082133276,16000,30.8,2.915476,16,5,1.4000000000000001,-3.5,-92.30000000000001,2019-10-25 16:52:17.5020+0000,-0.09805703163146973,-0.3,0.0,-2.9,true,54,-20816,2129,21976,44.35000000000002,14,false,100,100,0,0,0,0,0,3656,3645,3659,3666,3694,3658,0.0,0.0,0.0,Started waypoint mission,
20.745513404566392,-103.51431104332586,16000,31.1,3.0149627,16,5,1.5,-3.1,-92.4,2019-10-25 16:52:17.6010+0000,-0.09824502468109131,-0.3,0.0,-3.0,true,54,-20816,2129,21976,44.35000000000002,14,false,100,100,0,0,0,0,0,3656,3645,3659,3666,3694,3658,0.0,0.0,0.0,Started waypoint mission,
20.745513056777373,-103.51431123390856,16000,31.400000000000002,3.0149627,16,5,1.4000000000000001,-2.7,-92.4,2019-10-25 16:52:17.7000+0000,-0.09867894649505615,-0.3,0.0,-3.0,true,54,-20816,2129,21976,44.35000000000002,14,false,100,100,0,0,0,0,0,3656,3645,3659,3666,3694,3658,0.0,0.0,0.0,Started waypoint mission,
20.745512669841656,-103.51431139797839,16000,31.700000000000003,3.0066593,16,5,1.3,-2.4000000000000004,-92.4,2019-10-25 16:52:17.8010+0000,-0.10057497024536133,-0.2,0.0,-3.0,true,54,-20816,2129,21976,44.35000000000002,14,false,100,100,0,0,0,0,0,3656,3645,3659,3666,3694,3658,0.0,0.0,0.0,Started waypoint mission,
20.745512257233457,-103.51431153662121,17000,32.0,3.0083218,16,5,1.1,-2.0,-92.4,2019-10-25 16:52:17.9010+0000,-0.09879803657531738,-0.2,0.1,-3.0,true,54,-21044,2129,21958,44.35000000000002,14,false,100,100,0,0,0,0,0,3645,3631,3658,3665,3688,3652,0.0,0.0,0.0,Started waypoint mission,
20.745511840104186,-103.51431163816733,17000,32.300000000000004,3.0083218,16,5,1.0,-1.6,-92.4,2019-10-25 16:52:18.0140+0000,-0.11220300197601318,-0.2,0.1,-3.0,true,54,-21044,2129,21958,44.35000000000002,14,false,100,100,0,0,0,0,0,3645,3631,3658,3665,3688,3652,0.0,0.0,0.0,Started waypoint mission,
20.74551142954838,-103.51431170837513,17000,32.7,3.0083218,16,5,1.0,-1.3,-92.30000000000001,2019-10-25 16:52:18.1320+0000,-0.11791205406188965,-0.2,0.1,-3.0,true,54,-21044,2129,21958,44.35000000000002,14,false,100,100,0,0,0,0,0,3645,3631,3658,3665,3688,3652,0.0,0.0,0.0,Started waypoint mission,
20.745511018558766,-103.51431171069295,17000,33.0,3.0083218,16,5,0.9,-1.0,-92.2,2019-10-25 16:52:18.2310+0000,-0.09775006771087646,-0.2,0.1,-3.0,true,54,-21044,2129,21958,44.35000000000002,14,false,100,100,0,0,0,0,0,3645,3631,3658,3665,3688,3652,0.0,0.0,0.0,Started waypoint mission,
20.745510611613618,-103.51431165613735,17000,33.300000000000004,2.9086082,16,5,0.7000000000000001,-0.7000000000000001,-92.2,2019-10-25 16:52:18.3340+0000,-0.10295295715332031,-0.2,0.1,-2.9,true,54,-21044,2129,21958,44.35000000000002,14,false,100,100,0,0,0,0,0,3645,3631,3658,3665,3688,3652,0.0,0.0,0.0,Started waypoint mission,
20.745510195938365,-103.51431162368414,17000,33.6,3.0133038,16,5,0.30000000000000004,-0.6000000000000001,-92.10000000000001,2019-10-25 16:52:18.4310+0000,-0.09605693817138672,-0.2,0.2,-3.0,true,54,-21044,2129,21958,44.35000000000002,14,false,100,100,0,0,0,0,0,3645,3631,3658,3665,3688,3652,0.0,0.0,0.0,Started waypoint mission,
20.745509776716553,-103.5143116124267,17000,33.9,3.0083218,16,5,0.0,-0.30000000000000004,-92.0,2019-10-25 16:52:18.5310+0000,-0.10004198551177979,-0.1,0.2,-3.0,true,54,-21044,2129,21958,44.35000000000002,14,false,100,100,0,0,0,0,0,3645,3631,3658,3665,3688,3652,0.0,0.0,0.0,Started waypoint mission,
20.7455093699566,-103.51431151538173,17000,34.2,3.0083218,16,5,-0.1,-0.1,-92.0,2019-10-25 16:52:18.6330+0000,-0.10120093822479248,-0.1,0.2,-3.0,true,54,-21044,2129,21958,44.35000000000002,14,false,100,100,0,0,0,0,0,3645,3631,3658,3665,3688,3652,0.0,0.0,0.0,Started waypoint mission,
20.74550898011625,-103.51431135172896,17000,34.5,3.0083218,16,5,-0.2,-0.1,-92.0,2019-10-25 16:52:18.7310+0000,-0.09671306610107422,-0.1,0.2,-3.0,true,54,-21044,2129,21958,44.35000000000002,14,false,100,100,0,0,0,0,0,3645,3631,3658,3665,3688,3652,0.0,0.0,0.0,Started waypoint mission,
20.745508598310778,-103.5143111457849,18000,34.800000000000004,3.0083218,16,5,-0.5,-0.1,-92.0,2019-10-25 16:52:18.8330+0000,-0.10144102573394775,-0.1,0.2,-3.0,true,54,-21044,2129,21958,44.35000000000002,14,false,100,100,0,0,0,0,0,3645,3631,3658,3665,3688,3652,0.0,0.0,0.0,Started waypoint mission,
20.745508228825376,-103.51431090417117,18000,35.2,3.1064448,16,5,-1.1,-0.1,-92.10000000000001,2019-10-25 16:52:18.9310+0000,-0.09781408309936523,0.0,0.2,-3.1,true,54,-21073,2129,21950,44.450000000000045,14,false,100,100,0,0,0,0,0,3645,3631,3658,3665,3688,3652,0.0,0.0,0.0,Started waypoint mission,
20.745507872649856,-103.51431058894283,18000,35.5,3.1064448,16,5,-1.5,0.0,-92.10000000000001,2019-10-25 16:52:18.9340+0000,-0.001922011375427246,0.0,0.2,-3.1,true,54,-21073,2129,21950,44.450000000000045,14,false,100,100,0,0,0,0,0,3645,3631,3658,3665,3688,3652,0.0,0.0,0.0,Started waypoint mission,
20.745507531713468,-103.5143102071737,18000,35.9,3.1064448,16,5,-2.0,0.0,-92.10000000000001,2019-10-25 16:52:19.0400+0000,-0.10641205310821533,0.0,0.2,-3.1,true,54,-21073,2129,21950,44.450000000000045,14,false,100,100,0,0,0,0,0,3645,3631,3658,3665,3688,3652,0.0,0.0,0.0,Started waypoint mission,
20.74550723462318,-103.51430981662728,18000,36.2,3.0066593,16,5,-2.6,0.1,-92.0,2019-10-25 16:52:19.2640+0000,-0.22341609001159668,0.0,0.2,-3.0,true,54,-21073,2129,21950,44.450000000000045,14,false,100,100,0,0,0,0,0,3645,3631,3658,3665,3688,3652,0.0,0.0,0.0,Started waypoint mission,
20.74550697389107,-103.51430942760753,18000,36.5,2.9068885,16,5,-3.1,0.2,-92.0,2019-10-25 16:52:19.2680+0000,-0.0026149749755859375,0.0,0.2,-2.9,true,54,-21073,2129,21950,44.450000000000045,14,false,100,100,0,0,0,0,0,3645,3631,3658,3665,3688,3652,0.0,0.0,0.0,Started waypoint mission,
20.745506750712778,-103.51430901440699,18000,36.800000000000004,2.9068885,16,5,-3.5,0.2,-91.9,2019-10-25 16:52:19.3580+0000,-0.08945906162261963,0.0,0.2,-2.9,true,54,-21073,2129,21950,44.450000000000045,14,false,100,100,0,0,0,0,0,0,0,0,0,0,0,0.0,0.0,0.0,Started waypoint mission,
20.74550656487658,-103.51430859377147,18000,37.1,2.8071337,16,5,-3.8000000000000003,0.2,-91.9,2019-10-25 16:52:19.4520+0000,-0.09341597557067871,0.0,0.2,-2.8,true,54,-21073,2129,21950,44.450000000000045,14,false,100,100,0,0,0,0,0,3653,3628,3664,3660,3684,3655,0.0,0.0,0.0,Started waypoint mission,
20.74550641152294,-103.51430816079775,18000,37.4,2.8071337,16,5,-3.9000000000000004,0.0,-91.9,2019-10-25 16:52:19.5620+0000,-0.10934507846832275,0.0,0.2,-2.8,true,54,-21073,2129,21950,44.450000000000045,14,false,100,100,0,0,0,0,0,3653,3628,3664,3660,3684,3655,0.0,0.0,0.0,Started waypoint mission,
20.745506289158236,-103.51430772455733,18000,37.7,2.8071337,16,5,-4.1000000000000005,-0.1,-91.9,2019-10-25 16:52:19.6720+0000,-0.10962200164794922,0.0,0.2,-2.8,true,54,-21073,2129,21950,44.450000000000045,14,false,100,100,0,0,0,0,0,3653,3628,3664,3660,3684,3655,0.0,0.0,0.0,Started waypoint mission,
20.74550620576667,-103.51430728895518,18000,38.0,2.9034464,16,5,-4.1000000000000005,-0.30000000000000004,-91.80000000000001,2019-10-25 16:52:19.7720+0000,-0.09914100170135498,0.1,0.1,-2.9,true,54,-21073,2129,21950,44.450000000000045,14,false,100,100,0,0,0,0,0,3653,3628,3664,3660,3684,3655,0.0,0.0,0.0,Started waypoint mission,
20.745506154323277,-103.51430685541945,19000,38.300000000000004,2.9034464,16,5,-4.3,-0.4,-91.80000000000001,2019-10-25 16:52:19.8870+0000,-0.11490106582641602,0.1,0.1,-2.9,true,54,-21073,2129,21950,44.55000000000001,14,false,100,100,0,0,0,0,0,3653,3628,3664,3660,3684,3655,0.0,0.0,0.0,Started waypoint mission,
20.745506170249495,-103.51430642510014,19000,38.6,2.803569,16,5,-4.5,-0.7000000000000001,-91.60000000000001,2019-10-25 16:52:19.9710+0000,-0.08393597602844238,0.1,0.1,-2.8,true,54,-21073,2129,21950,44.55000000000001,14,false,100,100,0,0,0,0,0,3653,3628,3664,3660,3684,3655,0.0,0.0,0.0,Started waypoint mission,
20.745506239677685,-103.51430599895201,19000,38.900000000000006,2.803569,16,5,-4.800000000000001,-1.0,-91.5,2019-10-25 16:52:20.0760+0000,-0.10401296615600586,0.1,0.1,-2.8,true,54,-21073,2129,21950,44.55000000000001,14,false,100,100,0,0,0,0,0,3653,3628,3664,3660,3684,3655,0.0,0.0,0.0,Started waypoint mission,
20.745506343046667,-103.51430556325471,19000,39.2,2.8089144,16,5,-5.0,-1.4000000000000001,-91.5,2019-10-25 16:52:20.2110+0000,-0.13404202461242676,0.2,0.1,-2.8,true,54,-21073,2129,21950,44.55000000000001,14,false,100,100,0,0,0,0,0,3653,3628,3664,3660,3684,3655,0.0,0.0,0.0,Started waypoint mission,
20.745506470777606,-103.51430512579817,19000,39.5,2.8089144,16,5,-5.2,-1.8,-91.5,2019-10-25 16:52:20.3030+0000,-0.09197998046875,0.2,0.1,-2.8,true,54,-21073,2129,21950,44.55000000000001,14,false,100,100,0,0,0,0,0,3653,3628,3664,3660,3684,3655,0.0,0.0,0.0,Started waypoint mission,
20.74550666129157,-103.51430471603209,19000,39.800000000000004,2.8071337,16,5,-5.300000000000001,-2.2,-91.60000000000001,2019-10-25 16:52:20.4020+0000,-0.09835207462310791,0.2,0.0,-2.8,true,54,-20836,2129,21939,44.55000000000001,14,false,100,100,0,0,0,0,0,3648,3624,3669,3653,3680,3657,0.0,0.0,0.0,Started waypoint mission,
20.7455068996648,-103.51430433333219,19000,40.1,2.7073975,16,5,-5.5,-2.7,-91.7,2019-10-25 16:52:20.5010+0000,-0.09848105907440186,0.2,0.0,-2.7,true,54,-20836,2129,21939,44.55000000000001,14,false,100,100,0,0,0,0,0,3648,3624,3669,3653,3680,3657,0.0,0.0,0.0,Started waypoint mission,
20.74550714798071,-103.5143039652275,19000,40.400000000000006,2.8071337,16,5,-5.7,-3.1,-91.80000000000001,2019-10-25 16:52:20.6300+0000,-0.12840092182159424,0.2,0.0,-2.8,true,54,-20836,2129,21939,44.55000000000001,14,false,100,100,0,0,0,0,0,3648,3624,3669,3653,3680,3657,0.0,0.0,0.0,Started waypoint mission,
20.745507398098805,-103.51430361928914,19000,40.7,2.7073975,16,5,-5.800000000000001,-3.4000000000000004,-91.9,2019-10-25 16:52:20.7250+0000,-0.09291303157806396,0.2,0.0,-2.7,true,54,-20836,2129,21939,44.55000000000001,14,false,100,100,0,0,0,0,0,3648,3624,3669,3653,3680,3657,0.0,0.0,0.0,Started waypoint mission,
20.74550768932983,-103.51430327983311,20000,40.900000000000006,2.7073975,16,5,-5.800000000000001,-3.6,-91.9,2019-10-25 16:52:20.8250+0000,-0.0986710786819458,0.2,0.0,-2.7,true,54,-20836,2129,21939,44.55000000000001,14,false,100,100,0,0,0,0,0,3648,3624,3669,3653,3680,3657,0.0,0.0,0.0,Started waypoint mission,
20.745508006769416,-103.51430294959985,20000,41.2,2.8071337,16,5,-5.800000000000001,-3.7,-92.0,2019-10-25 16:52:20.9300+0000,-0.10459709167480469,0.2,0.0,-2.8,true,54,-20836,2129,21939,44.55000000000001,14,false,100,100,0,0,0,0,0,3648,3624,3669,3653,3680,3657,0.0,0.0,0.0,Started waypoint mission,
20.745508345394228,-103.51430268245724,20000,41.5,2.7073975,16,5,-5.7,-3.9000000000000004,-92.0,2019-10-25 16:52:21.0400+0000,-0.10913205146789551,0.2,0.0,-2.7,true,54,-20836,2129,21939,44.55000000000001,14,false,100,100,0,0,0,0,0,3648,3624,3669,3653,3680,3657,0.0,0.0,0.0,Started waypoint mission,
20.74550870239448,-103.51430247038789,20000,41.800000000000004,2.8071337,16,5,-5.5,-4.2,-92.10000000000001,2019-10-25 16:52:21.1440+0000,-0.10338497161865234,0.2,0.0,-2.8,true,54,-20836,2129,21939,44.55000000000001,14,false,100,100,0,0,0,0,0,3648,3624,3669,3653,3680,3657,0.0,0.0,0.0,Started waypoint mission,
20.745509119560985,-103.51430229705078,20000,42.1,2.8089144,16,5,-5.300000000000001,-4.4,-92.2,2019-10-25 16:52:21.2380+0000,-0.09369802474975586,0.2,-0.1,-2.8,true,54,-20836,2129,21939,44.55000000000001,14,false,100,100,0,0,0,0,0,3648,3624,3669,3653,3680,3657,0.0,0.0,0.0,Started waypoint mission,
20.745509584596498,-103.5143021597926,20000,42.300000000000004,2.8089144,16,5,-5.1000000000000005,-4.9,-92.2,2019-10-25 16:52:21.3430+0000,-0.10394299030303955,0.2,-0.1,-2.8,true,54,-20836,2129,21939,44.55000000000001,14,false,100,100,0,0,0,0,0,3648,3624,3669,3653,3680,3657,0.0,0.0,0.0,Started waypoint mission,
20.74551006043925,-103.51430207890942,20000,42.6,2.7092435,16,5,-4.9,-5.4,-92.2,2019-10-25 16:52:21.4540+0000,-0.11092090606689453,0.2,-0.1,-2.7,true,54,-20058,2089,21975,44.55000000000001,14,false,100,100,0,0,0,0,0,3653,3616,3661,3662,3698,3664,0.0,0.0,0.0,Started waypoint mission,
20.745510533662895,-103.51430204672215,20000,42.900000000000006,2.8089144,16,5,-4.7,-5.9,-92.2,2019-10-25 16:52:21.4570+0000,-0.0018260478973388672,0.2,-0.1,-2.8,true,54,-20058,2089,21975,44.55000000000001,14,false,100,100,0,0,0,0,0,3653,3616,3661,3662,3698,3664,0.0,0.0,0.0,Started waypoint mission,
