latitude,longitude,flight_time,altitude,speed,satellites,gps_level,pitch,roll,yaw,timestamp,last_updated,velocityX,velocityY,velocityZ,isflying,remainBatteryPercent,currentCurrent,batteryChargeRemaining,batteryVoltage,batteryTemperature,flightMode,istakingphoto,downlinkSignal,uplinkSignal,radioChannel,rc_elevator,rc_aileron,rc_throttle,rc_rudder,Battery_Cell1,Battery_Cell2,Battery_Cell3,Battery_Cell4,Battery_Cell5,Battery_Cell6,gimbalPitch,gimbalYaw,gimbalRoll,app_Tip,app_Warning,appVersion,AircraftComercialName,AircraftSerialNumber,RemoteSerialNumber,BatterySerialNumber,BatteryFullCapacity,dischargeCount,batteryLife,AircraftModel,sonar_altitude,isTakingVideo
20.74550737998982,-103.51429823650605,0,0.0,0.0,14,5,-0.8,-3.2,-75.2,2019-10-25 17:05:24.1710+0000,-0.15337002277374268,0.0,0.0,0.0,false,97,-892,3868,25367,26.950000000000045,6,false,100,100,0,0,0,0,0,4232,4228,4236,4207,4230,4235,0.0,0.0,0.0,Started waypoint mission,,Flight1_3.1.0_(3),DJI,041DE70691,03LJ7004AS,9971173700031,3988,88,78,Explore1, ,false
20.745507375298466,-103.51429824035037,0,0.0,0.0,14,5,-0.8,-3.2,-75.2,2019-10-25 17:05:24.2670+0000,-0.09638702869415283,0.0,0.0,0.0,false,97,-892,3868,25367,26.950000000000045,6,false,100,100,0,0,0,0,0,4232,4228,4236,4207,4230,4235,0.0,0.0,0.0,Started waypoint mission,
20.745507370799814,-103.51429824410368,0,0.0,0.0,14,5,-0.8,-3.2,-75.2,2019-10-25 17:05:24.3520+0000,-0.08405697345733643,0.0,0.0,0.0,false,97,-892,3868,25367,26.950000000000045,6,false,100,100,0,0,0,0,0,4232,4228,4236,4207,4230,4235,0.0,0.0,0.0,Started waypoint mission,
20.74550736624871,-103.5142982480705,0,0.0,0.0,14,5,-0.8,-3.2,-75.2,2019-10-25 17:05:24.4540+0000,-0.10183095932006836,0.0,0.0,0.0,false,97,-892,3868,25367,26.950000000000045,6,false,100,100,0,0,0,0,0,4232,4228,4236,4207,4230,4235,0.0,0.0,0.0,Started waypoint mission,
20.74550736188067,-103.51429825205506,0,0.0,0.0,14,5,-0.8,-3.2,-75.2,2019-10-25 17:05:24.5510+0000,-0.0961160659790039,0.0,0.0,0.0,false,97,-888,3868,25368,26.950000000000045,6,false,100,100,0,0,0,0,0,4232,4227,4235,4207,4230,4235,0.0,0.0,0.0,Started waypoint mission,
20.745507357585435,-103.51429825605221,0,0.0,0.0,14,5,-0.8,-3.2,-75.2,2019-10-25 17:05:24.6430+0000,-0.0912100076675415,0.0,0.0,0.0,false,97,-888,3868,25368,26.950000000000045,6,false,100,100,0,0,0,0,0,4232,4227,4235,4207,4230,4235,0.0,0.0,0.0,Started waypoint mission,
20.745507353310543,-103.51429826039853,0,0.0,0.0,14,5,-0.8,-3.2,-75.2,2019-10-25 17:05:24.7560+0000,-0.11179399490356445,0.0,0.0,0.0,false,97,-888,3868,25368,26.950000000000045,6,false,100,100,0,0,0,0,0,4232,4227,4235,4207,4230,4235,0.0,0.0,0.0,Started waypoint mission,
20.745507349209092,-103.51429826826003,0,0.0,0.0,14,5,-0.8,-3.2,-75.2,2019-10-25 17:05:24.8530+0000,-0.09714901447296143,0.0,0.0,0.0,false,97,-888,3868,25368,26.950000000000045,6,false,100,100,0,0,0,0,0,4232,4227,4235,4207,4230,4235,0.0,0.0,0.0,Started waypoint mission,
20.745507345095323,-103.51429828057663,0,0.0,0.0,14,5,-0.8,-3.2,-75.2,2019-10-25 17:05:24.9600+0000,-0.10593295097351074,0.0,0.0,0.0,false,97,-888,3868,25368,26.950000000000045,6,false,100,99,0,0,0,0,0,4232,4227,4235,4207,4230,4235,0.0,0.0,0.0,Started waypoint mission,
20.745507344234028,-103.5142982940529,0,0.0,0.0,14,5,-0.8,-3.2,-75.2,2019-10-25 17:05:25.0690+0000,-0.10861194133758545,0.0,0.0,0.0,false,97,-888,3868,25368,26.950000000000045,6,false,100,99,0,0,0,0,0,4232,4227,4235,4207,4230,4235,0.0,0.0,0.0,Started waypoint mission,
20.7455073441714,-103.514298309907,0,0.0,0.0,14,5,-0.8,-3.2,-75.2,2019-10-25 17:05:25.1740+0000,-0.10482406616210938,0.0,0.0,0.0,false,97,-888,3868,25368,26.950000000000045,6,false,100,99,0,0,0,0,0,4232,4227,4235,4207,4230,4235,0.0,0.0,0.0,Started waypoint mission,
20.74550734570824,-103.5142983213106,0,0.0,0.0,14,5,-0.8,-3.2,-75.2,2019-10-25 17:05:25.2980+0000,-0.12346804141998291,0.0,0.0,0.0,false,97,-888,3868,25368,26.950000000000045,6,false,100,99,0,0,0,0,0,4232,4227,4235,4207,4230,4235,0.0,0.0,0.0,Started waypoint mission,
20.74550734907901,-103.5142983318424,0,0.0,0.0,14,5,-0.8,-3.2,-75.2,2019-10-25 17:05:25.3750+0000,-0.07579898834228516,0.0,0.0,0.0,false,97,-888,3868,25368,26.950000000000045,6,false,100,99,0,0,0,0,0,4232,4227,4235,4207,4230,4235,0.0,0.0,0.0,Started waypoint mission,
20.745507352065964,-103.5142983450697,0,0.0,0.0,14,5,-0.8,-3.2,-75.3,2019-10-25 17:05:25.4740+0000,-0.09805607795715332,0.0,0.0,0.0,false,97,-888,3868,25368,26.950000000000045,6,false,100,98,0,0,0,0,0,4232,4227,4235,4207,4230,4235,0.0,0.0,0.0,Started waypoint mission,
20.74550733210471,-103.51429832334209,0,0.0,0.0,14,5,-0.8,-3.2,-75.3,2019-10-25 17:05:25.4790+0000,-0.0046939849853515625,0.0,0.0,0.0,false,97,-956,3868,25356,26.950000000000045,6,false,100,98,0,0,0,0,0,0,0,0,0,0,0,0.0,0.0,0.0,Started waypoint mission,
20.74550731897277,-103.5142983199494,0,0.0,0.0,14,5,-0.8,-3.2,-75.3,2019-10-25 17:05:25.5990+0000,-0.11957597732543945,0.0,0.0,0.0,false,97,-956,3868,25356,26.950000000000045,6,false,100,98,0,0,0,0,0,4222,4222,4224,4203,4227,4229,0.0,0.0,0.0,Started waypoint mission,
20.745507308879716,-103.5142983201606,0,0.0,0.0,14,5,-0.8,-3.2,-75.3,2019-10-25 17:05:25.6960+0000,-0.09700298309326172,0.0,0.0,0.0,false,97,-956,3868,25356,26.950000000000045,6,false,100,98,0,0,0,0,0,4222,4222,4224,4203,4227,4229,0.0,0.0,0.0,Started waypoint mission,
20.74550730203967,-103.51429832293397,0,0.0,0.0,14,5,-0.7000000000000001,-3.2,-75.3,2019-10-25 17:05:25.7840+0000,-0.08659100532531738,0.0,0.0,0.0,false,97,-956,3868,25356,26.950000000000045,6,false,100,98,0,0,0,0,0,4222,4222,4224,4203,4227,4229,0.0,0.0,0.0,Started waypoint mission,
20.74550729560538,-103.51429832582063,0,0.0,0.0,14,5,-0.7000000000000001,-3.2,-75.3,2019-10-25 17:05:25.8980+0000,-0.11431407928466797,0.0,0.0,0.0,false,97,-956,3868,25356,26.950000000000045,6,false,100,98,0,0,0,0,0,4222,4222,4224,4203,4227,4229,0.0,0.0,0.0,Started waypoint mission,
20.74550729056501,-103.51429832843942,0,0.0,0.0,14,5,-0.7000000000000001,-3.2,-75.3,2019-10-25 17:05:25.9980+0000,-0.09861207008361816,0.0,0.0,0.0,false,97,-956,3868,25356,26.950000000000045,6,false,100,98,0,0,0,0,0,4222,4222,4224,4203,4227,4229,0.0,0.0,0.0,Started waypoint mission,
20.745507285862942,-103.51429833094544,0,0.0,0.0,14,5,-0.7000000000000001,-3.2,-75.3,2019-10-25 17:05:26.1030+0000,-0.10487902164459229,0.0,0.0,0.0,false,97,-956,3868,25356,26.950000000000045,11,false,100,98,0,0,0,0,0,4222,4222,4224,4203,4227,4229,0.0,0.0,0.0,Started waypoint mission,
20.74550728150668,-103.51429833470505,0,0.0,0.0,14,5,-0.8,-3.3000000000000003,-75.4,2019-10-25 17:05:26.2050+0000,-0.10101592540740967,0.0,0.0,0.0,false,97,-956,3868,25356,26.950000000000045,11,false,100,98,0,0,0,0,0,4222,4222,4224,4203,4227,4229,0.0,0.0,0.0,Started waypoint mission,
20.745507277209303,-103.51429833879035,0,0.0,0.0,14,5,-0.8,-3.2,-75.4,2019-10-25 17:05:26.3030+0000,-0.09820699691772461,0.0,0.0,0.0,false,97,-956,3868,25356,26.950000000000045,11,false,100,98,0,0,0,0,0,4222,4222,4224,4203,4227,4229,0.0,0.0,0.0,Started waypoint mission,
20.74550727272135,-103.51429834147669,0,0.0,0.0,14,5,-0.8,-3.3000000000000003,-75.4,2019-10-25 17:05:26.4190+0000,-0.11479198932647705,0.0,0.0,0.0,false,97,-956,3868,25356,26.950000000000045,11,false,100,99,0,0,0,0,0,4222,4222,4224,4203,4227,4229,0.0,0.0,0.0,Started waypoint mission,
20.745507268299786,-103.51429834354367,0,0.0,0.0,14,5,-0.8,-3.3000000000000003,-75.4,2019-10-25 17:05:26.5140+0000,-0.09486401081085205,0.0,0.0,0.0,false,97,-1276,3868,25311,26.950000000000045,11,false,100,99,0,0,0,0,0,4222,4222,4224,4203,4227,4229,0.0,0.0,0.0,Started waypoint mission,
20.74550726419083,-103.51429834616991,0,0.0,0.0,14,5,-0.7000000000000001,-3.2,-75.4,2019-10-25 17:05:26.6300+0000,-0.11516308784484863,0.0,0.0,0.0,false,97,-1276,3868,25311,26.950000000000045,11,false,100,99,0,0,0,0,0,4222,4222,4224,4203,4227,4229,0.0,0.0,0.0,Started waypoint mission,
20.745507259806732,-103.51429834927582,0,0.0,0.0,14,5,-0.7000000000000001,-3.2,-75.4,2019-10-25 17:05:26.7280+0000,-0.09754800796508789,0.0,0.0,0.0,false,97,-1276,3868,25311,26.950000000000045,11,false,100,99,0,0,0,0,0,4222,4222,4224,4203,4227,4229,0.0,0.0,0.0,Started waypoint mission,
20.74550725536696,-103.51429835182648,0,0.0,0.0,14,5,-0.7000000000000001,-3.1,-75.4,2019-10-25 17:05:26.8430+0000,-0.11441707611083984,0.0,0.0,0.0,false,97,-1276,3868,25311,26.950000000000045,11,false,100,99,0,0,0,0,0,4222,4222,4224,4203,4227,4229,0.0,0.0,0.0,Started waypoint mission,
20.745507250844753,-103.51429835439204,0,0.0,0.0,14,5,-0.7000000000000001,-3.1,-75.5,2019-10-25 17:05:26.9450+0000,-0.1021430492401123,0.0,0.0,0.0,false,97,-1276,3868,25311,26.950000000000045,11,false,100,100,0,0,0,0,0,4222,4222,4224,4203,4227,4229,0.0,0.0,0.0,Started waypoint mission,
20.745507249132856,-103.51429835648307,0,0.0,0.0,14,5,-0.7000000000000001,-3.1,-75.5,2019-10-25 17:05:27.1190+0000,-0.17329001426696777,0.0,0.0,0.0,false,97,-1276,3868,25311,26.950000000000045,11,false,100,100,0,0,0,0,0,4221,4049,4226,4020,4220,4221,0.0,0.0,0.0,Started waypoint mission,
20.745507251249403,-103.51429835730279,0,0.0,0.0,14,5,-0.7000000000000001,-3.1,-75.60000000000001,2019-10-25 17:05:27.1580+0000,-0.038385987281799316,0.0,0.0,0.0,false,97,-1276,3868,25311,26.950000000000045,11,false,100,100,0,0,0,0,0,4221,4049,4226,4020,4220,4221,0.0,0.0,0.0,Started waypoint mission,
20.745507258755335,-103.51429835127989,0,0.0,0.0,14,5,-0.6000000000000001,-3.1,-75.60000000000001,2019-10-25 17:05:27.2630+0000,-0.10392308235168457,0.0,0.0,0.0,false,97,-1276,3868,25311,26.950000000000045,11,false,100,100,0,0,0,0,0,4221,4049,4226,4020,4220,4221,0.0,0.0,0.0,Started waypoint mission,
20.745507272779054,-103.51429834428161,0,0.0,0.1,14,5,-0.9,-2.8000000000000003,-75.7,2019-10-25 17:05:27.3540+0000,-0.09030508995056152,0.0,0.0,0.1,false,97,-1276,3868,25311,26.950000000000045,11,false,100,100,0,0,0,0,0,4221,4049,4226,4020,4220,4221,0.0,0.0,0.0,Started waypoint mission,
20.74550729462562,-103.51429834694278,0,-0.1,0.1,14,5,-1.3,-2.4000000000000004,-75.7,2019-10-25 17:05:27.4790+0000,-0.12506496906280518,0.0,0.0,0.1,false,97,-1276,3868,25311,26.950000000000045,11,false,100,100,0,0,0,0,0,4221,4049,4226,4020,4220,4221,0.0,0.0,0.0,Started waypoint mission,
20.74550732894678,-103.51429835141165,0,-0.1,0.1,14,5,-1.4000000000000001,-1.5,-75.8,2019-10-25 17:05:27.5750+0000,-0.09529709815979004,0.0,0.0,0.1,false,97,-1276,3868,25311,26.950000000000045,11,false,100,100,0,0,0,0,0,4221,4049,4226,4020,4220,4221,0.0,0.0,0.0,Started waypoint mission,
20.745507386012772,-103.51429835062002,0,-0.1,0.1,14,5,-2.0,0.2,-76.0,2019-10-25 17:05:27.6770+0000,-0.1011580228805542,0.1,0.0,0.0,false,97,-1276,3868,25311,26.950000000000045,11,false,100,100,0,0,0,0,0,4221,4049,4226,4020,4220,4221,0.0,0.0,0.0,Started waypoint mission,
20.74550749905333,-103.51429834655308,0,-0.1,0.1,14,5,-2.7,1.3,-76.80000000000001,2019-10-25 17:05:27.7790+0000,-0.1015620231628418,0.1,0.0,0.0,true,97,-1276,3868,25311,26.950000000000045,11,false,100,100,0,0,0,0,0,4221,4049,4226,4020,4220,4221,0.0,0.0,0.0,Started waypoint mission,
20.74550769805587,-103.51429833727255,3000,-0.1,0.22360681,14,5,-2.2,0.7000000000000001,-77.7,2019-10-25 17:05:27.8780+0000,-0.09883499145507812,0.2,0.0,-0.1,true,97,-1276,3868,25311,26.950000000000045,11,false,100,100,0,0,0,0,0,4221,4049,4226,4020,4220,4221,0.0,0.0,0.0,Started waypoint mission,
20.745507977762706,-103.51429833094281,3000,-0.1,0.42426407,14,5,-1.3,-0.6000000000000001,-78.4,2019-10-25 17:05:27.9830+0000,-0.10383892059326172,0.3,0.0,-0.3,true,97,-1276,3868,25311,26.950000000000045,11,false,100,100,0,0,0,0,0,4221,4049,4226,4020,4220,4221,0.0,0.0,0.0,Started waypoint mission,
20.745508306071983,-103.51429831773092,3000,-0.1,0.5,14,5,-0.5,-2.2,-78.80000000000001,2019-10-25 17:05:27.9850+0000,-0.0016939640045166016,0.3,0.0,-0.4,true,97,-3209,3868,25008,26.950000000000045,11,false,100,100,0,0,0,0,0,0,0,0,0,0,0,0.0,0.0,0.0,Started waypoint mission,
20.74550865605228,-103.51429828299176,3000,0.0,0.56568545,14,5,-0.2,-3.4000000000000004,-78.9,2019-10-25 17:05:28.1040+0000,-0.11791503429412842,0.4,0.0,-0.4,true,97,-3209,3868,25008,26.950000000000045,11,false,100,100,0,0,0,0,0,4176,4154,4169,4095,4164,4146,0.0,0.0,0.0,Started waypoint mission,
20.745509016519076,-103.51429818107835,4000,0.0,0.5,14,5,-0.30000000000000004,-4.6000000000000005,-78.7,2019-10-25 17:05:28.1940+0000,-0.08988893032073975,0.3,0.0,-0.4,true,97,-3209,3868,25008,26.950000000000045,11,false,100,100,0,0,0,0,0,4176,4154,4169,4095,4164,4146,0.0,0.0,0.0,Started waypoint mission,
20.745509364990365,-103.5142980412266,4000,0.0,0.591608,14,5,-0.4,-5.1000000000000005,-78.4,2019-10-25 17:05:28.3160+0000,-0.12145602703094482,0.3,0.1,-0.5,true,97,-3209,3868,25008,26.950000000000045,11,false,100,100,0,0,0,0,0,4176,4154,4169,4095,4164,4146,0.0,0.0,0.0,Started waypoint mission,
20.745509656536957,-103.5142978416265,4000,0.0,0.591608,15,5,-0.5,-5.2,-78.10000000000001,2019-10-25 17:05:28.4210+0000,-0.104248046875,0.3,0.1,-0.5,true,97,-3209,3868,25008,26.950000000000045,11,false,100,100,0,0,0,0,0,4176,4154,4169,4095,4164,4146,0.0,0.0,0.0,Started waypoint mission,
20.745509906933556,-103.51429760650191,4000,0.0,0.591608,15,5,-0.4,-4.9,-77.7,2019-10-25 17:05:28.5230+0000,-0.10128307342529297,0.3,0.1,-0.5,true,97,-3209,3868,25008,26.950000000000045,11,false,100,100,0,0,0,0,0,4176,4154,4169,4095,4164,4146,0.0,0.0,0.0,Started waypoint mission,
20.745510162912236,-103.51429743248576,4000,0.1,0.5477226,14,5,-0.8,-4.5,-77.4,2019-10-25 17:05:28.6210+0000,-0.09759700298309326,0.2,0.1,-0.5,true,97,-3209,3868,25008,26.950000000000045,11,false,100,100,0,0,0,0,0,4176,4154,4169,4095,4164,4146,0.0,0.0,0.0,Started waypoint mission,
20.745510408053786,-103.514297270583,4000,0.1,0.4582576,14,5,-1.2000000000000002,-4.4,-77.10000000000001,2019-10-25 17:05:28.7210+0000,-0.099761962890625,0.2,0.1,-0.4,true,97,-3209,3868,25008,26.950000000000045,11,false,100,100,0,0,0,0,0,4176,4154,4169,4095,4164,4146,0.0,0.0,0.0,Started waypoint mission,
20.745510569132623,-103.51429699579488,4000,0.2,0.5477226,15,5,-1.4000000000000001,-4.4,-76.9,2019-10-25 17:05:28.8270+0000,-0.10455095767974854,0.2,0.1,-0.5,true,97,-3209,3868,25008,26.950000000000045,11,false,100,100,0,0,0,0,0,4176,4154,4169,4095,4164,4146,0.0,0.0,0.0,Started waypoint mission,
20.745510687321207,-103.51429667482857,4000,0.30000000000000004,0.5744563,15,5,-1.3,-4.2,-76.80000000000001,2019-10-25 17:05:28.9280+0000,-0.10058605670928955,0.2,0.2,-0.5,true,97,-3209,3868,25008,26.950000000000045,11,false,100,100,0,0,0,0,0,4176,4154,4169,4095,4164,4146,0.0,0.0,0.0,Started waypoint mission,
20.74551082620334,-103.5142964761953,4000,0.30000000000000004,0.4582576,15,5,-1.5,-4.0,-76.60000000000001,2019-10-25 17:05:29.0140+0000,-0.08492696285247803,0.1,0.2,-0.4,true,97,-12030,3868,23899,26.950000000000045,11,false,100,100,0,0,0,0,0,3982,3965,3948,3876,3960,3943,0.0,0.0,0.0,Started waypoint mission,
20.74551096215845,-103.51429631438873,4000,0.30000000000000004,0.37416577,15,5,-1.8,-3.7,-76.60000000000001,2019-10-25 17:05:29.1450+0000,-0.13009893894195557,0.1,0.2,-0.3,true,97,-12030,3868,23899,26.950000000000045,11,false,100,100,0,0,0,0,0,3982,3965,3948,3876,3960,3943,0.0,0.0,0.0,Started waypoint mission,
20.745511076773347,-103.51429608772162,5000,0.4,0.37416577,16,5,-1.9000000000000001,-3.4000000000000004,-76.60000000000001,2019-10-25 17:05:29.2380+0000,-0.09202897548675537,0.1,0.2,-0.3,true,97,-12030,3868,23899,26.950000000000045,11,false,100,100,0,0,0,0,0,3982,3965,3948,3876,3960,3943,0.0,0.0,0.0,Started waypoint mission,
20.74551118142848,-103.51429584137095,5000,0.4,0.37416577,16,5,-1.9000000000000001,-3.4000000000000004,-76.7,2019-10-25 17:05:29.3660+0000,-0.12784898281097412,0.1,0.2,-0.3,true,97,-12030,3868,23899,26.950000000000045,11,false,100,100,0,0,0,0,0,3982,3965,3948,3876,3960,3943,0.0,0.0,0.0,Started waypoint mission,
20.745511290799076,-103.51429563318642,5000,0.4,0.4582576,15,5,-1.9000000000000001,-3.4000000000000004,-76.80000000000001,2019-10-25 17:05:29.4560+0000,-0.0893399715423584,0.1,0.2,-0.4,true,97,-12030,3868,23899,26.950000000000045,11,false,100,100,0,0,0,0,0,3982,3965,3948,3876,3960,3943,0.0,0.0,0.0,Started waypoint mission,
20.745511396837976,-103.51429543833451,5000,0.5,0.5477226,15,5,-2.1,-3.5,-76.80000000000001,2019-10-25 17:05:29.5550+0000,-0.09813499450683594,0.1,0.2,-0.5,true,97,-12030,3868,23899,26.950000000000045,11,false,100,100,0,0,0,0,0,3982,3965,3948,3876,3960,3943,0.0,0.0,0.0,Started waypoint mission,
20.745511514840253,-103.51429519947844,5000,0.5,0.5477226,15,5,-2.2,-3.5,-76.80000000000001,2019-10-25 17:05:29.6540+0000,-0.09873795509338379,0.1,0.2,-0.5,true,97,-12030,3868,23899,26.950000000000045,11,false,100,100,0,0,0,0,0,3982,3965,3948,3876,3960,3943,0.0,0.0,0.0,Started waypoint mission,
20.745511634301746,-103.5142949501129,5000,0.5,0.4582576,15,5,-2.5,-3.2,-76.7,2019-10-25 17:05:29.7540+0000,-0.098876953125,0.1,0.2,-0.4,true,97,-12030,3868,23899,26.950000000000045,11,false,100,100,0,0,0,0,0,3982,3965,3948,3876,3960,3943,0.0,0.0,0.0,Started waypoint mission,
20.745511735267065,-103.51429473032447,5000,0.6000000000000001,0.33166248,15,5,-2.8000000000000003,-3.1,-76.5,2019-10-25 17:05:29.8540+0000,-0.0994260311126709,0.1,0.1,-0.3,true,97,-12030,3868,23899,26.950000000000045,11,false,100,100,0,0,0,0,0,3982,3965,3948,3876,3960,3943,0.0,0.0,0.0,Started waypoint mission,
20.745511836132266,-103.51429452889501,5000,0.6000000000000001,0.33166248,15,5,-2.9000000000000004,-3.1,-76.3,2019-10-25 17:05:29.9820+0000,-0.12814998626708984,0.1,0.1,-0.3,true,97,-12030,3868,23899,26.950000000000045,11,false,100,100,0,0,0,0,0,3982,3965,3948,3876,3960,3943,0.0,0.0,0.0,Started waypoint mission,
20.745511958511116,-103.51429432269336,5000,0.6000000000000001,0.33166248,15,5,-2.7,-3.1,-76.2,2019-10-25 17:05:30.0630+0000,-0.08014202117919922,0.1,0.1,-0.3,true,97,-17111,3868,23249,26.950000000000045,11,false,100,100,0,0,0,0,0,3881,3865,3895,3831,3873,3894,0.0,0.0,0.0,Started waypoint mission,
20.74551208589366,-103.5142941215295,6000,0.6000000000000001,0.33166248,15,5,-2.5,-2.8000000000000003,-76.2,2019-10-25 17:05:30.1940+0000,-0.13044500350952148,0.1,0.1,-0.3,true,97,-17111,3868,23249,26.950000000000045,11,false,100,100,0,0,0,0,0,3881,3865,3895,3831,3873,3894,0.0,0.0,0.0,Started waypoint mission,
20.745512231994006,-103.5142939184844,6000,0.6000000000000001,0.51961523,14,5,-2.2,-2.7,-76.2,2019-10-25 17:05:30.2940+0000,-0.0989840030670166,0.1,0.1,-0.5,true,97,-17111,3868,23249,26.950000000000045,11,false,100,100,0,0,0,0,0,3881,3865,3895,3831,3873,3894,0.0,0.0,0.0,Started waypoint mission,
20.74551239234612,-103.51429370615335,6000,0.6000000000000001,0.42426407,14,5,-2.3000000000000003,-3.0,-76.2,2019-10-25 17:05:30.2970+0000,-0.0022379159927368164,0.1,0.1,-0.4,true,97,-17111,3868,23249,26.950000000000045,11,false,100,100,0,0,0,0,0,3881,3865,3895,3831,3873,3894,0.0,0.0,0.0,Started waypoint mission,
20.745512575246877,-103.51429347478704,6000,0.7000000000000001,0.42426407,13,4,-2.3000000000000003,-3.3000000000000003,-76.2,2019-10-25 17:05:30.3990+0000,-0.10205507278442383,0.1,0.1,-0.4,true,97,-17111,3868,23249,26.950000000000045,11,false,100,100,0,0,0,0,0,3881,3865,3895,3831,3873,3894,0.0,0.0,0.0,Started waypoint mission,
20.745512770329153,-103.51429323810359,6000,0.7000000000000001,0.42426407,13,4,-2.3000000000000003,-3.6,-76.3,2019-10-25 17:05:30.4960+0000,-0.09593093395233154,0.1,0.1,-0.4,true,97,-17111,3868,23249,26.950000000000045,11,false,100,100,0,0,0,0,0,0,0,0,0,0,0,0.0,0.0,0.0,Started waypoint mission,
20.745512958746147,-103.5142929158274,6000,0.7000000000000001,0.37416577,13,4,-2.3000000000000003,-3.7,-76.3,2019-10-25 17:05:30.5850+0000,-0.08846104145050049,0.1,0.2,-0.3,true,97,-17111,3868,23249,26.950000000000045,11,false,100,100,0,0,0,0,0,3881,3865,3895,3831,3873,3894,0.0,0.0,0.0,Started waypoint mission,
20.74551314388498,-103.51429255451758,6000,0.7000000000000001,0.4582576,13,4,-2.5,-3.9000000000000004,-76.4,2019-10-25 17:05:30.6960+0000,-0.11080300807952881,0.1,0.2,-0.4,true,97,-17111,3868,23249,26.950000000000045,11,false,100,100,0,0,0,0,0,3881,3865,3895,3831,3873,3894,0.0,0.0,0.0,Started waypoint mission,
20.745513348105337,-103.51429230696517,6000,0.7000000000000001,0.5477226,13,4,-2.5,-4.0,-76.4,2019-10-25 17:05:30.7950+0000,-0.09794092178344727,0.1,0.2,-0.5,true,97,-17111,3868,23249,26.950000000000045,11,false,100,100,0,0,0,0,0,3881,3865,3895,3831,3873,3894,0.0,0.0,0.0,Started waypoint mission,
20.745513556584523,-103.51429209861384,6000,0.8,0.5477226,13,4,-2.3000000000000003,-4.0,-76.5,2019-10-25 17:05:30.8950+0000,-0.10006296634674072,0.1,0.2,-0.5,true,97,-17111,3868,23249,26.950000000000045,11,false,100,100,0,0,0,0,0,3881,3865,3895,3831,3873,3894,0.0,0.0,0.0,Started waypoint mission,
20.745513753143424,-103.51429179236803,6000,0.8,0.5477226,12,4,-2.2,-3.8000000000000003,-76.60000000000001,2019-10-25 17:05:31.0210+0000,-0.12479901313781738,0.1,0.2,-0.5,true,97,-18014,3868,23043,26.950000000000045,11,false,100,100,0,0,0,0,0,3837,3844,3856,3805,3840,3866,0.0,0.0,0.0,Started waypoint mission,
20.74551394774525,-103.51429144673487,6000,0.8,0.37416577,12,4,-2.2,-3.8000000000000003,-76.7,2019-10-25 17:05:31.1050+0000,-0.0830010175704956,0.1,0.2,-0.3,true,97,-18014,3868,23043,26.950000000000045,11,false,100,100,0,0,0,0,0,3837,3844,3856,3805,3840,3866,0.0,0.0,0.0,Started waypoint mission,
20.745514349963887,-103.51429100086438,7000,0.9,0.4582576,13,4,-2.7,-4.2,-76.9,2019-10-25 17:05:31.3620+0000,-0.2564220428466797,0.1,0.2,-0.4,true,97,-18014,3868,23043,26.950000000000045,14,false,100,100,0,0,0,0,0,3837,3844,3856,3805,3840,3866,0.0,0.0,0.0,Started waypoint mission,
20.7455145210443,-103.51429068955963,7000,0.9,0.3,13,4,-3.2,-4.7,-77.0,2019-10-25 17:05:31.4430+0000,-0.08077597618103027,0.1,0.2,-0.2,true,97,-18014,3868,23043,26.950000000000045,14,false,100,100,0,0,0,0,0,3837,3844,3856,3805,3840,3866,0.0,0.0,0.0,Started waypoint mission,
20.745514678913814,-103.51429034950321,7000,0.9,0.24494898,13,4,-3.7,-4.800000000000001,-77.2,2019-10-25 17:05:31.5440+0000,-0.10019493103027344,0.1,0.2,-0.1,true,97,-18014,3868,23043,26.950000000000045,14,false,100,100,0,0,0,0,0,3837,3844,3856,3805,3840,3866,0.0,0.0,0.0,Started waypoint mission,
20.74551485427675,-103.514290075277,7000,0.9,0.3,14,4,-4.0,-4.7,-77.60000000000001,2019-10-25 17:05:31.6350+0000,-0.09067201614379883,0.1,0.2,-0.2,true,97,-18014,3868,23043,26.950000000000045,14,false,100,100,0,0,0,0,0,3837,3844,3856,3805,3840,3866,0.0,0.0,0.0,Started waypoint mission,
20.745515021424055,-103.51428984752476,7000,0.9,0.33166248,14,4,-3.9000000000000004,-4.6000000000000005,-78.10000000000001,2019-10-25 17:05:31.7990+0000,-0.16372597217559814,0.1,0.1,-0.3,true,97,-18014,3868,23043,26.950000000000045,14,false,100,100,0,0,0,0,0,3837,3844,3856,3805,3840,3866,0.0,0.0,0.0,Started waypoint mission,
20.74551514247161,-103.51428970962124,7000,0.9,0.42426407,13,4,-3.6,-4.5,-78.60000000000001,2019-10-25 17:05:31.8760+0000,-0.076011061668396,0.1,0.1,-0.4,true,97,-18014,3868,23043,26.950000000000045,14,false,100,100,0,0,0,0,0,3837,3844,3856,3805,3840,3866,0.0,0.0,0.0,Started waypoint mission,
20.74551523942037,-103.51428962679029,7000,0.9,0.60827625,13,4,-3.3000000000000003,-4.5,-79.2,2019-10-25 17:05:31.9750+0000,-0.09844100475311279,0.1,0.0,-0.6,true,97,-18014,3868,23043,26.950000000000045,14,false,100,100,0,0,0,0,0,3837,3844,3856,3805,3840,3866,0.0,0.0,0.0,Started waypoint mission,
20.74551534817299,-103.51428957427474,7000,0.9,0.7,13,4,-2.9000000000000004,-4.5,-79.60000000000001,2019-10-25 17:05:31.9780+0000,-0.0022999048233032227,0.0,0.0,-0.7,true,97,-18495,3868,22888,26.950000000000045,14,false,100,100,0,0,0,0,0,0,0,0,0,0,0,0.0,0.0,0.0,Started waypoint mission,
20.74551544722085,-103.51428954789344,7000,1.0,0.8,13,4,-2.5,-4.5,-79.9,2019-10-25 17:05:32.0850+0000,-0.1058880090713501,0.0,0.0,-0.8,true,97,-18495,3868,22888,26.950000000000045,14,false,100,100,0,0,0,0,0,3837,3844,3856,3805,3840,3866,0.0,0.0,0.0,Started waypoint mission,
20.74551557199127,-103.5142894929577,8000,1.0,1.0,13,4,-2.3000000000000003,-4.0,-80.10000000000001,2019-10-25 17:05:32.2150+0000,-0.12951505184173584,0.0,0.0,-1.0,true,97,-18495,3868,22888,26.950000000000045,14,false,100,100,0,0,0,0,0,3837,3844,3856,3805,3840,3866,0.0,0.0,0.0,Started waypoint mission,
20.745515697556414,-103.51428943633807,8000,1.2000000000000002,1.4,13,4,-2.4000000000000004,-3.7,-80.0,2019-10-25 17:05:32.3210+0000,-0.10564899444580078,0.0,0.0,-1.4,true,97,-18495,3868,22888,26.950000000000045,14,false,100,100,0,0,0,0,0,3837,3844,3856,3805,3840,3866,0.0,0.0,0.0,Started waypoint mission,
20.74551587105099,-103.51428931882948,8000,1.3,1.7,13,4,-2.2,-4.0,-79.9,2019-10-25 17:05:32.4050+0000,-0.08310508728027344,0.0,0.0,-1.7,true,97,-18495,3868,22888,26.950000000000045,14,false,100,100,0,0,0,0,0,3837,3844,3856,3805,3840,3866,0.0,0.0,0.0,Started waypoint mission,
20.74551605857844,-103.51428917674663,8000,1.5,1.9,13,4,-2.1,-4.4,-79.7,2019-10-25 17:05:32.5260+0000,-0.12121093273162842,0.0,0.0,-1.9,true,97,-18495,3868,22888,26.950000000000045,14,false,100,100,0,0,0,0,0,3839,3758,3833,3771,3809,3853,0.0,0.0,0.0,Started waypoint mission,
20.745516276592245,-103.5142890785792,8000,1.7000000000000002,2.2,15,4,-2.2,-4.800000000000001,-79.60000000000001,2019-10-25 17:05:32.6280+0000,-0.10083699226379395,0.0,0.0,-2.2,true,97,-18495,3868,22888,26.950000000000045,14,false,100,100,0,0,0,0,0,3839,3758,3833,3771,3809,3853,0.0,0.0,0.0,Started waypoint mission,
20.745516494671556,-103.51428899571367,8000,1.9000000000000001,2.4,15,4,-2.5,-4.9,-79.5,2019-10-25 17:05:32.7280+0000,-0.09972703456878662,0.0,0.0,-2.4,true,97,-18495,3868,22888,26.950000000000045,14,false,100,100,0,0,0,0,0,3839,3758,3833,3771,3809,3853,0.0,0.0,0.0,Started waypoint mission,
20.74551675416885,-103.51428876694465,8000,2.1,2.6,14,4,-2.7,-4.9,-79.5,2019-10-25 17:05:32.8540+0000,-0.1250929832458496,0.0,0.0,-2.6,true,97,-18495,3868,22888,26.950000000000045,14,false,100,100,0,0,0,0,0,3839,3758,3833,3771,3809,3853,0.0,0.0,0.0,Started waypoint mission,
20.745517026847395,-103.514288490071,8000,2.4000000000000004,3.0,14,4,-3.0,-4.9,-79.60000000000001,2019-10-25 17:05:32.9530+0000,-0.09891998767852783,0.0,0.0,-3.0,true,97,-18495,3868,22888,26.950000000000045,14,false,100,100,0,0,0,0,0,3839,3758,3833,3771,3809,3853,0.0,0.0,0.0,Started waypoint mission,
20.745517267175703,-103.51428821365631,8000,2.7,3.2,16,4,-3.5,-5.2,-79.7,2019-10-25 17:05:33.0500+0000,-0.09588003158569336,0.0,0.0,-3.2,true,97,-18495,3868,22888,26.950000000000045,14,false,100,100,0,0,0,0,0,3839,3758,3833,3771,3809,3853,0.0,0.0,0.0,Started waypoint mission,
20.74551774205161,-103.51428771044552,9000,3.4000000000000004,3.4,16,4,-4.0,-6.0,-79.80000000000001,2019-10-25 17:05:33.2590+0000,-0.20834195613861084,0.0,0.0,-3.4,true,97,-18495,3868,22888,26.950000000000045,14,false,100,100,0,0,0,0,0,3839,3758,3833,3771,3809,3853,0.0,0.0,0.0,Started waypoint mission,
20.74551798889689,-103.51428750725795,9000,3.8000000000000003,3.5,16,4,-4.1000000000000005,-6.2,-79.80000000000001,2019-10-25 17:05:33.3730+0000,-0.11337089538574219,0.0,0.0,-3.5,true,97,-18495,3868,22888,26.950000000000045,14,false,100,100,0,0,0,0,0,3839,3758,3833,3771,3809,3853,0.0,0.0,0.0,Started waypoint mission,
20.745518197843037,-103.51428725108026,9000,4.1000000000000005,3.4,17,4,-4.0,-6.300000000000001,-79.60000000000001,2019-10-25 17:05:33.4860+0000,-0.1116800308227539,0.0,0.0,-3.4,true,97,-18495,3868,22888,26.950000000000045,14,false,100,99,0,0,0,0,0,3839,3758,3833,3771,3809,3853,0.0,0.0,0.0,Started waypoint mission,
20.745518389480573,-103.51428698078205,9000,4.5,3.3,17,4,-4.1000000000000005,-6.5,-79.60000000000001,2019-10-25 17:05:33.5650+0000,-0.07829904556274414,0.0,0.0,-3.3,true,97,-27503,3828,22062,26.950000000000045,14,false,100,99,0,0,0,0,0,3676,3647,3674,3597,3651,3842,0.0,0.0,0.0,Started waypoint mission,
20.745518531430108,-103.51428684162437,9000,4.800000000000001,3.5,17,4,-4.2,-6.6000000000000005,-79.5,2019-10-25 17:05:33.6640+0000,-0.09896600246429443,0.0,0.0,-3.5,true,97,-27503,3828,22062,26.950000000000045,14,false,100,99,0,0,0,0,0,3676,3647,3674,3597,3651,3842,0.0,0.0,0.0,Started waypoint mission,
20.74551864728868,-103.51428675767865,9000,5.2,3.4,17,4,-4.2,-6.6000000000000005,-79.5,2019-10-25 17:05:33.7640+0000,-0.09887504577636719,0.0,0.0,-3.4,true,97,-27503,3828,22062,26.950000000000045,14,false,100,99,0,0,0,0,0,3676,3647,3674,3597,3651,3842,0.0,0.0,0.0,Started waypoint mission,
20.74551868316743,-103.51428671046142,9000,5.5,3.4,17,4,-4.1000000000000005,-6.4,-79.60000000000001,2019-10-25 17:05:33.8950+0000,-0.13015496730804443,0.0,0.0,-3.4,true,97,-27503,3828,22062,26.950000000000045,14,false,100,99,0,0,0,0,0,3676,3647,3674,3597,3651,3842,0.0,0.0,0.0,Started waypoint mission,
20.745518676878888,-103.51428668932299,9000,5.9,3.4014704,17,4,-4.0,-6.1000000000000005,-79.60000000000001,2019-10-25 17:05:33.8970+0000,-0.0021789073944091797,-0.1,0.0,-3.4,true,97,-27503,3828,22062,26.950000000000045,14,false,100,99,0,0,0,0,0,3676,3647,3674,3597,3651,3842,0.0,0.0,0.0,Started waypoint mission,
20.745518578245566,-103.51428673913523,9000,6.2,3.40294,17,4,-3.8000000000000003,-5.800000000000001,-79.7,2019-10-25 17:05:33.9950+0000,-0.09687197208404541,-0.1,-0.1,-3.4,true,97,-27503,3828,22062,26.950000000000045,14,false,100,99,0,0,0,0,0,0,0,0,0,0,0,0.0,0.0,0.0,Started waypoint mission,
20.74551843546865,-103.51428682257404,9000,6.6000000000000005,3.40294,17,4,-3.5,-5.300000000000001,-79.80000000000001,2019-10-25 17:05:34.1230+0000,-0.12760794162750244,-0.1,-0.1,-3.4,true,97,-27503,3828,22062,26.950000000000045,14,false,100,99,0,0,0,0,0,3676,3647,3674,3597,3651,3842,0.0,0.0,0.0,Started waypoint mission,
20.745518310019897,-103.51428701195601,10000,6.9,3.2031236,17,4,-3.3000000000000003,-5.0,-79.80000000000001,2019-10-25 17:05:34.1950+0000,-0.0712050199508667,-0.1,-0.1,-3.2,true,97,-27503,3828,22062,26.950000000000045,14,false,100,99,0,0,0,0,0,3676,3647,3674,3597,3651,3842,0.0,0.0,0.0,Started waypoint mission,
20.74551818429373,-103.51428724852798,10000,7.2,3.2031236,17,4,-2.9000000000000004,-4.5,-79.9,2019-10-25 17:05:34.2970+0000,-0.1008220911026001,-0.1,-0.1,-3.2,true,97,-27503,3828,22062,26.950000000000045,14,false,100,99,0,0,0,0,0,3676,3647,3674,3597,3651,3842,0.0,0.0,0.0,Started waypoint mission,
20.745517993203567,-103.51428750400325,10000,7.5,3.312099,17,4,-2.5,-4.1000000000000005,-79.80000000000001,2019-10-25 17:05:34.4340+0000,-0.13622701168060303,-0.2,-0.2,-3.3,true,97,-27503,3828,22062,26.950000000000045,14,false,100,99,0,0,0,0,0,3676,3647,3674,3597,3651,3842,0.0,0.0,0.0,Started waypoint mission,
20.745517782507477,-103.51428777151455,10000,7.800000000000001,3.2124758,17,4,-2.1,-3.9000000000000004,-79.7,2019-10-25 17:05:34.5090+0000,-0.07457196712493896,-0.2,-0.2,-3.2,true,96,-25670,3828,22147,26.950000000000045,14,false,100,99,0,0,0,0,0,3692,3712,3712,3663,3720,3717,0.0,0.0,0.0,Started waypoint mission,
20.745517558140303,-103.51428812403779,10000,8.200000000000001,3.2124758,17,4,-1.6,-3.7,-79.80000000000001,2019-10-25 17:05:34.6300+0000,-0.12096107006072998,-0.2,-0.2,-3.2,true,96,-25670,3828,22147,26.950000000000045,14,false,100,99,0,0,0,0,0,3692,3712,3712,3663,3720,3717,0.0,0.0,0.0,Started waypoint mission,
20.745517325132372,-103.51428850842726,10000,8.5,3.312099,17,4,-1.1,-3.4000000000000004,-79.80000000000001,2019-10-25 17:05:34.7260+0000,-0.09483098983764648,-0.2,-0.2,-3.3,true,96,-25670,3828,22147,26.950000000000045,14,false,100,99,0,0,0,0,0,3692,3712,3712,3663,3720,3717,0.0,0.0,0.0,Started waypoint mission,
20.745517091247113,-103.51428888315932,10000,8.9,3.4117444,17,4,-0.9,-3.1,-79.80000000000001,2019-10-25 17:05:34.8270+0000,-0.09987592697143555,-0.2,-0.2,-3.4,true,96,-25670,3828,22147,26.950000000000045,14,false,100,99,0,0,0,0,0,3692,3712,3712,3663,3720,3717,0.0,0.0,0.0,Started waypoint mission,
20.74551685945054,-103.51428925170895,10000,9.200000000000001,3.312099,17,4,-0.6000000000000001,-2.7,-79.80000000000001,2019-10-25 17:05:34.9330+0000,-0.10584104061126709,-0.2,-0.2,-3.3,true,96,-25670,3828,22147,26.950000000000045,14,false,100,100,0,0,0,0,0,3692,3712,3712,3663,3720,3717,0.0,0.0,0.0,Started waypoint mission,
20.745516584402754,-103.5142896517981,10000,9.5,3.312099,17,4,-0.5,-2.5,-79.80000000000001,2019-10-25 17:05:35.0270+0000,-0.09323000907897949,-0.2,-0.2,-3.3,true,96,-25670,3828,22147,26.950000000000045,14,false,100,100,0,0,0,0,0,3692,3712,3712,3663,3720,3717,0.0,0.0,0.0,Started waypoint mission,
20.74551630210871,-103.51429005349542,10000,9.9,3.1128764,17,4,-0.2,-2.2,-80.0,2019-10-25 17:05:35.1350+0000,-0.10725808143615723,-0.2,-0.2,-3.1,true,96,-25670,3828,22147,26.950000000000045,14,false,100,100,0,0,0,0,0,3692,3712,3712,3663,3720,3717,0.0,0.0,0.0,Started waypoint mission,
20.745515993503904,-103.51429042465196,11000,10.200000000000001,3.108054,17,4,0.1,-2.1,-80.10000000000001,2019-10-25 17:05:35.2340+0000,-0.09867000579833984,-0.1,-0.2,-3.1,true,96,-25670,3828,22147,26.950000000000045,14,false,100,100,0,0,0,0,0,3692,3712,3712,3663,3720,3717,0.0,0.0,0.0,Started waypoint mission,
20.745515680972293,-103.51429076873767,11000,10.5,3.103224,17,4,0.4,-1.8,-80.2,2019-10-25 17:05:35.3540+0000,-0.11935698986053467,-0.1,-0.1,-3.1,true,96,-25670,3828,22147,26.950000000000045,14,false,100,100,0,0,0,0,0,3692,3712,3712,3663,3720,3717,0.0,0.0,0.0,Started waypoint mission,
20.74551538423731,-103.51429109866882,11000,10.8,3.2031236,17,4,0.5,-1.5,-80.30000000000001,2019-10-25 17:05:35.4640+0000,-0.10895299911499023,-0.1,-0.1,-3.2,true,96,-25670,3828,22147,26.950000000000045,14,false,100,100,0,0,0,0,0,3692,3712,3712,3663,3720,3717,0.0,0.0,0.0,Started waypoint mission,
20.745515102948037,-103.51429140565972,11000,11.200000000000001,3.2031236,17,4,0.5,-1.1,-80.30000000000001,2019-10-25 17:05:35.5550+0000,-0.09048008918762207,-0.1,-0.1,-3.2,true,96,-21709,3828,22322,27.05000000000001,14,false,100,100,0,0,0,0,0,3729,3736,3709,3658,3735,3730,0.0,0.0,0.0,Started waypoint mission,
20.745514811519847,-103.51429164197272,11000,11.5,3.1016126,17,4,0.5,-1.0,-80.30000000000001,2019-10-25 17:05:35.6840+0000,-0.12857592105865479,-0.1,0.0,-3.1,true,96,-21709,3828,22322,27.05000000000001,14,false,100,100,0,0,0,0,0,3729,3736,3709,3658,3735,3730,0.0,0.0,0.0,Started waypoint mission,
20.745514529135942,-103.51429183377218,11000,11.8,3.1016126,17,4,0.0,-0.8,-80.30000000000001,2019-10-25 17:05:35.7780+0000,-0.09372007846832275,-0.1,0.0,-3.1,true,96,-21709,3828,22322,27.05000000000001,14,false,100,100,0,0,0,0,0,3729,3736,3709,3658,3735,3730,0.0,0.0,0.0,Started waypoint mission,
20.745514274121685,-103.51429203784339,11000,12.100000000000001,3.1,17,4,-0.5,-0.8,-80.30000000000001,2019-10-25 17:05:35.8780+0000,-0.0992889404296875,0.0,0.0,-3.1,true,96,-21709,3828,22322,27.05000000000001,14,false,100,100,0,0,0,0,0,3729,3736,3709,3658,3735,3730,0.0,0.0,0.0,Started waypoint mission,
20.745514044258268,-103.51429224569563,11000,12.4,3.0,17,4,-0.5,-1.0,-80.30000000000001,2019-10-25 17:05:35.8800+0000,-0.002084016799926758,0.0,0.0,-3.0,true,96,-21709,3828,22322,27.05000000000001,14,false,100,100,0,0,0,0,0,3729,3736,3709,3658,3735,3730,0.0,0.0,0.0,Started waypoint mission,
20.745513783501917,-103.51429238968286,11000,12.700000000000001,3.0,17,4,-0.6000000000000001,-1.0,-80.2,2019-10-25 17:05:36.0860+0000,-0.20522594451904297,0.0,0.0,-3.0,true,96,-21709,3828,22322,27.05000000000001,14,false,100,100,0,0,0,0,0,3729,3736,3709,3658,3735,3730,0.0,0.0,0.0,Started waypoint mission,
20.7455135163282,-103.51429250827617,11000,13.0,3.1,17,4,-0.5,-1.0,-80.2,2019-10-25 17:05:36.0870+0000,-0.0006269216537475586,0.0,0.0,-3.1,true,96,-21709,3828,22322,27.05000000000001,14,false,100,100,0,0,0,0,0,3729,3736,3709,3658,3735,3730,0.0,0.0,0.0,Started waypoint mission,
20.74551327829636,-103.51429262769577,12000,13.4,3.2,17,4,-0.5,-1.0,-80.0,2019-10-25 17:05:36.1850+0000,-0.09713399410247803,0.0,0.0,-3.2,true,96,-21709,3828,22322,27.05000000000001,14,false,100,100,0,0,0,0,0,3729,3736,3709,3658,3735,3730,0.0,0.0,0.0,Started waypoint mission,
20.745513056733508,-103.51429274031737,12000,13.700000000000001,3.2,17,4,-0.30000000000000004,-0.9,-79.80000000000001,2019-10-25 17:05:36.3840+0000,-0.19904100894927979,0.0,0.0,-3.2,true,96,-21709,3828,22322,27.05000000000001,14,false,100,100,0,0,0,0,0,3729,3736,3709,3658,3735,3730,0.0,0.0,0.0,Started waypoint mission,
20.74551286198292,-103.5142927883124,12000,14.100000000000001,3.2,17,4,-0.30000000000000004,-0.5,-79.5,2019-10-25 17:05:36.3860+0000,-0.0012389421463012695,0.0,0.0,-3.2,true,96,-21709,3828,22322,27.05000000000001,14,false,100,100,0,0,0,0,0,3729,3736,3709,3658,3735,3730,0.0,0.0,0.0,Started waypoint mission,
20.745512694258164,-103.51429279695817,12000,14.4,3.1,17,4,-0.6000000000000001,-0.5,-79.2,2019-10-25 17:05:36.5020+0000,-0.11497199535369873,0.0,0.0,-3.1,true,96,-20869,3828,22335,27.05000000000001,14,false,100,100,0,0,0,0,0,3709,3710,3732,3671,3707,3756,0.0,0.0,0.0,Started waypoint mission,
20.745512559414582,-103.51429277476308,12000,14.8,3.0,17,4,-1.0,-0.6000000000000001,-79.0,2019-10-25 17:05:36.5990+0000,-0.09637200832366943,0.0,0.0,-3.0,true,96,-20869,3828,22335,27.05000000000001,14,false,100,100,0,0,0,0,0,3709,3710,3732,3671,3707,3756,0.0,0.0,0.0,Started waypoint mission,
20.745512452466162,-103.5142927366346,12000,15.100000000000001,3.1,17,4,-1.1,-0.8,-78.9,2019-10-25 17:05:36.7020+0000,-0.10274207592010498,0.0,0.0,-3.1,true,96,-20869,3828,22335,27.05000000000001,14,false,100,100,0,0,0,0,0,3709,3710,3732,3671,3707,3756,0.0,0.0,0.0,Started waypoint mission,
20.745512374031414,-103.5142926820027,12000,15.4,3.0016663,17,4,-1.3,-1.2000000000000002,-78.9,2019-10-25 17:05:36.8000+0000,-0.09722900390625,0.0,0.1,-3.0,true,96,-20869,3828,22335,27.05000000000001,14,false,100,100,0,0,0,0,0,3709,3710,3732,3671,3707,3756,0.0,0.0,0.0,Started waypoint mission,
20.74551227476042,-103.51429249838395,12000,16.1,2.803569,17,4,-1.7000000000000002,-2.0,-79.30000000000001,2019-10-25 17:05:37.0310+0000,-0.22973906993865967,0.1,0.1,-2.8,true,96,-20869,3828,22335,27.05000000000001,14,false,100,99,0,0,0,0,0,3709,3710,3732,3671,3707,3756,0.0,0.0,0.0,Started waypoint mission,
20.745512235219813,-103.51429236687824,12000,16.3,2.803569,17,4,-1.9000000000000001,-2.1,-79.60000000000001,2019-10-25 17:05:37.1530+0000,-0.12079501152038574,0.1,0.1,-2.8,true,96,-20869,3828,22335,27.05000000000001,14,false,100,99,0,0,0,0,0,3709,3710,3732,3671,3707,3756,0.0,0.0,0.0,Started waypoint mission,
20.745512195217263,-103.51429223617617,13000,16.7,2.803569,17,4,-2.0,-2.2,-80.0,2019-10-25 17:05:37.2370+0000,-0.08401906490325928,0.1,0.1,-2.8,true,96,-20869,3828,22335,27.05000000000001,14,false,100,99,0,0,0,0,0,3709,3710,3732,3671,3707,3756,0.0,0.0,0.0,Started waypoint mission,
20.745512158740972,-103.51429211016449,13000,16.900000000000002,2.803569,17,4,-2.0,-2.2,-80.4,2019-10-25 17:05:37.4680+0000,-0.23069000244140625,0.1,0.1,-2.8,true,96,-20869,3828,22335,27.05000000000001,14,false,100,99,0,0,0,0,0,3709,3710,3732,3671,3707,3756,0.0,0.0,0.0,Started waypoint mission,
20.745512144270748,-103.51429198485512,13000,17.2,2.803569,17,4,-2.1,-2.4000000000000004,-80.60000000000001,2019-10-25 17:05:37.5520+0000,-0.08261597156524658,0.1,0.1,-2.8,true,96,-20869,3828,22335,27.05000000000001,14,false,100,99,0,0,0,0,0,3709,3710,3732,3671,3707,3756,0.0,0.0,0.0,Started waypoint mission,
20.745512138980075,-103.51429186795649,13000,17.6,2.9017239,17,4,-2.0,-2.4000000000000004,-80.80000000000001,2019-10-25 17:05:37.6470+0000,-0.0950160026550293,0.1,0.0,-2.9,true,96,-20223,3828,22422,27.25,14,false,100,99,0,0,0,0,0,3709,3710,3732,3671,3707,3756,0.0,0.0,0.0,Started waypoint mission,
20.74551216805386,-103.51429170529681,13000,17.900000000000002,2.9017239,17,5,-2.1,-2.3000000000000003,-80.80000000000001,2019-10-25 17:05:37.7070+0000,-0.05850696563720703,0.1,0.0,-2.9,true,96,-20223,3828,22422,27.25,14,false,100,99,0,0,0,0,0,3709,3710,3732,3671,3707,3756,0.0,0.0,0.0,Started waypoint mission,
20.745512212554075,-103.51429152991176,13000,18.1,2.7018514,17,5,-2.3000000000000003,-2.4000000000000004,-80.60000000000001,2019-10-25 17:05:37.7810+0000,-0.07307302951812744,0.1,0.0,-2.7,true,96,-20223,3828,22422,27.25,14,false,100,99,0,0,0,0,0,3709,3710,3732,3671,3707,3756,0.0,0.0,0.0,Started waypoint mission,
20.74551226935592,-103.51429138757229,13000,18.400000000000002,2.6019223,17,5,-2.4000000000000004,-2.4000000000000004,-80.4,2019-10-25 17:05:37.8490+0000,-0.0662909746170044,0.1,0.0,-2.6,true,96,-20223,3828,22422,27.25,14,false,100,99,0,0,0,0,0,3709,3710,3732,3671,3707,3756,0.0,0.0,0.0,Started waypoint mission,
20.745512331824965,-103.51429126013463,13000,18.7,2.7018514,17,5,-2.5,-2.3000000000000003,-80.30000000000001,2019-10-25 17:05:37.9520+0000,-0.10218703746795654,0.1,0.0,-2.7,true,96,-20223,3828,22422,27.25,14,false,100,100,0,0,0,0,0,3709,3710,3732,3671,3707,3756,0.0,0.0,0.0,Started waypoint mission,
20.745512416868557,-103.51429108551122,13000,18.900000000000002,2.8017852,17,5,-2.5,-2.5,-80.2,2019-10-25 17:05:38.0500+0000,-0.09704601764678955,0.1,0.0,-2.8,true,96,-20223,3828,22422,27.25,14,false,100,100,0,0,0,0,0,3734,3745,3745,3688,3729,3758,0.0,0.0,0.0,Started waypoint mission,
20.745512511391688,-103.51429090368975,13000,19.200000000000003,2.7018514,17,5,-2.4000000000000004,-2.9000000000000004,-80.2,2019-10-25 17:05:38.1500+0000,-0.09891402721405029,0.1,0.0,-2.7,true,96,-20223,3828,22422,27.25,14,false,100,100,0,0,0,0,0,3734,3745,3745,3688,3729,3758,0.0,0.0,0.0,Started waypoint mission,
20.745512636641653,-103.51429075736405,14000,19.5,2.7018514,17,5,-2.1,-3.7,-80.4,2019-10-25 17:05:38.2510+0000,-0.10011303424835205,0.1,0.0,-2.7,true,96,-20223,3828,22422,27.25,14,false,100,100,0,0,0,0,0,3734,3745,3745,3688,3729,3758,0.0,0.0,0.0,Started waypoint mission,
20.74551275769219,-103.51429063255969,14000,19.700000000000003,2.6019223,17,5,-2.1,-3.7,-80.5,2019-10-25 17:05:38.3540+0000,-0.10256397724151611,0.1,0.0,-2.6,true,96,-20223,3828,22422,27.25,14,false,100,100,0,0,0,0,0,3734,3745,3745,3688,3729,3758,0.0,0.0,0.0,Started waypoint mission,
20.745512920662108,-103.5142905080992,14000,20.0,2.8017852,17,5,-1.9000000000000001,-3.3000000000000003,-80.4,2019-10-25 17:05:38.4540+0000,-0.09933900833129883,0.1,0.0,-2.8,true,96,-20223,3828,22422,27.25,14,false,100,100,0,0,0,0,0,3734,3745,3745,3688,3729,3758,0.0,0.0,0.0,Started waypoint mission,
20.74551309976825,-103.51429038611326,14000,20.3,2.9017239,17,5,-1.8,-3.2,-80.4,2019-10-25 17:05:38.5700+0000,-0.11519801616668701,0.1,0.0,-2.9,true,96,-20223,3828,22422,27.25,14,false,100,100,0,0,0,0,0,3734,3745,3745,3688,3729,3758,0.0,0.0,0.0,Started waypoint mission,
20.745513305461778,-103.51429030104634,14000,20.6,2.9017239,17,5,-1.7000000000000002,-3.4000000000000004,-80.30000000000001,2019-10-25 17:05:38.6790+0000,-0.10830807685852051,0.1,0.0,-2.9,true,96,-20223,3828,22422,27.25,14,false,100,100,0,0,0,0,0,3734,3745,3745,3688,3729,3758,0.0,0.0,0.0,Started waypoint mission,
20.745513525230635,-103.51429022432231,14000,20.8,2.8017852,17,5,-1.6,-4.0,-80.2,2019-10-25 17:05:38.7950+0000,-0.11588692665100098,0.1,0.0,-2.8,true,96,-20223,3828,22422,27.25,14,false,100,100,0,0,0,0,0,3734,3745,3745,3688,3729,3758,0.0,0.0,0.0,Started waypoint mission,
20.7455140621393,-103.51428995568607,14000,21.5,2.9068885,17,5,-2.0,-5.0,-80.10000000000001,2019-10-25 17:05:38.8860+0000,-0.08981192111968994,0.2,0.0,-2.9,true,96,-20223,3828,22422,27.25,14,false,100,100,0,0,0,0,0,3734,3745,3745,3688,3729,3758,0.0,0.0,0.0,Started waypoint mission,
20.745514306791474,-103.51428986067864,14000,21.700000000000003,2.7018514,17,5,-2.1,-5.4,-80.10000000000001,2019-10-25 17:05:38.9860+0000,-0.09935200214385986,0.1,0.0,-2.7,true,96,-20215,3828,22262,27.25,14,false,100,100,0,0,0,0,0,0,0,0,0,0,0,0.0,0.0,0.0,Started waypoint mission,
20.7455145314665,-103.51428978564718,14000,22.0,2.7018514,17,5,-2.2,-5.6000000000000005,-80.2,2019-10-25 17:05:39.0870+0000,-0.10052406787872314,0.1,0.0,-2.7,true,96,-20215,3828,22262,27.25,14,false,100,100,0,0,0,0,0,3714,3710,3728,3666,3710,3761,0.0,0.0,0.0,Started waypoint mission,
20.74551475347052,-103.51428972871192,15000,22.3,2.9017239,17,5,-2.1,-5.6000000000000005,-80.4,2019-10-25 17:05:39.1870+0000,-0.0989159345626831,0.1,0.0,-2.9,true,96,-20215,3828,22262,27.25,14,false,100,100,0,0,0,0,0,3714,3710,3728,3666,3710,3761,0.0,0.0,0.0,Started waypoint mission,
20.74551496283188,-103.5142896899211,15000,22.6,2.8017852,17,5,-1.6,-5.6000000000000005,-80.5,2019-10-25 17:05:39.3110+0000,-0.12412095069885254,0.1,0.0,-2.8,true,96,-20215,3828,22262,27.25,14,false,100,100,0,0,0,0,0,3714,3710,3728,3666,3710,3761,0.0,0.0,0.0,Started waypoint mission,
20.74551516930303,-103.51428967112804,15000,22.900000000000002,3.0016663,17,5,-1.0,-5.300000000000001,-80.60000000000001,2019-10-25 17:05:39.3990+0000,-0.08700597286224365,0.1,0.0,-3.0,true,96,-20215,3828,22262,27.25,14,false,100,100,0,0,0,0,0,3714,3710,3728,3666,3710,3761,0.0,0.0,0.0,Started waypoint mission,
20.745515365768128,-103.51428965324837,15000,23.200000000000003,2.9017239,17,5,-1.0,-5.300000000000001,-80.60000000000001,2019-10-25 17:05:39.5340+0000,-0.13413405418395996,0.1,0.0,-2.9,true,96,-20215,3828,22262,27.25,14,false,100,100,0,0,0,0,0,3714,3710,3728,3666,3710,3761,0.0,0.0,0.0,Started waypoint mission,
20.745515594643404,-103.51428962184215,15000,23.5,3.1016126,17,5,-1.1,-5.300000000000001,-80.5,2019-10-25 17:05:39.6470+0000,-0.1124199628829956,0.1,0.0,-3.1,true,96,-20215,3828,22262,27.25,14,false,100,100,0,0,0,0,0,3714,3710,3728,3666,3710,3761,0.0,0.0,0.0,Started waypoint mission,
20.745515829529896,-103.5142895793019,15000,23.8,3.0016663,17,5,-1.4000000000000001,-5.2,-80.4,2019-10-25 17:05:39.7290+0000,-0.0816880464553833,0.1,0.0,-3.0,true,96,-20215,3828,22262,27.25,14,false,100,100,0,0,0,0,0,3714,3710,3728,3666,3710,3761,0.0,0.0,0.0,Started waypoint mission,
20.74551604069731,-103.51428952926267,15000,24.1,3.0016663,17,5,-1.5,-5.4,-80.10000000000001,2019-10-25 17:05:39.8360+0000,-0.10634899139404297,0.1,0.0,-3.0,true,96,-20215,3828,22262,27.25,14,false,100,100,0,0,0,0,0,3714,3710,3728,3666,3710,3761,0.0,0.0,0.0,Started waypoint mission,
20.74551624622829,-103.51428947407132,15000,24.3,2.9017239,17,5,-1.9000000000000001,-5.800000000000001,-80.0,2019-10-25 17:05:39.9360+0000,-0.09913098812103271,0.1,0.0,-2.9,true,96,-20215,3828,22262,27.25,14,false,100,100,0,0,0,0,0,3714,3710,3728,3666,3710,3761,0.0,0.0,0.0,Started waypoint mission,
20.745516415184532,-103.51428944745747,15000,24.6,3.0,17,5,-2.2,-6.1000000000000005,-79.9,2019-10-25 17:05:40.0350+0000,-0.09891998767852783,0.0,0.0,-3.0,true,96,-22648,3788,22068,27.350000000000023,14,false,100,100,0,0,0,0,0,3689,3668,3692,3636,3683,3705,0.0,0.0,0.0,Started waypoint mission,
20.745516555918815,-103.51428944246881,16000,24.900000000000002,2.9,17,5,-2.3000000000000003,-6.300000000000001,-79.9,2019-10-25 17:05:40.1670+0000,-0.13141703605651855,0.0,0.0,-2.9,true,96,-22648,3788,22068,27.350000000000023,14,false,100,100,0,0,0,0,0,3689,3668,3692,3636,3683,3705,0.0,0.0,0.0,Started waypoint mission,
20.745516692354975,-103.51428946523404,16000,25.200000000000003,2.9,17,5,-1.9000000000000001,-6.1000000000000005,-79.9,2019-10-25 17:05:40.2450+0000,-0.07656800746917725,0.0,0.0,-2.9,true,96,-22648,3788,22068,27.350000000000023,14,false,100,100,0,0,0,0,0,3689,3668,3692,3636,3683,3705,0.0,0.0,0.0,Started waypoint mission,
20.745516815029106,-103.51428951221708,16000,25.5,3.1,17,5,-1.6,-5.9,-79.9,2019-10-25 17:05:40.3610+0000,-0.11594700813293457,0.0,0.0,-3.1,true,96,-22648,3788,22068,27.350000000000023,14,false,100,100,0,0,0,0,0,3689,3668,3692,3636,3683,3705,0.0,0.0,0.0,Started waypoint mission,
20.74551693597315,-103.51428958810371,16000,25.8,3.0,17,5,-1.3,-5.800000000000001,-80.0,2019-10-25 17:05:40.4540+0000,-0.09241104125976562,0.0,0.0,-3.0,true,96,-22648,3788,22068,27.350000000000023,14,false,100,100,0,0,0,0,0,3689,3668,3692,3636,3683,3705,0.0,0.0,0.0,Started waypoint mission,
20.745517049459462,-103.51428968201058,16000,26.1,3.1,17,5,-0.9,-5.6000000000000005,-80.0,2019-10-25 17:05:40.5810+0000,-0.1262199878692627,0.0,0.0,-3.1,true,95,-22648,3788,22068,27.350000000000023,14,false,100,100,0,0,0,0,0,3689,3668,3692,3636,3683,3705,0.0,0.0,0.0,Started waypoint mission,
20.745517149951585,-103.51428978008393,16000,26.400000000000002,3.0,17,5,-0.5,-5.800000000000001,-80.10000000000001,2019-10-25 17:05:40.6650+0000,-0.08305907249450684,0.0,0.0,-3.0,true,95,-22648,3788,22068,27.350000000000023,14,false,100,100,0,0,0,0,0,3689,3668,3692,3636,3683,3705,0.0,0.0,0.0,Started waypoint mission,
20.745517326629546,-103.51428996246678,16000,27.0,3.0,17,5,-0.5,-5.800000000000001,-80.0,2019-10-25 17:05:40.7800+0000,-0.11470794677734375,0.0,0.0,-3.0,true,95,-22648,3788,22068,27.350000000000023,14,false,100,100,0,0,0,0,0,3689,3668,3692,3636,3683,3705,0.0,0.0,0.0,Started waypoint mission,
20.745517395779046,-103.51429005069251,16000,27.3,3.1,17,5,-0.8,-5.800000000000001,-80.0,2019-10-25 17:05:40.9840+0000,-0.2039179801940918,0.0,0.0,-3.1,true,95,-22648,3788,22068,27.350000000000023,14,false,100,100,0,0,0,0,0,3689,3668,3692,3636,3683,3705,0.0,0.0,0.0,Started waypoint mission,
20.745517468622364,-103.51429016722375,16000,27.6,2.9,17,5,-0.9,-5.6000000000000005,-79.9,2019-10-25 17:05:40.9860+0000,-0.000944972038269043,0.0,0.0,-2.9,true,95,-23462,3788,21950,27.450000000000045,14,false,100,100,0,0,0,0,0,0,0,0,0,0,0,0.0,0.0,0.0,Started waypoint mission,
20.745517539782828,-103.51429029693718,17000,27.900000000000002,3.0,17,5,-0.9,-5.6000000000000005,-80.0,2019-10-25 17:05:41.1950+0000,-0.20836889743804932,0.0,0.0,-3.0,true,95,-23462,3788,21950,27.450000000000045,14,false,100,100,0,0,0,0,0,3674,3668,3659,3595,3658,3698,0.0,0.0,0.0,Started waypoint mission,
20.745517410935165,-103.51429075020918,17000,28.8,3.1016126,17,5,0.0,-5.1000000000000005,-80.10000000000001,2019-10-25 17:05:41.4370+0000,-0.24179303646087646,-0.1,0.0,-3.1,true,95,-23462,3788,21950,27.450000000000045,14,false,100,99,0,0,0,0,0,3674,3668,3659,3595,3658,3698,0.0,0.0,0.0,Started waypoint mission,
20.745517358345758,-103.5142909042204,17000,29.1,3.0016663,17,5,0.0,-4.800000000000001,-80.10000000000001,2019-10-25 17:05:41.5180+0000,-0.08075904846191406,-0.1,0.0,-3.0,true,95,-23462,3788,21950,27.450000000000045,14,false,100,99,0,0,0,0,0,3674,3668,3659,3595,3658,3698,0.0,0.0,0.0,Started waypoint mission,
20.7455172663379,-103.51429105051339,17000,29.400000000000002,3.1016126,17,5,0.0,-4.5,-80.10000000000001,2019-10-25 17:05:41.6530+0000,-0.13447701930999756,-0.1,0.0,-3.1,true,95,-23462,3788,21950,27.450000000000045,14,false,100,99,0,0,0,0,0,3674,3668,3659,3595,3658,3698,0.0,0.0,0.0,Started waypoint mission,
20.74551716581959,-103.5142911805936,17000,29.700000000000003,3.0016663,17,5,-0.2,-4.4,-80.0,2019-10-25 17:05:41.8990+0000,-0.24499297142028809,-0.1,0.0,-3.0,true,95,-23462,3788,21950,27.450000000000045,14,false,100,99,0,0,0,0,0,3674,3668,3659,3595,3658,3698,0.0,0.0,0.0,Started waypoint mission,
20.745516879241002,-103.51429155974945,17000,30.6,3.1016126,17,5,0.0,-4.5,-80.30000000000001,2019-10-25 17:05:42.0460+0000,-0.14655792713165283,-0.1,0.0,-3.1,true,95,-23462,3788,21950,27.450000000000045,14,false,100,99,0,0,0,0,0,3674,3668,3659,3595,3658,3698,0.0,0.0,0.0,Started waypoint mission,
20.745516764810215,-103.51429166737714,17000,31.0,3.2015622,17,5,0.0,-4.5,-80.4,2019-10-25 17:05:42.1410+0000,-0.09424901008605957,-0.1,0.0,-3.2,true,95,-23462,3788,21950,27.450000000000045,14,false,100,99,0,0,0,0,0,3674,3668,3659,3595,3658,3698,0.0,0.0,0.0,Started waypoint mission,
20.74551662218926,-103.51429179817535,18000,31.3,3.2015622,17,5,0.0,-4.2,-80.4,2019-10-25 17:05:42.2600+0000,-0.11825501918792725,-0.1,0.0,-3.2,true,95,-23462,3788,21950,27.450000000000045,14,false,100,99,0,0,0,0,0,3674,3668,3659,3595,3658,3698,0.0,0.0,0.0,Started waypoint mission,
20.745516472251275,-103.51429193176664,18000,31.6,3.1016126,17,5,-0.2,-3.9000000000000004,-80.4,2019-10-25 17:05:42.3700+0000,-0.1085439920425415,-0.1,0.0,-3.1,true,95,-23462,3788,21950,27.450000000000045,14,false,100,99,0,0,0,0,0,3674,3668,3659,3595,3658,3698,0.0,0.0,0.0,Started waypoint mission,
20.74551631832532,-103.51429202423634,18000,31.900000000000002,3.0016663,17,5,-0.2,-3.7,-80.5,2019-10-25 17:05:42.4550+0000,-0.08471298217773438,-0.1,0.0,-3.0,true,95,-23462,3788,21950,27.450000000000045,14,false,100,100,0,0,0,0,0,3674,3668,3659,3595,3658,3698,0.0,0.0,0.0,Started waypoint mission,
20.745516173270033,-103.51429209920205,18000,32.2,3.0016663,17,5,-0.30000000000000004,-3.8000000000000003,-80.7,2019-10-25 17:05:42.5550+0000,-0.09965503215789795,-0.1,0.0,-3.0,true,95,-23091,3788,21924,27.650000000000034,14,false,100,100,0,0,0,0,0,3651,3660,3663,3606,3645,3690,0.0,0.0,0.0,Started waypoint mission,
20.745516009389018,-103.5142921962982,18000,32.5,3.1,17,5,-0.4,-3.9000000000000004,-80.80000000000001,2019-10-25 17:05:42.6550+0000,-0.09890007972717285,0.0,0.0,-3.1,true,95,-23091,3788,21924,27.650000000000034,14,false,100,100,0,0,0,0,0,3651,3660,3663,3606,3645,3690,0.0,0.0,0.0,Started waypoint mission,
20.745515840455273,-103.51429229373898,18000,32.800000000000004,3.1,17,5,-0.6000000000000001,-3.9000000000000004,-80.80000000000001,2019-10-25 17:05:42.7710+0000,-0.11591005325317383,0.0,0.0,-3.1,true,95,-23091,3788,21924,27.650000000000034,14,false,100,100,0,0,0,0,0,3651,3660,3663,3606,3645,3690,0.0,0.0,0.0,Started waypoint mission,
20.74551569989924,-103.51429234033834,18000,33.1,3.0,17,5,-0.5,-3.7,-80.60000000000001,2019-10-25 17:05:42.8700+0000,-0.09840106964111328,0.0,0.0,-3.0,true,95,-23091,3788,21924,27.650000000000034,14,false,100,100,0,0,0,0,0,3651,3660,3663,3606,3645,3690,0.0,0.0,0.0,Started waypoint mission,
20.745515574069138,-103.51429236499128,18000,33.5,3.1,17,5,-0.5,-3.6,-80.4,2019-10-25 17:05:42.9710+0000,-0.10008597373962402,0.0,0.0,-3.1,true,95,-23091,3788,21924,27.650000000000034,14,false,100,100,0,0,0,0,0,3651,3660,3663,3606,3645,3690,0.0,0.0,0.0,Started waypoint mission,
20.74551543629192,-103.51429239305718,18000,33.800000000000004,3.0,17,5,-0.5,-3.5,-80.10000000000001,2019-10-25 17:05:42.9720+0000,-0.0009839534759521484,0.0,0.0,-3.0,true,95,-22926,3788,21884,27.75,14,false,100,100,0,0,0,0,0,0,0,0,0,0,0,0.0,0.0,0.0,Started waypoint mission,
20.745515308209182,-103.51429241939042,19000,34.1,2.9,17,5,-0.6000000000000001,-3.6,-79.9,2019-10-25 17:05:43.1770+0000,-0.20463097095489502,0.0,0.0,-2.9,true,95,-22926,3788,21884,27.75,14,false,100,100,0,0,0,0,0,3651,3660,3663,3606,3645,3690,0.0,0.0,0.0,Started waypoint mission,
20.745515190326515,-103.51429241862925,19000,34.4,3.0,17,5,-0.6000000000000001,-3.7,-79.80000000000001,2019-10-25 17:05:43.2800+0000,-0.10238993167877197,0.0,0.0,-3.0,true,95,-22926,3788,21884,27.75,14,false,100,100,0,0,0,0,0,3651,3660,3663,3606,3645,3690,0.0,0.0,0.0,Started waypoint mission,
20.745515080872284,-103.51429240894281,19000,34.7,2.9,17,5,-0.6000000000000001,-3.9000000000000004,-79.7,2019-10-25 17:05:43.3830+0000,-0.10219800472259521,0.0,0.0,-2.9,true,95,-22926,3788,21884,27.75,14,false,100,100,0,0,0,0,0,3651,3660,3663,3606,3645,3690,0.0,0.0,0.0,Started waypoint mission,
20.745514963496365,-103.51429241986393,19000,35.0,3.0,17,5,-0.9,-3.9000000000000004,-79.60000000000001,2019-10-25 17:05:43.3860+0000,-0.002436041831970215,0.0,0.0,-3.0,true,95,-22926,3788,21884,27.75,14,false,100,100,0,0,0,0,0,0,0,0,0,0,0,0.0,0.0,0.0,Started waypoint mission,
20.745514845684184,-103.51429243976987,19000,35.300000000000004,2.9,17,5,-0.9,-4.0,-79.4,2019-10-25 17:05:43.4870+0000,-0.09947896003723145,0.0,0.0,-2.9,true,95,-22926,3788,21884,27.75,14,false,100,100,0,0,0,0,0,3654,3648,3680,3588,3660,3662,0.0,0.0,0.0,Started waypoint mission,
20.74551471763355,-103.51429241745153,19000,35.6,2.9,17,5,-0.9,-3.9000000000000004,-79.4,2019-10-25 17:05:43.6020+0000,-0.11524295806884766,0.0,0.0,-2.9,true,95,-22926,3788,21884,27.75,14,false,100,100,0,0,0,0,0,3654,3648,3680,3588,3660,3662,0.0,0.0,0.0,Started waypoint mission,
20.745514587505582,-103.514292379353,19000,35.800000000000004,2.9,17,5,-1.0,-3.9000000000000004,-79.5,2019-10-25 17:05:43.6870+0000,-0.08360600471496582,0.0,0.0,-2.9,true,95,-22926,3788,21884,27.75,14,false,100,100,0,0,0,0,0,3654,3648,3680,3588,3660,3662,0.0,0.0,0.0,Started waypoint mission,
20.745514488427837,-103.51429233987811,19000,36.1,3.0,17,5,-1.0,-3.6,-79.60000000000001,2019-10-25 17:05:43.7860+0000,-0.09857392311096191,0.0,0.0,-3.0,true,95,-22926,3788,21884,27.75,14,false,100,100,0,0,0,0,0,3654,3648,3680,3588,3660,3662,0.0,0.0,0.0,Started waypoint mission,
20.745514401271667,-103.51429230873694,19000,36.4,2.9,17,5,-0.9,-3.6,-79.80000000000001,2019-10-25 17:05:43.9010+0000,-0.11423599720001221,0.0,0.0,-2.9,true,95,-22926,3788,21884,27.75,14,false,100,100,0,0,0,0,0,3654,3648,3680,3588,3660,3662,0.0,0.0,0.0,Started waypoint mission,
20.745514314127277,-103.51429226100164,19000,36.7,2.9,17,5,-1.0,-3.7,-80.0,2019-10-25 17:05:43.9960+0000,-0.09487497806549072,0.0,0.0,-2.9,true,95,-22926,3788,21884,27.850000000000023,14,false,100,100,0,0,0,0,0,3654,3648,3680,3588,3660,3662,0.0,0.0,0.0,Started waypoint mission,
20.745514231309297,-103.51429221341344,19000,37.0,3.0,17,5,-1.0,-3.9000000000000004,-80.0,2019-10-25 17:05:44.1080+0000,-0.11064803600311279,0.0,0.0,-3.0,true,95,-22926,3788,21884,27.850000000000023,14,false,100,100,0,0,0,0,0,3654,3648,3680,3588,3660,3662,0.0,0.0,0.0,Started waypoint mission,
20.745514186103588,-103.51429216689878,20000,37.4,3.1,17,5,-0.7000000000000001,-4.0,-79.9,2019-10-25 17:05:44.2050+0000,-0.09685397148132324,0.0,0.0,-3.1,true,95,-22926,3788,21884,27.850000000000023,14,false,100,100,0,0,0,0,0,3654,3648,3680,3588,3660,3662,0.0,0.0,0.0,Started waypoint mission,
20.7455141503358,-103.51429211952554,20000,37.7,3.1,17,5,-0.6000000000000001,-3.8000000000000003,-79.7,2019-10-25 17:05:44.3110+0000,-0.1054220199584961,0.0,0.0,-3.1,true,95,-22926,3788,21884,27.850000000000023,14,false,100,100,0,0,0,0,0,3654,3648,3680,3588,3660,3662,0.0,0.0,0.0,Started waypoint mission,
20.745514094964296,-103.51429205162059,20000,38.0,3.0,17,5,-0.5,-3.8000000000000003,-79.5,2019-10-25 17:05:44.4070+0000,-0.09555697441101074,0.0,0.0,-3.0,true,95,-22926,3788,21884,27.850000000000023,14,false,100,100,0,0,0,0,0,3654,3648,3680,3588,3660,3662,0.0,0.0,0.0,Started waypoint mission,
20.745514031845325,-103.51429197472996,20000,38.300000000000004,2.8,17,5,-0.9,-3.5,-79.5,2019-10-25 17:05:44.5110+0000,-0.10286092758178711,0.0,0.0,-2.8,true,95,-21899,3788,21904,27.850000000000023,14,false,100,100,0,0,0,0,0,3638,3656,3670,3601,3657,3698,0.0,0.0,0.0,Started waypoint mission,
20.745513966327174,-103.51429189798503,20000,38.6,2.9,17,5,-1.0,-3.2,-79.5,2019-10-25 17:05:44.6220+0000,-0.11033594608306885,0.0,0.0,-2.9,true,95,-21899,3788,21904,27.850000000000023,14,false,100,100,0,0,0,0,0,3638,3656,3670,3601,3657,3698,0.0,0.0,0.0,Started waypoint mission,
20.745513909430496,-103.51429182275098,20000,38.900000000000006,3.0,17,5,-1.0,-3.3000000000000003,-79.5,2019-10-25 17:05:44.7220+0000,-0.09960198402404785,0.0,0.0,-3.0,true,95,-21899,3788,21904,27.850000000000023,14,false,100,100,0,0,0,0,0,3638,3656,3670,3601,3657,3698,0.0,0.0,0.0,Started waypoint mission,
20.745513879746625,-103.51429174463514,20000,39.2,3.0,17,5,-1.1,-3.5,-79.7,2019-10-25 17:05:44.8270+0000,-0.10417497158050537,0.0,0.0,-3.0,true,95,-21899,3788,21904,27.850000000000023,14,false,100,100,0,0,0,0,0,3638,3656,3670,3601,3657,3698,0.0,0.0,0.0,Started waypoint mission,
20.74551386015816,-103.51429167429002,20000,39.5,3.1,17,5,-1.0,-3.6,-79.7,2019-10-25 17:05:44.9220+0000,-0.09502303600311279,0.0,0.0,-3.1,true,95,-21899,3788,21904,27.850000000000023,14,false,100,100,0,0,0,0,0,3638,3656,3670,3601,3657,3698,0.0,0.0,0.0,Started waypoint mission,
20.74551387997597,-103.51429162508629,20000,39.800000000000004,2.9,17,5,-1.0,-3.8000000000000003,-79.5,2019-10-25 17:05:45.0320+0000,-0.10887598991394043,0.0,0.0,-2.9,true,95,-21899,3788,21904,27.850000000000023,14,false,100,100,0,0,0,0,0,3638,3656,3670,3601,3657,3698,0.0,0.0,0.0,Started waypoint mission,
