latitude,longitude,flight_time,altitude,speed,satellites,gps_level,pitch,roll,yaw,timestamp,last_updated,velocityX,velocityY,velocityZ,isflying,remainBatteryPercent,currentCurrent,batteryChargeRemaining,batteryVoltage,batteryTemperature,flightMode,istakingphoto,downlinkSignal,uplinkSignal,radioChannel,rc_elevator,rc_aileron,rc_throttle,rc_rudder,Battery_Cell1,Battery_Cell2,Battery_Cell3,Battery_Cell4,Battery_Cell5,Battery_Cell6,gimbalPitch,gimbalYaw,gimbalRoll,app_Tip,app_Warning,appVersion,AircraftComercialName,AircraftSerialNumber,RemoteSerialNumber,BatterySerialNumber,BatteryFullCapacity,dischargeCount,batteryLife,AircraftModel,sonar_altitude,isTakingVideo
20.7454948574326,-103.51432835312896,0,0.0,0.0,14,4,-1.6,-3.2,65.8,2019-10-25 15:45:06.1110+0000,-0.10882604122161865,0.0,0.0,0.0,false,97,-887,4306,25775,23.450000000000045,6,false,100,100,0,0,0,0,0,4285,4293,4295,4299,4303,4301,0.0,0.0,0.0,Started waypoint mission,,Flight1_3.1.0_(3),DJI,041DE70691,03LJ7004AS,9971171500646,4440,4,99,Explore1, ,false
20.745494852762654,-103.51432835941861,0,0.0,0.0,14,4,-1.6,-3.2,65.8,2019-10-25 15:45:06.2020+0000,-0.08927798271179199,0.0,0.0,0.0,false,97,-887,4306,25775,23.450000000000045,6,false,100,100,0,0,0,0,0,4285,4293,4295,4299,4303,4301,0.0,0.0,0.0,Started waypoint mission,
20.74549484777153,-103.51432836637572,0,0.0,0.0,14,4,-1.6,-3.2,65.8,2019-10-25 15:45:06.3110+0000,-0.10864901542663574,0.0,0.0,0.0,false,97,-887,4306,25775,23.450000000000045,6,false,100,100,0,0,0,0,0,4285,4293,4295,4299,4303,4301,0.0,0.0,0.0,Started waypoint mission,
20.745494836627675,-103.51432838019834,0,0.0,0.0,13,4,-1.6,-3.2,65.8,2019-10-25 15:45:06.5210+0000,-0.20932602882385254,0.0,0.0,0.0,false,97,-880,4306,25776,23.450000000000045,6,false,100,100,0,0,0,0,0,4285,4293,4295,4299,4303,4301,0.0,0.0,0.0,Started waypoint mission,
20.74549483055524,-103.51432838719323,0,0.0,0.0,13,4,-1.6,-3.2,65.8,2019-10-25 15:45:06.6210+0000,-0.09930503368377686,0.0,0.0,0.0,false,97,-880,4306,25776,23.450000000000045,6,false,100,100,0,0,0,0,0,4285,4293,4295,4299,4303,4301,0.0,0.0,0.0,Started waypoint mission,
20.745494824317944,-103.51432839414458,0,0.0,0.0,13,4,-1.6,-3.2,65.8,2019-10-25 15:45:06.7520+0000,-0.1299591064453125,0.0,0.0,0.0,false,97,-880,4306,25776,23.450000000000045,6,false,100,100,0,0,0,0,0,4285,4293,4295,4299,4303,4301,0.0,0.0,0.0,Started waypoint mission,
20.745494817859022,-103.51432840093112,0,0.0,0.0,13,4,-1.6,-3.2,65.8,2019-10-25 15:45:06.8320+0000,-0.08031392097473145,0.0,0.0,0.0,false,97,-880,4306,25776,23.450000000000045,6,false,100,100,0,0,0,0,0,4285,4293,4295,4299,4303,4301,0.0,0.0,0.0,Started waypoint mission,
20.745494811157087,-103.51432840752187,0,0.0,0.0,13,4,-1.6,-3.2,65.8,2019-10-25 15:45:06.9470+0000,-0.11360800266265869,0.0,0.0,0.0,false,97,-880,4306,25776,23.450000000000045,6,false,100,100,0,0,0,0,0,4285,4293,4295,4299,4303,4301,0.0,0.0,0.0,Started waypoint mission,
20.745494805071804,-103.5143284134635,0,0.0,0.0,13,4,-1.6,-3.2,65.8,2019-10-25 15:45:06.9500+0000,-0.0028040409088134766,0.0,0.0,0.0,false,97,-880,4306,25776,23.450000000000045,6,false,100,100,0,0,0,0,0,4285,4293,4295,4299,4303,4301,0.0,0.0,0.0,Started waypoint mission,
20.74549479965993,-103.51432841914985,0,0.0,0.0,13,4,-1.6,-3.2,65.8,2019-10-25 15:45:07.0470+0000,-0.09592509269714355,0.0,0.0,0.0,false,97,-880,4306,25776,23.450000000000045,6,false,100,100,0,0,0,0,0,4285,4293,4295,4299,4303,4301,0.0,0.0,0.0,Started waypoint mission,
20.745494794296235,-103.5143284250789,0,0.0,0.0,13,4,-1.6,-3.2,65.8,2019-10-25 15:45:07.2710+0000,-0.22425198554992676,0.0,0.0,0.0,false,97,-880,4306,25776,23.450000000000045,6,false,100,100,0,0,0,0,0,4285,4293,4295,4299,4303,4301,0.0,0.0,0.0,Started waypoint mission,
20.745494789225884,-103.51432843134339,0,0.0,0.0,13,4,-1.6,-3.2,65.8,2019-10-25 15:45:07.2730+0000,-0.000819087028503418,0.0,0.0,0.0,false,97,-880,4306,25776,23.450000000000045,6,false,100,100,0,0,0,0,0,4285,4293,4295,4299,4303,4301,0.0,0.0,0.0,Started waypoint mission,
20.745494783854692,-103.51432843792041,0,0.0,0.0,13,4,-1.6,-3.2,65.9,2019-10-25 15:45:07.3910+0000,-0.11803090572357178,0.0,0.0,0.0,false,97,-882,4306,25776,23.450000000000045,6,false,100,100,0,0,0,0,0,4286,4293,4295,4299,4303,4301,0.0,0.0,0.0,Started waypoint mission,
20.74549477825867,-103.51432844485232,0,0.0,0.0,13,4,-1.5,-3.2,65.9,2019-10-25 15:45:07.4740+0000,-0.08226501941680908,0.0,0.0,0.0,false,97,-882,4306,25776,23.450000000000045,6,false,100,100,0,0,0,0,0,4286,4293,4295,4299,4303,4301,0.0,0.0,0.0,Started waypoint mission,
20.745494772882125,-103.5143284511855,0,0.0,0.0,14,4,-1.5,-3.2,65.9,2019-10-25 15:45:07.5720+0000,-0.09682798385620117,0.0,0.0,0.0,false,97,-882,4306,25776,23.450000000000045,6,false,100,100,0,0,0,0,0,4286,4293,4295,4299,4303,4301,0.0,0.0,0.0,Started waypoint mission,
20.745494767780723,-103.51432845709853,0,0.0,0.0,14,4,-1.5,-3.2,65.9,2019-10-25 15:45:07.6750+0000,-0.10318398475646973,0.0,0.0,0.0,false,97,-882,4306,25776,23.450000000000045,6,false,100,100,0,0,0,0,0,4286,4293,4295,4299,4303,4301,0.0,0.0,0.0,Started waypoint mission,
20.745494762910575,-103.51432846298637,0,0.0,0.0,14,4,-1.5,-3.2,65.9,2019-10-25 15:45:07.7810+0000,-0.10527396202087402,0.0,0.0,0.0,false,97,-882,4306,25776,23.450000000000045,6,false,100,100,0,0,0,0,0,4286,4293,4295,4299,4303,4301,0.0,0.0,0.0,Started waypoint mission,
20.745494758151757,-103.51432846882614,0,0.0,0.0,14,4,-1.5,-3.2,65.9,2019-10-25 15:45:07.9000+0000,-0.11847293376922607,0.0,0.0,0.0,false,97,-882,4306,25776,23.450000000000045,6,false,100,100,0,0,0,0,0,4286,4293,4295,4299,4303,4301,0.0,0.0,0.0,Started waypoint mission,
20.745494752810544,-103.51432847510206,0,0.0,0.0,14,4,-1.5,-3.2,65.9,2019-10-25 15:45:08.0010+0000,-0.10002994537353516,0.0,0.0,0.0,false,97,-882,4306,25776,23.450000000000045,6,false,100,100,0,0,0,0,0,4286,4293,4295,4299,4303,4301,0.0,0.0,0.0,Started waypoint mission,
20.74549474716528,-103.51432848185996,0,0.0,0.0,14,4,-1.5,-3.2,65.9,2019-10-25 15:45:08.1030+0000,-0.10138201713562012,0.0,0.0,0.0,false,97,-882,4306,25776,23.450000000000045,6,false,100,100,0,0,0,0,0,4286,4293,4295,4299,4303,4301,0.0,0.0,0.0,Started waypoint mission,
20.745494741821926,-103.51432848781648,0,0.0,0.0,13,4,-1.5,-3.3000000000000003,65.9,2019-10-25 15:45:08.2010+0000,-0.09801697731018066,0.0,0.0,0.0,false,97,-882,4306,25776,23.450000000000045,11,false,100,100,0,0,0,0,0,4286,4293,4295,4299,4303,4301,0.0,0.0,0.0,Started waypoint mission,
20.745494736938927,-103.51432849307352,0,0.0,0.0,13,4,-1.6,-3.3000000000000003,65.9,2019-10-25 15:45:08.3020+0000,-0.09964001178741455,0.0,0.0,0.0,false,97,-882,4306,25776,23.450000000000045,11,false,100,100,0,0,0,0,0,4286,4293,4295,4299,4303,4301,0.0,0.0,0.0,Started waypoint mission,
20.74549473269294,-103.51432849914109,0,0.0,0.0,13,4,-1.6,-3.3000000000000003,65.9,2019-10-25 15:45:08.4200+0000,-0.1172330379486084,0.0,0.0,0.0,false,97,-1175,4306,25747,23.450000000000045,11,false,100,100,0,0,0,0,0,4279,4288,4291,4294,4296,4296,0.0,0.0,0.0,Started waypoint mission,
20.745494728816304,-103.51432850604552,0,0.0,0.0,13,4,-1.6,-3.2,65.9,2019-10-25 15:45:08.5220+0000,-0.1019660234451294,0.0,0.0,0.0,false,97,-1175,4306,25747,23.450000000000045,11,false,100,100,0,0,0,0,0,4279,4288,4291,4294,4296,4296,0.0,0.0,0.0,Started waypoint mission,
20.745494724485738,-103.51432851234092,0,0.0,0.0,13,4,-1.6,-3.2,65.9,2019-10-25 15:45:08.6200+0000,-0.0967789888381958,0.0,0.0,0.0,false,97,-1175,4306,25747,23.450000000000045,11,false,100,100,0,0,0,0,0,4279,4288,4291,4294,4296,4296,0.0,0.0,0.0,Started waypoint mission,
20.74549471977082,-103.51432851795515,0,0.0,0.0,13,4,-1.6,-3.1,65.9,2019-10-25 15:45:08.7220+0000,-0.10127294063568115,0.0,0.0,0.0,false,97,-1175,4306,25747,23.450000000000045,11,false,100,100,0,0,0,0,0,4279,4288,4291,4294,4296,4296,0.0,0.0,0.0,Started waypoint mission,
20.745494714523815,-103.51432852299351,0,0.0,0.0,15,4,-1.6,-3.1,66.0,2019-10-25 15:45:08.8320+0000,-0.10986995697021484,0.0,0.0,0.0,false,97,-1175,4306,25747,23.450000000000045,11,false,100,100,0,0,0,0,0,4279,4288,4291,4294,4296,4296,0.0,0.0,0.0,Started waypoint mission,
20.74549470874473,-103.51432852913094,0,0.0,0.0,15,4,-1.5,-3.1,66.0,2019-10-25 15:45:08.9330+0000,-0.10053610801696777,0.0,0.0,0.0,false,97,-1175,4306,25747,23.450000000000045,11,false,100,100,0,0,0,0,0,4279,4288,4291,4294,4296,4296,0.0,0.0,0.0,Started waypoint mission,
20.74549470415506,-103.51432853421169,0,0.0,0.0,14,4,-1.5,-3.0,66.0,2019-10-25 15:45:09.0590+0000,-0.12498593330383301,0.0,0.0,0.0,false,97,-1175,4306,25747,23.450000000000045,11,false,100,100,0,0,0,0,0,4279,4288,4291,4294,4296,4296,0.0,0.0,0.0,Started waypoint mission,
20.745494700435792,-103.51432854092953,0,0.0,0.0,14,4,-1.5,-3.0,66.0,2019-10-25 15:45:09.1480+0000,-0.0884850025177002,0.0,0.0,0.0,false,97,-1175,4306,25747,23.450000000000045,11,false,100,100,0,0,0,0,0,4279,4288,4291,4294,4296,4296,0.0,0.0,0.0,Started waypoint mission,
20.745494702809285,-103.51432854966,0,0.0,0.0,15,4,-1.6,-2.9000000000000004,66.0,2019-10-25 15:45:09.1510+0000,-0.0020360946655273438,0.0,0.0,0.0,false,97,-1175,4306,25747,23.450000000000045,11,false,100,100,0,0,0,0,0,4279,4288,4291,4294,4296,4296,0.0,0.0,0.0,Started waypoint mission,
20.745494707069167,-103.51432855460908,0,0.0,0.0,15,4,-1.9000000000000001,-2.5,65.9,2019-10-25 15:45:09.2550+0000,-0.10402607917785645,0.0,0.0,0.0,false,97,-1175,4306,25747,23.450000000000045,11,false,100,100,0,0,0,0,0,4279,4288,4291,4294,4296,4296,0.0,0.0,0.0,Started waypoint mission,
20.74549470311221,-103.51432854420266,0,0.0,0.0,14,4,-2.0,-1.2000000000000002,65.7,2019-10-25 15:45:09.3560+0000,-0.1002359390258789,0.0,0.0,0.0,false,97,-4006,4306,25594,23.450000000000045,11,false,100,100,0,0,0,0,0,4235,4276,4284,4230,4270,4287,0.0,0.0,0.0,Started waypoint mission,
20.7454946706356,-103.51432850582472,0,-0.1,0.0,14,4,-2.0,0.7000000000000001,65.10000000000001,2019-10-25 15:45:09.4620+0000,-0.10540199279785156,0.0,0.0,0.0,false,97,-4006,4306,25594,23.450000000000045,11,false,100,100,0,0,0,0,0,4235,4276,4284,4230,4270,4287,0.0,0.0,0.0,Started waypoint mission,
20.74549457809846,-103.51432842755649,0,-0.1,0.14142136,14,4,-1.5,1.5,64.2,2019-10-25 15:45:09.5680+0000,-0.10549390316009521,-0.1,0.1,0.0,true,97,-4006,4306,25594,23.450000000000045,11,false,100,100,0,0,0,0,0,4235,4276,4284,4230,4270,4287,0.0,0.0,0.0,Started waypoint mission,
20.745494411588396,-103.51432830357194,3000,-0.1,0.3,14,4,-1.1,0.4,63.300000000000004,2019-10-25 15:45:09.6840+0000,-0.11543405055999756,-0.2,0.1,-0.2,true,97,-4006,4306,25594,23.450000000000045,11,false,100,100,0,0,0,0,0,4235,4276,4284,4230,4270,4287,0.0,0.0,0.0,Started waypoint mission,
20.745494179021406,-103.51432812838165,3000,0.0,0.37416577,14,4,-0.7000000000000001,-0.9,62.800000000000004,2019-10-25 15:45:09.7860+0000,-0.1010199785232544,-0.2,0.1,-0.3,true,97,-4006,4306,25594,23.450000000000045,11,false,100,100,0,0,0,0,0,4235,4276,4284,4230,4270,4287,0.0,0.0,0.0,Started waypoint mission,
20.745493892118372,-103.51432791547853,3000,0.0,0.4690416,14,4,-0.5,-2.3000000000000003,62.5,2019-10-25 15:45:09.8880+0000,-0.1018909215927124,-0.3,0.2,-0.3,true,97,-4006,4306,25594,23.450000000000045,11,false,100,100,0,0,0,0,0,4235,4276,4284,4230,4270,4287,0.0,0.0,0.0,Started waypoint mission,
20.745493577825176,-103.5143277031627,3000,0.0,0.4690416,15,4,-0.4,-3.3000000000000003,62.5,2019-10-25 15:45:09.9930+0000,-0.10451197624206543,-0.3,0.2,-0.3,true,97,-4006,4306,25594,23.450000000000045,11,false,100,100,0,0,0,0,0,4235,4276,4284,4230,4270,4287,0.0,0.0,0.0,Started waypoint mission,
20.74549325528197,-103.51432750281829,4000,0.0,0.509902,15,4,-0.30000000000000004,-4.1000000000000005,62.7,2019-10-25 15:45:10.0940+0000,-0.10033595561981201,-0.3,0.1,-0.4,true,97,-4006,4306,25594,23.450000000000045,11,false,100,100,0,0,0,0,0,4235,4276,4284,4230,4270,4287,0.0,0.0,0.0,Started waypoint mission,
20.74549275104773,-103.51432706788604,4000,0.1,0.591608,13,4,-0.30000000000000004,-5.4,63.300000000000004,2019-10-25 15:45:10.2920+0000,-0.19686591625213623,-0.3,0.1,-0.5,true,97,-4006,4306,25594,23.450000000000045,11,false,100,100,0,0,0,0,0,4235,4276,4284,4230,4270,4287,0.0,0.0,0.0,Started waypoint mission,
20.745492509853943,-103.51432689456978,4000,0.1,0.5477226,13,4,-0.30000000000000004,-4.9,63.6,2019-10-25 15:45:10.3920+0000,-0.09998106956481934,-0.2,0.1,-0.5,true,97,-9227,4306,25039,23.450000000000045,11,false,100,100,0,0,0,0,0,4235,4276,4284,4230,4270,4287,0.0,0.0,0.0,Started waypoint mission,
20.74549223991035,-103.51432676814782,4000,0.2,0.64031243,13,4,-0.4,-4.6000000000000005,64.0,2019-10-25 15:45:10.5120+0000,-0.11938297748565674,-0.2,0.1,-0.6,true,97,-9227,4306,25039,23.450000000000045,11,false,100,100,0,0,0,0,0,4235,4276,4284,4230,4270,4287,0.0,0.0,0.0,Started waypoint mission,
20.745491970526686,-103.51432665694689,4000,0.30000000000000004,0.6324555,13,4,-0.7000000000000001,-4.4,64.3,2019-10-25 15:45:10.6120+0000,-0.09929001331329346,-0.2,0.0,-0.6,true,97,-9227,4306,25039,23.450000000000045,11,false,100,100,0,0,0,0,0,4235,4276,4284,4230,4270,4287,0.0,0.0,0.0,Started waypoint mission,
20.745491697266395,-103.51432655422109,4000,0.30000000000000004,0.5830952,13,4,-1.0,-4.3,64.60000000000001,2019-10-25 15:45:10.7100+0000,-0.09747493267059326,-0.3,0.0,-0.5,true,97,-9227,4306,25039,23.450000000000045,11,false,100,100,0,0,0,0,0,4235,4276,4284,4230,4270,4287,0.0,0.0,0.0,Started waypoint mission,
20.745491379313997,-103.5143264890381,4000,0.4,0.5830952,13,4,-1.2000000000000002,-4.3,64.7,2019-10-25 15:45:10.8280+0000,-0.11747801303863525,-0.3,0.0,-0.5,true,97,-9227,4306,25039,23.450000000000045,11,false,100,100,0,0,0,0,0,4235,4276,4284,4230,4270,4287,0.0,0.0,0.0,Started waypoint mission,
20.74549101164195,-103.51432645710487,4000,0.5,0.5,13,4,-1.4000000000000001,-4.2,64.8,2019-10-25 15:45:10.9130+0000,-0.08379602432250977,-0.3,0.0,-0.4,true,97,-9227,4262,25039,23.450000000000045,11,false,100,100,0,0,0,0,0,4107,4111,4142,4127,4129,4152,0.0,0.0,0.0,Started waypoint mission,
20.745490700047835,-103.51432642610179,5000,0.5,0.5830952,14,4,-1.5,-4.3,64.9,2019-10-25 15:45:11.0210+0000,-0.1068800687789917,-0.3,0.0,-0.5,true,97,-9227,4262,25039,23.450000000000045,11,false,100,100,0,0,0,0,0,4107,4111,4142,4127,4129,4152,0.0,0.0,0.0,Started waypoint mission,
20.745490457942996,-103.51432639089262,5000,0.6000000000000001,0.44721362,14,4,-1.5,-4.2,64.9,2019-10-25 15:45:11.1260+0000,-0.10449004173278809,-0.2,0.0,-0.4,true,97,-9227,4262,25039,23.450000000000045,11,false,100,100,0,0,0,0,0,4107,4111,4142,4127,4129,4152,0.0,0.0,0.0,Started waypoint mission,
20.745490164946254,-103.51432636395137,5000,0.6000000000000001,0.53851646,14,4,-1.5,-4.1000000000000005,64.9,2019-10-25 15:45:11.2370+0000,-0.11097598075866699,-0.2,0.0,-0.5,true,97,-9227,4262,25039,23.450000000000045,11,false,100,100,0,0,0,0,0,4107,4111,4142,4127,4129,4152,0.0,0.0,0.0,Started waypoint mission,
20.74548980548677,-103.51432634520422,5000,0.7000000000000001,0.5,14,4,-1.5,-4.1000000000000005,64.8,2019-10-25 15:45:11.3440+0000,-0.10627210140228271,-0.3,0.0,-0.4,true,97,-9227,4262,25039,23.450000000000045,11,false,100,100,0,0,0,0,0,4107,4111,4142,4127,4129,4152,0.0,0.0,0.0,Started waypoint mission,
20.74548944919726,-103.51432632726996,5000,0.7000000000000001,0.36055514,14,4,-1.5,-4.1000000000000005,64.8,2019-10-25 15:45:11.3460+0000,-0.0017600059509277344,-0.3,0.0,-0.2,true,96,-9227,4262,25039,23.450000000000045,11,false,100,100,0,0,0,0,0,0,0,0,0,0,0,0.0,0.0,0.0,Started waypoint mission,
20.745489103133043,-103.51432630747075,5000,0.7000000000000001,0.42426407,14,4,-1.6,-4.1000000000000005,64.8,2019-10-25 15:45:11.4500+0000,-0.10382699966430664,-0.3,0.0,-0.3,true,96,-9227,4262,25039,23.450000000000045,11,false,100,100,0,0,0,0,0,4107,4111,4142,4127,4129,4152,0.0,0.0,0.0,Started waypoint mission,
20.74548877237843,-103.5143263089166,5000,0.8,0.5,14,4,-1.6,-4.2,64.8,2019-10-25 15:45:11.5330+0000,-0.08148598670959473,-0.3,0.0,-0.4,true,96,-9227,4262,25039,23.450000000000045,11,false,100,100,0,0,0,0,0,4107,4111,4142,4127,4129,4152,0.0,0.0,0.0,Started waypoint mission,
20.745488455483763,-103.51432634233399,5000,0.8,0.5,14,4,-1.6,-4.4,64.8,2019-10-25 15:45:11.6610+0000,-0.12780606746673584,-0.3,0.0,-0.4,true,96,-9227,4262,25039,23.450000000000045,11,false,100,100,0,0,0,0,0,4107,4111,4142,4127,4129,4152,0.0,0.0,0.0,Started waypoint mission,
20.745488135290636,-103.51432636481368,5000,0.9,0.5830952,14,4,-1.7000000000000002,-4.5,64.8,2019-10-25 15:45:11.7580+0000,-0.09537899494171143,-0.3,0.0,-0.5,true,96,-9227,4262,25039,23.450000000000045,6,false,100,100,0,0,0,0,0,4107,4111,4142,4127,4129,4152,0.0,0.0,0.0,Started waypoint mission,
20.745487809991825,-103.51432637272663,5000,0.9,0.5,14,4,-1.7000000000000002,-4.6000000000000005,65.0,2019-10-25 15:45:11.8500+0000,-0.09154200553894043,-0.3,0.0,-0.4,true,96,-17030,4262,24427,23.450000000000045,14,false,100,100,0,0,0,0,0,0,0,0,0,0,0,0.0,0.0,0.0,Started waypoint mission,
20.745487477252325,-103.51432642026487,5000,1.0,0.36055514,14,4,-2.3000000000000003,-5.2,65.3,2019-10-25 15:45:11.9520+0000,-0.10098791122436523,-0.3,0.0,-0.2,true,96,-17030,4262,24427,23.450000000000045,14,false,100,100,0,0,0,0,0,4037,4051,4079,4066,4067,4083,0.0,0.0,0.0,Started waypoint mission,
20.745487148320898,-103.51432650857318,6000,1.0,0.36055514,14,4,-2.8000000000000003,-5.6000000000000005,65.5,2019-10-25 15:45:12.0530+0000,-0.10014092922210693,-0.3,0.0,-0.2,true,96,-17030,4262,24427,23.450000000000045,14,false,100,100,0,0,0,0,0,4037,4051,4079,4066,4067,4083,0.0,0.0,0.0,Started waypoint mission,
20.74548684214931,-103.51432657467932,6000,1.0,0.28284273,14,4,-3.1,-5.6000000000000005,65.7,2019-10-25 15:45:12.1670+0000,-0.11351096630096436,-0.2,0.0,-0.2,true,96,-17030,4262,24427,23.450000000000045,14,false,100,100,0,0,0,0,0,4037,4051,4079,4066,4067,4083,0.0,0.0,0.0,Started waypoint mission,
20.74548657050445,-103.51432660984717,6000,1.0,0.28284273,14,4,-3.1,-5.300000000000001,65.8,2019-10-25 15:45:12.2630+0000,-0.0952380895614624,-0.2,0.0,-0.2,true,96,-17030,4262,24427,23.450000000000045,14,false,100,100,0,0,0,0,0,4037,4051,4079,4066,4067,4083,0.0,0.0,0.0,Started waypoint mission,
20.74548632374668,-103.51432664904539,6000,1.0,0.22360681,14,4,-3.0,-5.0,65.9,2019-10-25 15:45:12.3720+0000,-0.10787498950958252,-0.1,0.0,-0.2,true,96,-17030,4262,24427,23.450000000000045,14,false,100,100,0,0,0,0,0,4037,4051,4079,4066,4067,4083,0.0,0.0,0.0,Started waypoint mission,
20.74548610379671,-103.51432668989959,6000,1.0,0.50990194,14,4,-2.9000000000000004,-4.6000000000000005,65.8,2019-10-25 15:45:12.4770+0000,-0.10464298725128174,-0.1,0.0,-0.5,true,96,-17030,4262,24427,23.450000000000045,14,false,100,100,0,0,0,0,0,4037,4051,4079,4066,4067,4083,0.0,0.0,0.0,Started waypoint mission,
20.745485921170026,-103.51432674328099,6000,1.1,0.8062258,15,4,-2.6,-4.3,65.7,2019-10-25 15:45:12.5870+0000,-0.10928606986999512,-0.1,0.0,-0.8,true,96,-17030,4262,24427,23.450000000000045,14,false,100,100,0,0,0,0,0,4037,4051,4079,4066,4067,4083,0.0,0.0,0.0,Started waypoint mission,
20.74548577024809,-103.51432681581868,6000,1.1,1.1,15,4,-2.4000000000000004,-4.1000000000000005,65.7,2019-10-25 15:45:12.6910+0000,-0.10360205173492432,0.0,0.0,-1.1,true,96,-17030,4262,24427,23.450000000000045,14,false,100,100,0,0,0,0,0,4037,4051,4079,4066,4067,4083,0.0,0.0,0.0,Started waypoint mission,
20.745485658531656,-103.5143268588427,6000,1.3,1.4,15,4,-2.3000000000000003,-4.0,65.60000000000001,2019-10-25 15:45:12.7910+0000,-0.09967994689941406,0.0,0.0,-1.4,true,96,-17030,4262,24427,23.450000000000045,14,false,100,100,0,0,0,0,0,4037,4051,4079,4066,4067,4083,0.0,0.0,0.0,Started waypoint mission,
20.74548557964413,-103.51432686653224,6000,1.5,1.7,15,4,-2.3000000000000003,-4.1000000000000005,65.5,2019-10-25 15:45:12.9030+0000,-0.11112308502197266,0.0,0.0,-1.7,true,96,-17515,4262,24220,23.450000000000045,14,false,100,100,0,0,0,0,0,4010,4035,4046,4035,4048,4054,0.0,0.0,0.0,Started waypoint mission,
20.745485458521575,-103.51432690547375,6000,1.6,1.9,14,4,-2.3000000000000003,-4.1000000000000005,65.5,2019-10-25 15:45:12.9920+0000,-0.08826088905334473,0.0,0.0,-1.9,true,96,-17515,4262,24220,23.450000000000045,14,false,100,100,0,0,0,0,0,4010,4035,4046,4035,4048,4054,0.0,0.0,0.0,Started waypoint mission,
20.745485284931185,-103.51432697867642,7000,1.8,2.0,14,4,-2.4000000000000004,-4.2,65.3,2019-10-25 15:45:13.1060+0000,-0.11364400386810303,0.0,0.0,-2.0,true,96,-17515,4262,24220,23.450000000000045,14,false,100,100,0,0,0,0,0,4010,4035,4046,4035,4048,4054,0.0,0.0,0.0,Started waypoint mission,
20.745485110270323,-103.51432699913296,7000,2.0,2.2,15,4,-2.7,-4.4,65.2,2019-10-25 15:45:13.2150+0000,-0.10821294784545898,0.0,0.0,-2.2,true,96,-17515,4262,24220,23.450000000000045,14,false,100,100,0,0,0,0,0,4010,4035,4046,4035,4048,4054,0.0,0.0,0.0,Started waypoint mission,
20.745484941746064,-103.51432695675243,7000,2.2,2.3,15,4,-2.8000000000000003,-4.7,65.0,2019-10-25 15:45:13.3230+0000,-0.1070929765701294,0.0,0.0,-2.3,true,96,-17515,4262,24220,23.450000000000045,14,false,100,100,0,0,0,0,0,4010,4035,4046,4035,4048,4054,0.0,0.0,0.0,Started waypoint mission,
20.745484780272893,-103.51432691057958,7000,2.5,2.5,15,4,-2.7,-4.9,64.7,2019-10-25 15:45:13.4240+0000,-0.09963595867156982,0.0,0.0,-2.5,true,96,-17515,4262,24220,23.450000000000045,14,false,100,100,0,0,0,0,0,4010,4035,4046,4035,4048,4054,0.0,0.0,0.0,Started waypoint mission,
20.745484631400718,-103.51432686564199,7000,2.7,2.8,15,4,-2.5,-5.1000000000000005,64.7,2019-10-25 15:45:13.5230+0000,-0.09880805015563965,0.0,0.0,-2.8,true,96,-17515,4262,24220,23.450000000000045,14,false,100,100,0,0,0,0,0,4010,4035,4046,4035,4048,4054,0.0,0.0,0.0,Started waypoint mission,
20.74548450791257,-103.51432681785887,7000,3.0,3.0,15,4,-2.4000000000000004,-5.2,64.8,2019-10-25 15:45:13.6370+0000,-0.11313605308532715,0.0,0.0,-3.0,true,96,-17515,4262,24220,23.450000000000045,14,false,100,100,0,0,0,0,0,4010,4035,4046,4035,4048,4054,0.0,0.0,0.0,Started waypoint mission,
20.74548440573361,-103.5143267696064,7000,3.3000000000000003,3.2,15,4,-2.4000000000000004,-5.2,65.10000000000001,2019-10-25 15:45:13.6430+0000,-0.005792975425720215,0.0,0.0,-3.2,true,96,-17515,4262,24220,23.450000000000045,14,false,100,100,0,0,0,0,0,4010,4035,4046,4035,4048,4054,0.0,0.0,0.0,Started waypoint mission,
20.745484308588654,-103.51432670630803,7000,3.7,3.2,15,4,-2.4000000000000004,-5.2,65.4,2019-10-25 15:45:13.7330+0000,-0.0889279842376709,0.0,0.0,-3.2,true,96,-17515,4262,24220,23.450000000000045,14,false,100,100,0,0,0,0,0,4010,4035,4046,4035,4048,4054,0.0,0.0,0.0,Started waypoint mission,
20.74548420810984,-103.51432662250075,7000,4.0,3.2,15,4,-2.2,-5.300000000000001,65.8,2019-10-25 15:45:13.8340+0000,-0.09976005554199219,0.0,0.0,-3.2,true,96,-19977,4262,24037,23.450000000000045,14,false,100,100,0,0,0,0,0,0,0,0,0,0,0,0.0,0.0,0.0,Started waypoint mission,
20.745484106442778,-103.51432655184115,7000,4.3,3.3,15,4,-2.1,-5.5,66.0,2019-10-25 15:45:13.9570+0000,-0.12299597263336182,0.0,0.0,-3.3,true,96,-19977,4262,24037,23.450000000000045,14,false,100,100,0,0,0,0,0,3928,3957,3961,3977,4023,3967,0.0,0.0,0.0,Started waypoint mission,
20.74548400582701,-103.51432650352969,8000,4.6000000000000005,3.3,15,4,-2.1,-5.6000000000000005,66.2,2019-10-25 15:45:14.0610+0000,-0.10317802429199219,0.0,0.0,-3.3,true,96,-19977,4262,24037,23.450000000000045,14,false,100,100,0,0,0,0,0,3928,3957,3961,3977,4023,3967,0.0,0.0,0.0,Started waypoint mission,
20.745483888561335,-103.51432650493621,8000,5.0,3.3,15,4,-2.2,-5.7,66.3,2019-10-25 15:45:14.1630+0000,-0.10097396373748779,0.0,0.0,-3.3,true,96,-19977,4262,24037,23.450000000000045,14,false,100,100,0,0,0,0,0,3928,3957,3961,3977,4023,3967,0.0,0.0,0.0,Started waypoint mission,
20.74548361077164,-103.5143266505402,8000,5.7,3.4,15,4,-2.8000000000000003,-5.800000000000001,66.2,2019-10-25 15:45:14.5430+0000,-0.3798229694366455,0.0,0.0,-3.4,true,96,-19977,4262,24037,23.450000000000045,14,false,100,100,0,0,0,0,0,3928,3957,3961,3977,4023,3967,0.0,0.0,0.0,Started waypoint mission,
20.745483454176533,-103.51432675148573,8000,6.0,3.3,15,4,-3.2,-5.9,66.10000000000001,2019-10-25 15:45:14.5890+0000,-0.04498302936553955,0.0,0.0,-3.3,true,96,-19977,4262,24037,23.450000000000045,14,false,100,100,0,0,0,0,0,3928,3957,3961,3977,4023,3967,0.0,0.0,0.0,Started waypoint mission,
20.74548331936174,-103.5143268674593,8000,6.300000000000001,3.3,15,4,-3.5,-5.800000000000001,66.10000000000001,2019-10-25 15:45:14.5900+0000,-0.0007579326629638672,0.0,0.0,-3.3,true,96,-19977,4262,24037,23.450000000000045,14,false,100,100,0,0,0,0,0,3928,3957,3961,3977,4023,3967,0.0,0.0,0.0,Started waypoint mission,
20.745483211545267,-103.51432699400073,8000,6.7,3.3,15,4,-3.6,-5.6000000000000005,66.10000000000001,2019-10-25 15:45:14.6830+0000,-0.09233701229095459,0.0,0.0,-3.3,true,96,-19977,4262,24037,23.450000000000045,14,false,100,100,0,0,0,0,0,3928,3957,3961,3977,4023,3967,0.0,0.0,0.0,Started waypoint mission,
20.745483122162263,-103.51432714025319,8000,7.0,3.2,15,4,-3.6,-5.7,66.2,2019-10-25 15:45:14.7850+0000,-0.10103797912597656,0.0,0.0,-3.2,true,96,-19977,4262,24037,23.450000000000045,14,false,100,100,0,0,0,0,0,3928,3957,3961,3977,4023,3967,0.0,0.0,0.0,Started waypoint mission,
20.745483054199774,-103.5143273055778,8000,7.300000000000001,3.2,15,4,-3.8000000000000003,-5.6000000000000005,66.3,2019-10-25 15:45:14.8990+0000,-0.11332595348358154,0.0,0.0,-3.2,true,96,-24818,4262,23476,23.450000000000045,14,false,100,100,0,0,0,0,0,3900,3918,3943,3921,3936,3962,0.0,0.0,0.0,Started waypoint mission,
20.745482996375866,-103.51432747279706,9000,7.6000000000000005,3.3,15,4,-3.8000000000000003,-5.5,66.3,2019-10-25 15:45:15.0150+0000,-0.11591196060180664,0.0,0.0,-3.3,true,96,-24818,4262,23476,23.450000000000045,14,false,100,100,0,0,0,0,0,3900,3918,3943,3921,3936,3962,0.0,0.0,0.0,Started waypoint mission,
20.745482947390798,-103.51432764505468,9000,8.0,3.2,15,4,-4.0,-5.5,66.3,2019-10-25 15:45:15.1110+0000,-0.09554696083068848,0.0,0.0,-3.2,true,96,-24818,4262,23476,23.450000000000045,14,false,100,100,0,0,0,0,0,3900,3918,3943,3921,3936,3962,0.0,0.0,0.0,Started waypoint mission,
20.74548291383092,-103.51432782921731,9000,8.3,3.3015149,15,4,-4.1000000000000005,-5.4,66.3,2019-10-25 15:45:15.1990+0000,-0.08743798732757568,0.1,0.0,-3.3,true,96,-24818,4262,23476,23.450000000000045,14,false,100,100,0,0,0,0,0,3900,3918,3943,3921,3936,3962,0.0,0.0,0.0,Started waypoint mission,
20.745482897173535,-103.51432802500103,9000,8.6,3.2015622,15,4,-4.3,-5.300000000000001,66.2,2019-10-25 15:45:15.3020+0000,-0.10253393650054932,0.1,0.0,-3.2,true,96,-24818,4262,23476,23.450000000000045,14,false,100,100,0,0,0,0,0,3900,3918,3943,3921,3936,3962,0.0,0.0,0.0,Started waypoint mission,
20.745482911509928,-103.51432822360445,9000,8.9,3.2015622,15,4,-4.4,-5.0,66.10000000000001,2019-10-25 15:45:15.4030+0000,-0.09970200061798096,0.1,0.0,-3.2,true,96,-24818,4262,23476,23.450000000000045,14,false,100,100,0,0,0,0,0,3900,3918,3943,3921,3936,3962,0.0,0.0,0.0,Started waypoint mission,
20.74548296035167,-103.51432842189529,9000,9.3,3.2015622,15,4,-4.4,-4.800000000000001,66.0,2019-10-25 15:45:15.5170+0000,-0.11368799209594727,0.1,0.0,-3.2,true,96,-24818,4262,23476,23.450000000000045,14,false,100,100,0,0,0,0,0,3900,3918,3943,3921,3936,3962,0.0,0.0,0.0,Started waypoint mission,
20.74548311755605,-103.5143287835277,9000,9.9,3.2015622,15,4,-4.5,-4.6000000000000005,65.9,2019-10-25 15:45:15.7350+0000,-0.2171419858932495,0.1,0.0,-3.2,true,96,-24818,4262,23476,23.450000000000045,14,false,100,100,0,0,0,0,0,3900,3918,3943,3921,3936,3962,0.0,0.0,0.0,Started waypoint mission,
20.745483222235777,-103.51432894410229,9000,10.3,3.2015622,15,4,-4.5,-4.4,65.8,2019-10-25 15:45:15.8230+0000,-0.08758807182312012,0.1,0.0,-3.2,true,96,-24818,4262,23476,23.450000000000045,14,false,100,100,0,0,0,0,0,3900,3918,3943,3921,3936,3962,0.0,0.0,0.0,Started waypoint mission,
20.745483341291408,-103.51432908878674,9000,10.600000000000001,3.1016126,15,4,-4.4,-4.3,65.7,2019-10-25 15:45:15.9230+0000,-0.09874999523162842,0.1,0.0,-3.1,true,96,-20339,4262,23787,23.450000000000045,14,false,100,100,0,0,0,0,0,3900,3918,3943,3921,3936,3962,0.0,0.0,0.0,Started waypoint mission,
20.745483481240832,-103.51432922512883,10000,10.9,3.1064448,15,5,-4.3,-4.0,65.7,2019-10-25 15:45:16.0350+0000,-0.11181902885437012,0.2,0.0,-3.1,true,96,-20339,4262,23787,23.450000000000045,14,false,100,100,0,0,0,0,0,3900,3918,3943,3921,3936,3962,0.0,0.0,0.0,Started waypoint mission,
20.745483642987566,-103.51432935448061,10000,11.200000000000001,3.1064448,15,5,-4.1000000000000005,-3.7,65.7,2019-10-25 15:45:16.1320+0000,-0.0958629846572876,0.2,0.0,-3.1,true,96,-20339,4262,23787,23.450000000000045,14,false,100,100,0,0,0,0,0,3900,3918,3943,3921,3936,3962,0.0,0.0,0.0,Started waypoint mission,
20.745483848275455,-103.51432945699086,10000,11.600000000000001,3.1064448,15,5,-4.0,-3.5,65.7,2019-10-25 15:45:16.2470+0000,-0.11511099338531494,0.2,0.0,-3.1,true,96,-20339,4262,23787,23.450000000000045,14,false,100,100,0,0,0,0,0,3900,3918,3943,3921,3936,3962,0.0,0.0,0.0,Started waypoint mission,
20.745484097440563,-103.51432952957545,10000,11.9,3.108054,15,5,-3.7,-3.3000000000000003,65.7,2019-10-25 15:45:16.3480+0000,-0.10031592845916748,0.2,0.1,-3.1,true,96,-20339,4262,23787,23.450000000000045,14,false,100,100,0,0,0,0,0,3900,3918,3943,3921,3936,3962,0.0,0.0,0.0,Started waypoint mission,
20.745484328030766,-103.51432957901748,10000,12.200000000000001,3.0083218,15,5,-3.4000000000000004,-3.1,65.7,2019-10-25 15:45:16.3510+0000,-0.0017709732055664062,0.2,0.1,-3.0,true,96,-20339,4262,23787,23.450000000000045,14,false,100,100,0,0,0,0,0,0,0,0,0,0,0,0.0,0.0,0.0,Started waypoint mission,
20.745484529997597,-103.51432960624416,10000,12.5,3.108054,15,5,-3.1,-2.9000000000000004,65.7,2019-10-25 15:45:16.4610+0000,-0.11028194427490234,0.2,0.1,-3.1,true,96,-20339,4262,23787,23.450000000000045,14,false,100,100,0,0,0,0,0,3947,3957,3972,3963,3980,3984,0.0,0.0,0.0,Started waypoint mission,
20.745484737788377,-103.51432961729682,10000,12.8,3.108054,15,5,-2.8000000000000003,-3.0,65.7,2019-10-25 15:45:16.5590+0000,-0.09679698944091797,0.2,0.1,-3.1,true,96,-20339,4262,23787,23.450000000000045,14,false,100,100,0,0,0,0,0,3947,3957,3972,3963,3980,3984,0.0,0.0,0.0,Started waypoint mission,
20.745484952009118,-103.51432962029453,10000,13.100000000000001,3.0033317,15,5,-2.7,-3.0,65.8,2019-10-25 15:45:16.6680+0000,-0.10800909996032715,0.1,0.1,-3.0,true,96,-20339,4262,23787,23.450000000000045,14,false,100,100,0,0,0,0,0,3947,3957,3972,3963,3980,3984,0.0,0.0,0.0,Started waypoint mission,
20.745485182584325,-103.51432962338723,10000,13.5,3.103224,15,5,-2.7,-3.0,65.8,2019-10-25 15:45:16.7670+0000,-0.09802305698394775,0.1,0.1,-3.1,true,96,-20339,4262,23787,23.450000000000045,14,false,100,100,0,0,0,0,0,3947,3957,3972,3963,3980,3984,0.0,0.0,0.0,Started waypoint mission,
20.745485435624868,-103.51432962529503,10000,13.8,3.103224,15,5,-2.7,-2.9000000000000004,65.9,2019-10-25 15:45:16.8700+0000,-0.10219001770019531,0.1,0.1,-3.1,true,96,-20339,4262,23787,23.450000000000045,14,false,100,100,0,0,0,0,0,3947,3957,3972,3963,3980,3984,0.0,0.0,0.0,Started waypoint mission,
20.74548568947898,-103.51432959618506,10000,14.100000000000001,3.0033317,15,5,-2.5,-2.7,65.9,2019-10-25 15:45:16.9630+0000,-0.09169507026672363,0.1,0.1,-3.0,true,96,-20339,4262,23787,23.450000000000045,14,false,100,100,0,0,0,0,0,3947,3957,3972,3963,3980,3984,0.0,0.0,0.0,Started waypoint mission,
20.745485943074044,-103.51432953395074,11000,14.4,3.0033317,15,5,-2.4000000000000004,-2.3000000000000003,65.9,2019-10-25 15:45:17.0750+0000,-0.1115109920501709,0.1,0.1,-3.0,true,96,-20339,4262,23787,23.450000000000045,14,false,100,100,0,0,0,0,0,3947,3957,3972,3963,3980,3984,0.0,0.0,0.0,Started waypoint mission,
20.745486184667676,-103.51432947380006,11000,14.700000000000001,3.0033317,15,5,-2.2,-2.1,65.8,2019-10-25 15:45:17.1730+0000,-0.09626400470733643,0.1,0.1,-3.0,true,96,-20339,4262,23787,23.450000000000045,14,false,100,100,0,0,0,0,0,3947,3957,3972,3963,3980,3984,0.0,0.0,0.0,Started waypoint mission,
20.745486408318094,-103.51432941981999,11000,15.100000000000001,2.9034464,15,5,-2.0,-2.0,65.8,2019-10-25 15:45:17.2740+0000,-0.10034501552581787,0.1,0.1,-2.9,true,96,-20339,4262,23787,23.450000000000045,14,false,100,100,0,0,0,0,0,3947,3957,3972,3963,3980,3984,0.0,0.0,0.0,Started waypoint mission,
20.745486633972682,-103.51432934077285,11000,15.4,3.0033317,15,5,-1.9000000000000001,-2.1,65.8,2019-10-25 15:45:17.3720+0000,-0.09793901443481445,0.1,0.1,-3.0,true,96,-19177,4262,23847,23.450000000000045,14,false,100,100,0,0,0,0,0,3954,3961,3983,3976,3983,3994,0.0,0.0,0.0,Started waypoint mission,
20.74548686553476,-103.51432923099871,11000,15.700000000000001,3.0033317,15,5,-1.8,-2.3000000000000003,65.8,2019-10-25 15:45:17.4830+0000,-0.11037898063659668,0.1,0.1,-3.0,true,96,-19177,4262,23847,23.450000000000045,14,false,100,100,0,0,0,0,0,3954,3961,3983,3976,3983,3994,0.0,0.0,0.0,Started waypoint mission,
20.745487068475523,-103.51432909422856,11000,16.0,2.9017239,15,5,-1.8,-2.4000000000000004,65.8,2019-10-25 15:45:17.5830+0000,-0.09874093532562256,0.0,0.1,-2.9,true,96,-19177,4262,23847,23.450000000000045,14,false,100,100,0,0,0,0,0,3954,3961,3983,3976,3983,3994,0.0,0.0,0.0,Started waypoint mission,
20.745487242493095,-103.51432892768042,11000,16.3,2.9017239,15,5,-1.6,-2.5,65.8,2019-10-25 15:45:17.6890+0000,-0.10618901252746582,0.0,0.1,-2.9,true,96,-19177,4262,23847,23.450000000000045,14,false,100,100,0,0,0,0,0,3954,3961,3983,3976,3983,3994,0.0,0.0,0.0,Started waypoint mission,
20.745487405485672,-103.51432875182607,11000,16.6,3.0066593,15,5,-1.5,-2.6,65.8,2019-10-25 15:45:17.7850+0000,-0.09499907493591309,0.0,0.2,-3.0,true,96,-19177,4262,23847,23.450000000000045,14,false,100,100,0,0,0,0,0,3954,3961,3983,3976,3983,3994,0.0,0.0,0.0,Started waypoint mission,
20.745487558598708,-103.51432856912916,11000,16.900000000000002,2.9068885,15,5,-1.2000000000000002,-2.9000000000000004,65.8,2019-10-25 15:45:17.9050+0000,-0.11923503875732422,0.0,0.2,-2.9,true,96,-19177,4262,23847,23.450000000000045,14,false,100,100,0,0,0,0,0,3954,3961,3983,3976,3983,3994,0.0,0.0,0.0,Started waypoint mission,
20.74548770876764,-103.51432836804413,11000,17.3,2.9068885,15,5,-1.1,-2.9000000000000004,65.8,2019-10-25 15:45:18.0010+0000,-0.09529399871826172,0.0,0.2,-2.9,true,96,-19177,4262,23847,23.450000000000045,14,false,100,100,0,0,0,0,0,3954,3961,3983,3976,3983,3994,0.0,0.0,0.0,Started waypoint mission,
20.745487857519063,-103.51432814528192,12000,17.6,2.9068885,15,5,-0.9,-3.0,65.7,2019-10-25 15:45:18.1070+0000,-0.10478901863098145,0.0,0.2,-2.9,true,96,-19177,4262,23847,23.450000000000045,14,false,100,100,0,0,0,0,0,3954,3961,3983,3976,3983,3994,0.0,0.0,0.0,Started waypoint mission,
20.745487991208268,-103.51432790748594,12000,17.900000000000002,2.8071337,15,5,-0.7000000000000001,-3.1,65.7,2019-10-25 15:45:18.1940+0000,-0.08602499961853027,0.0,0.2,-2.8,true,96,-19177,4262,23847,23.450000000000045,14,false,100,100,0,0,0,0,0,3954,3961,3983,3976,3983,3994,0.0,0.0,0.0,Started waypoint mission,
20.74548810992198,-103.51432765568197,12000,18.2,2.9017239,15,5,-0.4,-3.1,65.7,2019-10-25 15:45:18.2940+0000,-0.0989769697189331,0.0,0.1,-2.9,true,96,-19177,4262,23847,23.450000000000045,14,false,100,100,0,0,0,0,0,3954,3961,3983,3976,3983,3994,0.0,0.0,0.0,Started waypoint mission,
20.745488276649297,-103.51432718000778,12000,18.7,2.8017852,15,5,-0.1,-3.2,65.60000000000001,2019-10-25 15:45:18.5050+0000,-0.2109670639038086,0.0,0.1,-2.8,true,96,-18899,4218,23860,23.450000000000045,14,false,100,100,0,0,0,0,0,3955,3954,3999,3988,3982,3987,0.0,0.0,0.0,Started waypoint mission,
20.74548833494931,-103.5143269464506,12000,19.0,2.9017239,15,5,0.0,-3.3000000000000003,65.60000000000001,2019-10-25 15:45:18.6040+0000,-0.09848499298095703,0.0,0.1,-2.9,true,96,-18899,4218,23860,23.450000000000045,14,false,100,100,0,0,0,0,0,3955,3954,3999,3988,3982,3987,0.0,0.0,0.0,Started waypoint mission,
20.745488380913933,-103.5143267092781,12000,19.3,2.9017239,15,5,0.0,-3.5,65.60000000000001,2019-10-25 15:45:18.7030+0000,-0.09833395481109619,0.0,0.1,-2.9,true,96,-18899,4218,23860,23.450000000000045,14,false,100,100,0,0,0,0,0,3955,3954,3999,3988,3982,3987,0.0,0.0,0.0,Started waypoint mission,
20.74548840685735,-103.51432647143133,12000,19.6,2.9017239,15,5,0.1,-3.5,65.60000000000001,2019-10-25 15:45:18.8150+0000,-0.11128997802734375,0.0,0.1,-2.9,true,96,-18899,4218,23860,23.450000000000045,14,false,100,100,0,0,0,0,0,3955,3954,3999,3988,3982,3987,0.0,0.0,0.0,Started waypoint mission,
20.745488413488335,-103.514326228584,12000,19.900000000000002,2.9017239,15,5,0.30000000000000004,-3.8000000000000003,65.60000000000001,2019-10-25 15:45:18.9180+0000,-0.10169100761413574,0.0,0.1,-2.9,true,96,-18899,4218,23860,23.450000000000045,14,false,100,100,0,0,0,0,0,3955,3954,3999,3988,3982,3987,0.0,0.0,0.0,Started waypoint mission,
20.74548834182641,-103.51432574000903,13000,20.5,2.9017239,15,5,0.1,-4.2,65.60000000000001,2019-10-25 15:45:19.1130+0000,-0.19434499740600586,0.0,0.1,-2.9,true,96,-18899,4218,23860,23.450000000000045,14,false,100,100,0,0,0,0,0,3955,3954,3999,3988,3982,3987,0.0,0.0,0.0,Started waypoint mission,
20.745488249818962,-103.51432534514062,13000,21.1,2.9,15,5,-0.1,-4.5,65.7,2019-10-25 15:45:19.3280+0000,-0.21421098709106445,0.0,0.0,-2.9,true,96,-18899,4218,23860,23.450000000000045,14,false,100,100,0,0,0,0,0,3955,3954,3999,3988,3982,3987,0.0,0.0,0.0,Started waypoint mission,
20.7454881951659,-103.51432516353731,13000,21.400000000000002,2.9,15,5,-0.2,-4.4,65.7,2019-10-25 15:45:19.4320+0000,-0.1043480634689331,0.0,0.0,-2.9,true,95,-19014,4218,23788,23.55000000000001,14,false,100,100,0,0,0,0,0,3939,3952,3977,3969,3970,3976,0.0,0.0,0.0,Started waypoint mission,
20.745488129291925,-103.51432497723454,13000,21.6,2.8,15,5,-0.30000000000000004,-4.4,65.8,2019-10-25 15:45:19.5230+0000,-0.08985602855682373,0.0,0.0,-2.8,true,95,-19014,4218,23788,23.55000000000001,14,false,100,100,0,0,0,0,0,3939,3952,3977,3969,3970,3976,0.0,0.0,0.0,Started waypoint mission,
20.745488045713614,-103.51432481732617,13000,22.0,2.9,15,5,-0.30000000000000004,-4.4,65.8,2019-10-25 15:45:19.6380+0000,-0.11419403553009033,0.0,0.0,-2.9,true,95,-19014,4218,23788,23.55000000000001,14,false,100,100,0,0,0,0,0,3939,3952,3977,3969,3970,3976,0.0,0.0,0.0,Started waypoint mission,
20.745487937540496,-103.51432468392615,13000,22.200000000000003,2.9,15,5,-0.2,-4.6000000000000005,65.8,2019-10-25 15:45:19.7330+0000,-0.09459400177001953,0.0,0.0,-2.9,true,95,-19014,4218,23788,23.55000000000001,14,false,100,100,0,0,0,0,0,3939,3952,3977,3969,3970,3976,0.0,0.0,0.0,Started waypoint mission,
20.745487800395004,-103.51432456864066,13000,22.5,2.9,15,5,-0.2,-4.800000000000001,65.8,2019-10-25 15:45:19.7360+0000,-0.00223696231842041,0.0,0.0,-2.9,true,95,-19014,4218,23788,23.55000000000001,14,false,100,100,0,0,0,0,0,3939,3952,3977,3969,3970,3976,0.0,0.0,0.0,Started waypoint mission,
20.74548763896839,-103.51432447625905,13000,22.8,2.8,15,5,-0.30000000000000004,-5.0,65.8,2019-10-25 15:45:19.8460+0000,-0.10930800437927246,0.0,0.0,-2.8,true,95,-19014,4218,23788,23.55000000000001,14,false,100,100,0,0,0,0,0,0,0,0,0,0,0,0.0,0.0,0.0,Started waypoint mission,
20.74548717213302,-103.51432417789438,14000,23.700000000000003,2.9,15,5,-0.8,-5.300000000000001,65.7,2019-10-25 15:45:20.1430+0000,-0.2962930202484131,0.0,0.0,-2.9,true,95,-19014,4218,23788,23.55000000000001,14,false,100,100,0,0,0,0,0,3939,3952,3977,3969,3970,3976,0.0,0.0,0.0,Started waypoint mission,
20.745487013643114,-103.51432413051913,14000,24.0,2.9,15,5,-0.8,-5.300000000000001,65.7,2019-10-25 15:45:20.2540+0000,-0.11011600494384766,0.0,0.0,-2.9,true,95,-19014,4218,23788,23.55000000000001,14,false,100,100,0,0,0,0,0,3939,3952,3977,3969,3970,3976,0.0,0.0,0.0,Started waypoint mission,
20.745486847549895,-103.51432410751367,14000,24.3,2.9,15,5,-0.9,-5.4,65.8,2019-10-25 15:45:20.3550+0000,-0.10015201568603516,0.0,0.0,-2.9,true,95,-19945,4218,23710,23.55000000000001,14,false,100,100,0,0,0,0,0,3928,3939,3961,3950,3978,3963,0.0,0.0,0.0,Started waypoint mission,
20.74548667569689,-103.51432410896157,14000,24.6,2.9,15,5,-1.0,-5.4,65.8,2019-10-25 15:45:20.4540+0000,-0.09819698333740234,0.0,0.0,-2.9,true,95,-19945,4218,23710,23.55000000000001,14,false,100,100,0,0,0,0,0,3928,3939,3961,3950,3978,3963,0.0,0.0,0.0,Started waypoint mission,
20.745486507237644,-103.51432413082276,14000,24.8,2.9,15,5,-1.2000000000000002,-5.4,65.8,2019-10-25 15:45:20.5550+0000,-0.09994494915008545,0.0,0.0,-2.9,true,95,-19945,4218,23710,23.55000000000001,14,false,100,100,0,0,0,0,0,3928,3939,3961,3950,3978,3963,0.0,0.0,0.0,Started waypoint mission,
20.745486342285783,-103.51432416997874,14000,25.200000000000003,3.0,15,5,-1.3,-5.300000000000001,65.9,2019-10-25 15:45:20.6570+0000,-0.10085999965667725,0.0,0.0,-3.0,true,95,-19945,4218,23710,23.55000000000001,14,false,100,100,0,0,0,0,0,3928,3939,3961,3950,3978,3963,0.0,0.0,0.0,Started waypoint mission,
20.745486191452894,-103.51432420376779,14000,25.5,3.0,15,5,-1.4000000000000001,-5.4,65.9,2019-10-25 15:45:20.7740+0000,-0.11633193492889404,0.0,0.0,-3.0,true,95,-19945,4218,23710,23.55000000000001,14,false,100,100,0,0,0,0,0,3928,3939,3961,3950,3978,3963,0.0,0.0,0.0,Started waypoint mission,
20.745486055696105,-103.51432422770624,14000,25.8,2.9,15,5,-1.6,-5.5,65.9,2019-10-25 15:45:20.8740+0000,-0.09866201877593994,0.0,0.0,-2.9,true,95,-19945,4218,23710,23.55000000000001,14,false,100,100,0,0,0,0,0,3928,3939,3961,3950,3978,3963,0.0,0.0,0.0,Started waypoint mission,
20.745485904193043,-103.51432428334303,14000,26.1,3.0016663,15,5,-1.7000000000000002,-5.5,65.9,2019-10-25 15:45:20.9740+0000,-0.09971892833709717,0.0,-0.1,-3.0,true,95,-19945,4218,23710,23.55000000000001,14,false,100,100,0,0,0,0,0,3928,3939,3961,3950,3978,3963,0.0,0.0,0.0,Started waypoint mission,
20.745485733883946,-103.51432437391344,15000,26.400000000000002,2.9017239,15,5,-1.9000000000000001,-5.5,65.9,2019-10-25 15:45:21.0810+0000,-0.10615396499633789,0.0,-0.1,-2.9,true,95,-19945,4218,23710,23.55000000000001,14,false,100,100,0,0,0,0,0,3928,3939,3961,3950,3978,3963,0.0,0.0,0.0,Started waypoint mission,
20.745485573522835,-103.51432448244091,15000,26.700000000000003,3.0016663,15,5,-2.1,-5.5,65.8,2019-10-25 15:45:21.1760+0000,-0.09301698207855225,0.0,-0.1,-3.0,true,95,-19945,4218,23710,23.55000000000001,14,false,100,100,0,0,0,0,0,3928,3939,3961,3950,3978,3963,0.0,0.0,0.0,Started waypoint mission,
20.745485424313024,-103.51432460883902,15000,27.0,2.9017239,15,5,-2.3000000000000003,-5.6000000000000005,65.8,2019-10-25 15:45:21.2740+0000,-0.09702408313751221,0.0,-0.1,-2.9,true,95,-19945,4218,23710,23.55000000000001,14,false,100,100,0,0,0,0,0,3928,3939,3961,3950,3978,3963,0.0,0.0,0.0,Started waypoint mission,
20.74548528176236,-103.51432473740654,15000,27.3,3.0016663,15,5,-2.6,-5.6000000000000005,65.7,2019-10-25 15:45:21.3730+0000,-0.09891796112060547,0.0,-0.1,-3.0,true,95,-19939,4218,23657,23.55000000000001,14,false,100,100,0,0,0,0,0,3928,3939,3961,3950,3978,3963,0.0,0.0,0.0,Started waypoint mission,
20.745485152966687,-103.51432486497403,15000,27.6,3.0016663,15,5,-2.7,-5.6000000000000005,65.7,2019-10-25 15:45:21.4850+0000,-0.11098802089691162,0.0,-0.1,-3.0,true,95,-19939,4218,23657,23.55000000000001,14,false,100,100,0,0,0,0,0,3928,3939,3961,3950,3978,3963,0.0,0.0,0.0,Started waypoint mission,
20.745485032279714,-103.51432499849686,15000,27.900000000000002,3.0016663,15,5,-2.7,-5.6000000000000005,65.60000000000001,2019-10-25 15:45:21.5840+0000,-0.0987999439239502,0.0,-0.1,-3.0,true,95,-19939,4218,23657,23.55000000000001,14,false,100,100,0,0,0,0,0,3928,3939,3961,3950,3978,3963,0.0,0.0,0.0,Started waypoint mission,
20.745484915911458,-103.51432514056751,15000,28.200000000000003,2.9017239,15,5,-2.8000000000000003,-5.7,65.60000000000001,2019-10-25 15:45:21.6900+0000,-0.10486495494842529,0.0,-0.1,-2.9,true,95,-19939,4218,23657,23.55000000000001,14,false,100,100,0,0,0,0,0,3928,3939,3961,3950,3978,3963,0.0,0.0,0.0,Started waypoint mission,
20.745484814600065,-103.51432530737365,15000,28.5,3.0016663,15,5,-2.9000000000000004,-5.5,65.7,2019-10-25 15:45:21.7940+0000,-0.10356998443603516,0.0,-0.1,-3.0,true,95,-19939,4218,23657,23.55000000000001,14,false,100,100,0,0,0,0,0,3928,3939,3961,3950,3978,3963,0.0,0.0,0.0,Started waypoint mission,
20.745484729985552,-103.51432550008197,15000,28.8,2.9017239,15,5,-2.9000000000000004,-5.4,65.7,2019-10-25 15:45:21.9030+0000,-0.10804307460784912,0.0,-0.1,-2.9,true,95,-19939,4218,23657,23.55000000000001,14,false,100,100,0,0,0,0,0,3926,3929,3941,3926,3957,3957,0.0,0.0,0.0,Started waypoint mission,
20.74548466084547,-103.51432568050231,15000,29.1,2.9017239,15,5,-3.1,-5.2,65.7,2019-10-25 15:45:21.9980+0000,-0.0937110185623169,0.0,-0.1,-2.9,true,95,-19939,4218,23657,23.55000000000001,14,false,100,100,0,0,0,0,0,3926,3929,3941,3926,3957,3957,0.0,0.0,0.0,Started waypoint mission,
20.74548461010678,-103.51432584344408,16000,29.400000000000002,3.0,15,5,-3.2,-5.1000000000000005,65.7,2019-10-25 15:45:22.1000+0000,-0.10115504264831543,0.0,0.0,-3.0,true,95,-19939,4218,23657,23.55000000000001,14,false,100,100,0,0,0,0,0,3926,3929,3941,3926,3957,3957,0.0,0.0,0.0,Started waypoint mission,
20.745484578058452,-103.5143260229033,16000,29.700000000000003,3.0,15,5,-3.1,-5.1000000000000005,65.7,2019-10-25 15:45:22.2030+0000,-0.1028670072555542,0.0,0.0,-3.0,true,95,-19939,4218,23657,23.55000000000001,14,false,100,100,0,0,0,0,0,3926,3929,3941,3926,3957,3957,0.0,0.0,0.0,Started waypoint mission,
20.745484563591468,-103.51432622521138,16000,30.0,3.0016663,15,5,-3.2,-4.9,65.7,2019-10-25 15:45:22.3030+0000,-0.09928596019744873,0.1,0.0,-3.0,true,95,-19939,4218,23657,23.55000000000001,14,false,100,100,0,0,0,0,0,3926,3929,3941,3926,3957,3957,0.0,0.0,0.0,Started waypoint mission,
20.74548456980823,-103.51432640736378,16000,30.200000000000003,2.9017239,15,5,-3.3000000000000003,-4.800000000000001,65.7,2019-10-25 15:45:22.4030+0000,-0.09880506992340088,0.1,0.0,-2.9,true,95,-19939,4218,23657,23.55000000000001,14,false,100,100,0,0,0,0,0,3926,3929,3941,3926,3957,3957,0.0,0.0,0.0,Started waypoint mission,
20.745484597027986,-103.51432655858827,16000,30.6,3.0016663,15,5,-3.4000000000000004,-4.6000000000000005,65.7,2019-10-25 15:45:22.5040+0000,-0.10038399696350098,0.1,0.0,-3.0,true,95,-19939,4218,23657,23.55000000000001,14,false,100,100,0,0,0,0,0,3926,3929,3941,3926,3957,3957,0.0,0.0,0.0,Started waypoint mission,
20.745484631988127,-103.51432672579955,16000,30.900000000000002,3.0016663,15,5,-3.3000000000000003,-4.6000000000000005,65.8,2019-10-25 15:45:22.6170+0000,-0.11307501792907715,0.1,0.0,-3.0,true,95,-19939,4218,23657,23.55000000000001,14,false,100,100,0,0,0,0,0,3926,3929,3941,3926,3957,3957,0.0,0.0,0.0,Started waypoint mission,
20.745484674727155,-103.51432691471946,16000,31.200000000000003,3.0016663,15,5,-3.3000000000000003,-4.5,65.8,2019-10-25 15:45:22.7170+0000,-0.09880590438842773,0.1,0.0,-3.0,true,95,-19939,4218,23657,23.55000000000001,14,false,100,100,0,0,0,0,0,3926,3929,3941,3926,3957,3957,0.0,0.0,0.0,Started waypoint mission,
20.745484743530845,-103.51432708160904,16000,31.5,3.0016663,15,5,-3.2,-4.3,65.9,2019-10-25 15:45:22.8190+0000,-0.10050702095031738,0.1,0.0,-3.0,true,95,-19939,4218,23657,23.55000000000001,14,false,100,100,0,0,0,0,0,3926,3929,3941,3926,3957,3957,0.0,0.0,0.0,Started waypoint mission,
20.74548483747418,-103.51432722757244,16000,31.8,3.0016663,15,5,-3.2,-4.2,66.0,2019-10-25 15:45:22.9150+0000,-0.09541594982147217,0.1,0.0,-3.0,true,95,-19554,4218,23656,23.55000000000001,14,false,100,100,0,0,0,0,0,3925,3939,3943,3928,3955,3954,0.0,0.0,0.0,Started waypoint mission,
20.745484938241464,-103.51432737374017,17000,32.1,3.0016663,14,5,-3.1,-4.1000000000000005,66.0,2019-10-25 15:45:23.0210+0000,-0.10507404804229736,0.1,0.0,-3.0,true,95,-19554,4218,23656,23.55000000000001,14,false,100,100,0,0,0,0,0,3925,3939,3943,3928,3955,3954,0.0,0.0,0.0,Started waypoint mission,
20.745485046387227,-103.51432752071386,17000,32.4,3.0016663,14,5,-3.1,-3.8000000000000003,66.0,2019-10-25 15:45:23.1250+0000,-0.10255992412567139,0.1,0.0,-3.0,true,95,-19554,4218,23656,23.55000000000001,14,false,100,100,0,0,0,0,0,3925,3939,3943,3928,3955,3954,0.0,0.0,0.0,Started waypoint mission,
20.74548516115786,-103.51432765640645,17000,32.7,3.0016663,14,5,-3.2,-3.7,65.9,2019-10-25 15:45:23.2280+0000,-0.10226905345916748,0.1,0.0,-3.0,true,95,-19554,4218,23656,23.55000000000001,14,false,100,100,0,0,0,0,0,3925,3939,3943,3928,3955,3954,0.0,0.0,0.0,Started waypoint mission,
20.745485280853185,-103.51432777492565,17000,33.0,3.0016663,14,5,-3.1,-3.6,65.9,2019-10-25 15:45:23.3240+0000,-0.09570300579071045,0.1,0.0,-3.0,true,95,-19554,4218,23656,23.55000000000001,14,false,100,100,0,0,0,0,0,3925,3939,3943,3928,3955,3954,0.0,0.0,0.0,Started waypoint mission,
20.745485395825032,-103.51432788555701,17000,33.300000000000004,3.0016663,14,5,-3.0,-3.6,65.9,2019-10-25 15:45:23.4230+0000,-0.09815895557403564,0.1,0.0,-3.0,true,95,-19554,4218,23656,23.55000000000001,14,false,100,100,0,0,0,0,0,3925,3939,3943,3928,3955,3954,0.0,0.0,0.0,Started waypoint mission,
20.7454855045039,-103.51432799628454,17000,33.6,2.9017239,14,5,-3.1,-3.5,65.8,2019-10-25 15:45:23.5350+0000,-0.11091208457946777,0.1,0.0,-2.9,true,95,-19554,4218,23656,23.55000000000001,14,false,100,100,0,0,0,0,0,3925,3939,3943,3928,3955,3954,0.0,0.0,0.0,Started waypoint mission,
20.745485622319208,-103.5143280864534,17000,33.9,2.9017239,14,5,-3.1,-3.5,65.8,2019-10-25 15:45:23.6390+0000,-0.10275495052337646,0.1,0.0,-2.9,true,95,-19554,4218,23656,23.55000000000001,14,false,100,100,0,0,0,0,0,3925,3939,3943,3928,3955,3954,0.0,0.0,0.0,Started waypoint mission,
20.74548575604991,-103.51432815242768,17000,34.2,2.9017239,14,5,-3.0,-3.3000000000000003,65.8,2019-10-25 15:45:23.6410+0000,-0.00156402587890625,0.1,0.0,-2.9,true,95,-19554,4218,23656,23.55000000000001,14,false,100,100,0,0,0,0,0,3925,3939,3943,3928,3955,3954,0.0,0.0,0.0,Started waypoint mission,
20.74548590738113,-103.5143282108015,17000,34.5,2.9017239,14,5,-2.9000000000000004,-3.1,65.8,2019-10-25 15:45:23.7360+0000,-0.09422802925109863,0.1,0.0,-2.9,true,95,-19554,4218,23656,23.55000000000001,14,false,100,100,0,0,0,0,0,3925,3939,3943,3928,3955,3954,0.0,0.0,0.0,Started waypoint mission,
20.74548623384711,-103.51432830302247,17000,35.1,2.9017239,14,5,-2.6,-2.9000000000000004,65.9,2019-10-25 15:45:23.9540+0000,-0.21692895889282227,0.1,0.0,-2.9,true,95,-19253,4218,23630,23.650000000000034,14,false,100,100,0,0,0,0,0,3898,3935,3948,3937,3937,3973,0.0,0.0,0.0,Started waypoint mission,
20.745486367862544,-103.51432833167907,18000,35.4,2.9017239,14,5,-2.6,-3.0,65.9,2019-10-25 15:45:24.0530+0000,-0.09807896614074707,0.1,0.0,-2.9,true,95,-19253,4218,23630,23.650000000000034,14,false,100,100,0,0,0,0,0,3898,3935,3948,3937,3937,3973,0.0,0.0,0.0,Started waypoint mission,
20.745486495131125,-103.51432834617653,18000,35.7,3.0016663,14,5,-2.4000000000000004,-3.0,65.9,2019-10-25 15:45:24.1460+0000,-0.09188604354858398,0.1,0.0,-3.0,true,95,-19253,4218,23630,23.650000000000034,14,false,100,100,0,0,0,0,0,3898,3935,3948,3937,3937,3973,0.0,0.0,0.0,Started waypoint mission,
20.745486616085312,-103.51432835213937,18000,36.0,3.0016663,14,5,-2.4000000000000004,-3.0,65.9,2019-10-25 15:45:24.2460+0000,-0.09838497638702393,0.1,0.0,-3.0,true,95,-19253,4218,23630,23.650000000000034,14,false,100,100,0,0,0,0,0,3898,3935,3948,3937,3937,3973,0.0,0.0,0.0,Started waypoint mission,
20.74548672901431,-103.51432833676512,18000,36.300000000000004,2.9,14,5,-2.4000000000000004,-3.1,65.9,2019-10-25 15:45:24.3570+0000,-0.11015498638153076,0.0,0.0,-2.9,true,95,-19253,4218,23630,23.650000000000034,14,false,100,100,0,0,0,0,0,3898,3935,3948,3937,3937,3973,0.0,0.0,0.0,Started waypoint mission,
20.74548683645554,-103.51432829463984,18000,36.6,3.0016663,14,5,-2.3000000000000003,-3.2,65.9,2019-10-25 15:45:24.4550+0000,-0.09701704978942871,0.0,0.1,-3.0,true,95,-19253,4218,23630,23.650000000000034,14,false,100,100,0,0,0,0,0,3898,3935,3948,3937,3937,3973,0.0,0.0,0.0,Started waypoint mission,
20.74548694714705,-103.51432824504808,18000,36.9,3.0016663,14,5,-2.2,-3.3000000000000003,65.8,2019-10-25 15:45:24.5550+0000,-0.09929001331329346,0.0,0.1,-3.0,true,95,-19253,4218,23630,23.650000000000034,14,false,100,100,0,0,0,0,0,3898,3935,3948,3937,3937,3973,0.0,0.0,0.0,Started waypoint mission,
20.745487061326525,-103.51432819201617,18000,37.300000000000004,3.0016663,14,5,-2.0,-3.4000000000000004,65.8,2019-10-25 15:45:24.6550+0000,-0.0993349552154541,0.0,0.1,-3.0,true,95,-19253,4218,23630,23.650000000000034,14,false,100,100,0,0,0,0,0,3898,3935,3948,3937,3937,3973,0.0,0.0,0.0,Started waypoint mission,
20.745487182396296,-103.51432810325218,18000,37.6,2.9017239,14,5,-1.9000000000000001,-3.4000000000000004,65.8,2019-10-25 15:45:24.7730+0000,-0.11722493171691895,0.0,0.1,-2.9,true,95,-19253,4218,23630,23.650000000000034,14,false,100,100,0,0,0,0,0,3898,3935,3948,3937,3937,3973,0.0,0.0,0.0,Started waypoint mission,
20.745487557756686,-103.51432780411552,19000,38.400000000000006,2.8017852,15,5,-1.4000000000000001,-3.3000000000000003,65.8,2019-10-25 15:45:25.0650+0000,-0.29095709323883057,0.0,0.1,-2.8,true,95,-18878,4218,23667,23.75,14,false,100,100,0,0,0,0,0,3925,3931,3953,3935,3958,3964,0.0,0.0,0.0,Started waypoint mission,
20.745487671503557,-103.51432770979235,19000,38.7,2.9017239,15,5,-1.2000000000000002,-3.1,65.7,2019-10-25 15:45:25.1860+0000,-0.12085497379302979,0.0,0.1,-2.9,true,95,-18878,4218,23667,23.75,14,false,100,100,0,0,0,0,0,3925,3931,3953,3935,3958,3964,0.0,0.0,0.0,Started waypoint mission,
20.74548777566757,-103.51432759046062,19000,39.1,3.0016663,15,5,-1.1,-3.0,65.7,2019-10-25 15:45:25.2780+0000,-0.0913240909576416,0.0,0.1,-3.0,true,95,-18878,4218,23667,23.75,14,false,100,100,0,0,0,0,0,3925,3931,3953,3935,3958,3964,0.0,0.0,0.0,Started waypoint mission,
20.74548786545463,-103.51432747002531,19000,39.400000000000006,3.0016663,15,5,-1.1,-3.0,65.7,2019-10-25 15:45:25.3750+0000,-0.09606695175170898,0.0,0.1,-3.0,true,95,-18878,4218,23667,23.75,14,false,100,100,0,0,0,0,0,3925,3931,3953,3935,3958,3964,0.0,0.0,0.0,Started waypoint mission,
20.745487938894808,-103.51432734695005,19000,39.7,2.9017239,15,5,-1.0,-3.1,65.60000000000001,2019-10-25 15:45:25.4860+0000,-0.11027407646179199,0.0,0.1,-2.9,true,95,-18878,4218,23667,23.75,14,false,100,100,0,0,0,0,0,3925,3931,3953,3935,3958,3964,0.0,0.0,0.0,Started waypoint mission,
20.745488009010753,-103.51432722838771,19000,40.0,2.9017239,15,5,-1.1,-3.1,65.60000000000001,2019-10-25 15:45:25.5920+0000,-0.10486805438995361,0.0,0.1,-2.9,true,95,-18878,4218,23667,23.75,14,false,100,100,0,0,0,0,0,3925,3931,3953,3935,3958,3964,0.0,0.0,0.0,Started waypoint mission,
20.74548807868991,-103.51432711361643,19000,40.300000000000004,2.9017239,15,5,-1.0,-3.2,65.60000000000001,2019-10-25 15:45:25.6990+0000,-0.10683190822601318,0.0,0.1,-2.9,true,95,-18878,4218,23667,23.75,14,false,100,100,0,0,0,0,0,3925,3931,3953,3935,3958,3964,0.0,0.0,0.0,Started waypoint mission,
20.74548813943709,-103.51432699087268,19000,40.6,2.9017239,15,5,-0.9,-3.2,65.60000000000001,2019-10-25 15:45:25.7870+0000,-0.08671391010284424,0.0,0.1,-2.9,true,95,-18878,4218,23667,23.75,14,false,100,100,0,0,0,0,0,3925,3931,3953,3935,3958,3964,0.0,0.0,0.0,Started waypoint mission,
20.745488185228112,-103.51432686062063,19000,40.900000000000006,2.9,15,5,-0.8,-3.3000000000000003,65.60000000000001,2019-10-25 15:45:25.8930+0000,-0.10546600818634033,0.0,0.0,-2.9,true,95,-18823,4173,23659,23.850000000000023,14,false,100,100,0,0,0,0,0,3932,3930,3946,3930,3956,3966,0.0,0.0,0.0,Started waypoint mission,
20.745488205271442,-103.51432673116024,19000,41.2,2.9,15,5,-0.8,-3.4000000000000004,65.60000000000001,2019-10-25 15:45:25.9950+0000,-0.10116004943847656,0.0,0.0,-2.9,true,95,-18823,4173,23659,23.850000000000023,14,false,100,100,0,0,0,0,0,3932,3930,3946,3930,3956,3966,0.0,0.0,0.0,Started waypoint mission,
20.745488186581518,-103.51432648021888,20000,41.7,2.8,15,5,-0.8,-3.7,65.7,2019-10-25 15:45:26.1940+0000,-0.1984940767288208,0.0,0.0,-2.8,true,95,-18823,4173,23659,23.850000000000023,14,false,100,100,0,0,0,0,0,3932,3930,3946,3930,3956,3966,0.0,0.0,0.0,Started waypoint mission,
20.745488177263876,-103.51432636519067,20000,42.0,2.9,15,5,-0.8,-3.8000000000000003,65.7,2019-10-25 15:45:26.2940+0000,-0.09942400455474854,0.0,0.0,-2.9,true,95,-18823,4173,23659,23.850000000000023,14,false,100,99,0,0,0,0,0,3932,3930,3946,3930,3956,3966,0.0,0.0,0.0,Started waypoint mission,
20.74548815145908,-103.51432625564846,20000,42.300000000000004,2.8,15,5,-0.8,-4.0,65.7,2019-10-25 15:45:26.4090+0000,-0.1137089729309082,0.0,0.0,-2.8,true,95,-18823,4173,23659,23.850000000000023,14,false,100,99,0,0,0,0,0,3932,3930,3946,3930,3956,3966,0.0,0.0,0.0,Started waypoint mission,
20.7454881086052,-103.51432615357616,20000,42.6,2.9,15,5,-1.0,-4.0,65.7,2019-10-25 15:45:26.5080+0000,-0.09877002239227295,0.0,0.0,-2.9,true,95,-18823,4173,23659,23.850000000000023,14,false,100,99,0,0,0,0,0,3932,3930,3946,3930,3956,3966,0.0,0.0,0.0,Started waypoint mission,
20.745488064690328,-103.51432605916614,20000,42.900000000000006,2.9,15,5,-1.1,-4.1000000000000005,65.7,2019-10-25 15:45:26.6100+0000,-0.10113096237182617,0.0,0.0,-2.9,true,95,-18823,4173,23659,23.850000000000023,14,false,100,99,0,0,0,0,0,3932,3930,3946,3930,3956,3966,0.0,0.0,0.0,Started waypoint mission,
20.745488022628745,-103.51432596874808,20000,43.2,3.0,15,5,-1.1,-4.1000000000000005,65.7,2019-10-25 15:45:26.7060+0000,-0.09412193298339844,0.0,0.0,-3.0,true,95,-18823,4173,23659,23.850000000000023,14,false,100,99,0,0,0,0,0,3932,3930,3946,3930,3956,3966,0.0,0.0,0.0,Started waypoint mission,
20.745487923143525,-103.51432577260353,20000,43.800000000000004,2.8,15,5,-1.1,-4.2,65.7,2019-10-25 15:45:26.9200+0000,-0.21350598335266113,0.0,0.0,-2.8,true,95,-18940,4173,23668,23.850000000000023,14,false,100,99,0,0,0,0,0,3932,3930,3946,3930,3956,3966,0.0,0.0,0.0,Started waypoint mission,
20.74548786660856,-103.51432567958854,21000,44.0,2.9,15,5,-1.1,-4.2,65.7,2019-10-25 15:45:27.0160+0000,-0.0942540168762207,0.0,0.0,-2.9,true,95,-18940,4173,23668,23.850000000000023,14,false,100,99,0,0,0,0,0,3932,3930,3946,3930,3956,3966,0.0,0.0,0.0,Started waypoint mission,
20.74548780153465,-103.51432559835477,21000,44.400000000000006,3.0,15,5,-1.1,-4.3,65.7,2019-10-25 15:45:27.1130+0000,-0.09659302234649658,0.0,0.0,-3.0,true,95,-18940,4173,23668,23.850000000000023,14,false,100,99,0,0,0,0,0,3932,3930,3946,3930,3956,3966,0.0,0.0,0.0,Started waypoint mission,
20.74548772926206,-103.51432552653831,21000,44.7,3.0,15,5,-1.1,-4.5,65.8,2019-10-25 15:45:27.2240+0000,-0.11042702198028564,0.0,0.0,-3.0,true,95,-18940,4173,23668,23.850000000000023,14,false,100,99,0,0,0,0,0,3932,3930,3946,3930,3956,3966,0.0,0.0,0.0,Started waypoint mission,
20.745487651505858,-103.51432546818953,21000,44.900000000000006,2.9,15,5,-1.1,-4.5,65.8,2019-10-25 15:45:27.3270+0000,-0.10152101516723633,0.0,0.0,-2.9,true,95,-18940,4173,23668,23.850000000000023,14,false,100,99,0,0,0,0,0,3932,3930,3946,3930,3956,3966,0.0,0.0,0.0,Started waypoint mission,
20.745487560972204,-103.51432541407308,21000,45.2,2.9,15,5,-1.3,-4.5,65.8,2019-10-25 15:45:27.4240+0000,-0.09555995464324951,0.0,0.0,-2.9,true,94,-18940,4173,23668,23.850000000000023,14,false,100,99,0,0,0,0,0,3933,3915,3951,3929,3955,3956,0.0,0.0,0.0,Started waypoint mission,
20.74548745396113,-103.51432535715416,21000,45.5,3.0,15,5,-1.3,-4.5,65.7,2019-10-25 15:45:27.5240+0000,-0.09961903095245361,0.0,0.0,-3.0,true,94,-18940,4173,23668,23.850000000000023,14,false,100,99,0,0,0,0,0,3933,3915,3951,3929,3955,3956,0.0,0.0,0.0,Started waypoint mission,
20.74548736935212,-103.51432532143782,21000,45.800000000000004,3.0,15,5,-1.2000000000000002,-4.7,65.7,2019-10-25 15:45:27.6230+0000,-0.09735000133514404,0.0,0.0,-3.0,true,94,-18940,4173,23668,23.850000000000023,14,false,100,99,0,0,0,0,0,3933,3915,3951,3929,3955,3956,0.0,0.0,0.0,Started waypoint mission,
