latitude,longitude,flight_time,altitude,speed,satellites,gps_level,pitch,roll,yaw,timestamp,last_updated,velocityX,velocityY,velocityZ,isflying,remainBatteryPercent,currentCurrent,batteryChargeRemaining,batteryVoltage,batteryTemperature,flightMode,istakingphoto,downlinkSignal,uplinkSignal,radioChannel,rc_elevator,rc_aileron,rc_throttle,rc_rudder,Battery_Cell1,Battery_Cell2,Battery_Cell3,Battery_Cell4,Battery_Cell5,Battery_Cell6,gimbalPitch,gimbalYaw,gimbalRoll,app_Tip,app_Warning,appVersion,AircraftComercialName,AircraftSerialNumber,RemoteSerialNumber,BatterySerialNumber,BatteryFullCapacity,dischargeCount,batteryLife,AircraftModel,sonar_altitude,isTakingVideo
20.745468809400936,-103.51431893994649,0,0.0,0.0,15,5,-2.7,-3.3000000000000003,-36.5,2019-10-25 16:08:35.8610+0000,-0.08178496360778809,0.0,0.0,0.0,false,97,-883,4335,25863,24.850000000000023,6,false,100,100,0,0,0,0,0,4301,4306,4305,4318,4321,4314,0.0,0.0,0.0,Started waypoint mission,,Flight1_3.1.0_(3),DJI,041DE70691,03LJ7004AS,9971171300860,4470,6,99,Explore1, ,false
20.745468806673205,-103.51431893576559,0,0.0,0.0,15,5,-2.7,-3.3000000000000003,-36.5,2019-10-25 16:08:35.9660+0000,-0.10409104824066162,0.0,0.0,0.0,false,97,-883,4335,25863,24.850000000000023,6,false,100,100,0,0,0,0,0,4301,4306,4305,4318,4321,4314,0.0,0.0,0.0,Started waypoint mission,
20.745468806176397,-103.51431892901111,0,0.0,0.0,15,5,-2.7,-3.3000000000000003,-36.5,2019-10-25 16:08:36.0650+0000,-0.09920501708984375,0.0,0.0,0.0,false,97,-883,4335,25863,24.850000000000023,6,false,100,100,0,0,0,0,0,4301,4306,4305,4318,4321,4314,0.0,0.0,0.0,Started waypoint mission,
20.745468809940252,-103.51431892048447,0,0.0,0.0,15,5,-2.7,-3.3000000000000003,-36.5,2019-10-25 16:08:36.1680+0000,-0.10252499580383301,0.0,0.0,0.0,false,97,-883,4335,25863,24.850000000000023,6,false,100,100,0,0,0,0,0,4301,4306,4305,4318,4321,4314,0.0,0.0,0.0,Started waypoint mission,
20.745468816702882,-103.51431891084503,0,0.0,0.0,15,5,-2.7,-3.3000000000000003,-36.5,2019-10-25 16:08:36.2790+0000,-0.11017906665802002,0.0,0.0,0.0,false,97,-883,4335,25863,24.850000000000023,6,false,100,100,0,0,0,0,0,4301,4306,4305,4318,4321,4314,0.0,0.0,0.0,Started waypoint mission,
20.74546882445002,-103.51431889980665,0,0.0,0.0,15,5,-2.7,-3.3000000000000003,-36.5,2019-10-25 16:08:36.3940+0000,-0.11460208892822266,0.0,0.0,0.0,false,97,-883,4335,25863,24.850000000000023,6,false,100,100,0,0,0,0,0,4301,4306,4305,4318,4321,4314,0.0,0.0,0.0,Started waypoint mission,
20.7454688323898,-103.51431889110826,0,0.0,0.0,15,5,-2.7,-3.3000000000000003,-36.5,2019-10-25 16:08:36.4800+0000,-0.08553695678710938,0.0,0.0,0.0,false,97,-883,4335,25863,24.850000000000023,6,false,100,100,0,0,0,0,0,4301,4306,4305,4318,4321,4314,0.0,0.0,0.0,Started waypoint mission,
20.745468839442687,-103.51431888277394,0,0.0,0.0,15,5,-2.7,-3.3000000000000003,-36.5,2019-10-25 16:08:36.6280+0000,-0.1467440128326416,0.0,0.0,0.0,false,97,-883,4335,25863,24.850000000000023,6,false,100,100,0,0,0,0,0,4301,4306,4305,4318,4321,4314,0.0,0.0,0.0,Started waypoint mission,
20.745468841572727,-103.51431887586838,0,0.0,0.0,15,5,-2.7,-3.4000000000000004,-36.5,2019-10-25 16:08:36.7110+0000,-0.08224904537200928,0.0,0.0,0.0,false,97,-881,4335,25865,24.850000000000023,6,false,100,100,0,0,0,0,0,4301,4306,4305,4318,4321,4314,0.0,0.0,0.0,Started waypoint mission,
20.745468843106305,-103.51431886898341,0,0.0,0.0,15,5,-2.7,-3.4000000000000004,-36.5,2019-10-25 16:08:36.7990+0000,-0.0875478982925415,0.0,0.0,0.0,false,97,-881,4335,25865,24.850000000000023,6,false,100,100,0,0,0,0,0,4301,4306,4305,4318,4321,4314,0.0,0.0,0.0,Started waypoint mission,
20.745468843575903,-103.5143188613108,0,0.0,0.0,15,5,-2.7,-3.4000000000000004,-36.5,2019-10-25 16:08:36.9000+0000,-0.10013890266418457,0.0,0.0,0.0,false,97,-881,4335,25865,24.850000000000023,6,false,100,100,0,0,0,0,0,4301,4306,4305,4318,4321,4314,0.0,0.0,0.0,Started waypoint mission,
20.74546884066189,-103.51431885320773,0,0.0,0.0,15,5,-2.7,-3.4000000000000004,-36.5,2019-10-25 16:08:36.9990+0000,-0.09873104095458984,0.0,0.0,0.0,false,97,-881,4335,25865,24.850000000000023,6,false,100,100,0,0,0,0,0,4301,4306,4305,4318,4321,4314,0.0,0.0,0.0,Started waypoint mission,
20.745468833853455,-103.5143188461579,0,0.0,0.0,15,5,-2.7,-3.4000000000000004,-36.5,2019-10-25 16:08:37.1060+0000,-0.10616588592529297,0.0,0.0,0.0,false,97,-881,4335,25865,24.850000000000023,6,false,100,100,0,0,0,0,0,4301,4306,4305,4318,4321,4314,0.0,0.0,0.0,Started waypoint mission,
20.745468823433317,-103.51431884043838,0,0.0,0.0,15,5,-2.7,-3.3000000000000003,-36.5,2019-10-25 16:08:37.2100+0000,-0.1035538911819458,0.0,0.0,0.0,false,97,-881,4335,25865,24.850000000000023,6,false,100,100,0,0,0,0,0,4302,4306,4305,4318,4321,4313,0.0,0.0,0.0,Started waypoint mission,
20.745468814809783,-103.51431883407322,0,0.0,0.1,15,5,-2.7,-3.3000000000000003,-36.5,2019-10-25 16:08:37.3100+0000,-0.09905707836151123,0.0,0.0,0.1,false,97,-881,4335,25865,24.850000000000023,6,false,100,100,0,0,0,0,0,4302,4306,4305,4318,4321,4313,0.0,0.0,0.0,Started waypoint mission,
20.745468807816277,-103.51431883061136,0,0.0,0.1,15,5,-2.7,-3.3000000000000003,-36.5,2019-10-25 16:08:37.4180+0000,-0.10804998874664307,0.0,0.0,0.1,false,97,-881,4335,25865,24.850000000000023,6,false,100,100,0,0,0,0,0,4302,4306,4305,4318,4321,4313,0.0,0.0,0.0,Started waypoint mission,
20.745468807849193,-103.51431882907504,0,0.0,0.1,15,5,-2.7,-3.3000000000000003,-36.5,2019-10-25 16:08:37.5110+0000,-0.09184205532073975,0.0,0.0,0.1,false,97,-881,4335,25865,24.850000000000023,6,false,100,100,0,0,0,0,0,4302,4306,4305,4318,4321,4313,0.0,0.0,0.0,Started waypoint mission,
20.74546881042733,-103.51431882997022,0,0.0,0.1,15,5,-2.7,-3.3000000000000003,-36.5,2019-10-25 16:08:37.6350+0000,-0.12342703342437744,0.0,0.0,0.1,false,97,-881,4335,25865,24.850000000000023,6,false,100,100,0,0,0,0,0,4302,4306,4305,4318,4321,4313,0.0,0.0,0.0,Started waypoint mission,
20.745468816913284,-103.51431882687442,0,0.0,0.0,15,5,-2.7,-3.3000000000000003,-36.5,2019-10-25 16:08:37.7400+0000,-0.10444796085357666,0.0,0.0,0.0,false,97,-881,4335,25838,24.850000000000023,6,false,100,100,0,0,0,0,0,4302,4306,4305,4318,4321,4313,0.0,0.0,0.0,Started waypoint mission,
20.745468814788126,-103.51431882029853,0,0.0,0.0,15,5,-2.7,-3.3000000000000003,-36.5,2019-10-25 16:08:37.7420+0000,-0.0009839534759521484,0.0,0.0,0.0,false,97,-881,4335,25838,24.850000000000023,6,false,100,100,0,0,0,0,0,4302,4306,4305,4318,4321,4313,0.0,0.0,0.0,Started waypoint mission,
20.745468812180917,-103.51431881900719,0,0.0,0.0,15,5,-2.7,-3.3000000000000003,-36.5,2019-10-25 16:08:37.8220+0000,-0.07943606376647949,0.0,0.0,0.0,false,97,-881,4335,25838,24.850000000000023,11,false,100,100,0,0,0,0,0,4302,4306,4305,4318,4321,4313,0.0,0.0,0.0,Started waypoint mission,
20.745468813891016,-103.5143188128114,0,0.0,0.0,15,5,-2.7,-3.3000000000000003,-36.5,2019-10-25 16:08:37.9500+0000,-0.1276029348373413,0.0,0.0,0.0,false,97,-881,4335,25838,24.850000000000023,11,false,100,100,0,0,0,0,0,4302,4306,4305,4318,4321,4313,0.0,0.0,0.0,Started waypoint mission,
20.745468816128128,-103.51431879910099,0,0.0,0.0,15,5,-2.7,-3.3000000000000003,-36.5,2019-10-25 16:08:38.0490+0000,-0.09891796112060547,0.0,0.0,0.0,false,97,-881,4335,25838,24.850000000000023,11,false,100,100,0,0,0,0,0,4302,4306,4305,4318,4321,4313,0.0,0.0,0.0,Started waypoint mission,
20.745468813593813,-103.51431878163555,0,0.0,0.0,15,5,-2.7,-3.3000000000000003,-36.5,2019-10-25 16:08:38.1570+0000,-0.1070929765701294,0.0,0.0,0.0,false,97,-1236,4335,25838,24.850000000000023,11,false,100,100,0,0,0,0,0,0,0,0,0,0,0,0.0,0.0,0.0,Started waypoint mission,
20.745468804467336,-103.51431876580952,0,0.0,0.0,15,5,-2.7,-3.3000000000000003,-36.5,2019-10-25 16:08:38.2500+0000,-0.09224796295166016,0.0,0.0,0.0,false,97,-1236,4335,25838,24.850000000000023,11,false,100,100,0,0,0,0,0,4297,4302,4300,4312,4316,4308,0.0,0.0,0.0,Started waypoint mission,
20.745468797336596,-103.51431875333783,0,0.0,0.0,15,5,-2.6,-3.3000000000000003,-36.5,2019-10-25 16:08:38.3560+0000,-0.1060800552368164,0.0,0.0,0.0,false,97,-1236,4335,25838,24.850000000000023,11,false,100,100,0,0,0,0,0,4297,4302,4300,4312,4316,4308,0.0,0.0,0.0,Started waypoint mission,
20.74546879782882,-103.51431874584844,0,0.0,0.0,15,5,-2.6,-3.2,-36.6,2019-10-25 16:08:38.4610+0000,-0.10393905639648438,0.0,0.0,0.0,false,97,-1236,4335,25838,24.850000000000023,11,false,100,100,0,0,0,0,0,4297,4302,4300,4312,4316,4308,0.0,0.0,0.0,Started waypoint mission,
20.745468801033432,-103.51431873571224,0,0.0,0.1,15,5,-2.6,-3.2,-36.6,2019-10-25 16:08:38.5560+0000,-0.09496510028839111,0.0,0.0,0.1,false,97,-1236,4335,25838,24.850000000000023,11,false,100,100,0,0,0,0,0,4297,4302,4300,4312,4316,4308,0.0,0.0,0.0,Started waypoint mission,
20.745468810525047,-103.51431872552567,0,0.0,0.1,15,5,-2.6,-3.1,-36.6,2019-10-25 16:08:38.6760+0000,-0.11921000480651855,0.0,0.0,0.1,false,97,-1236,4335,25838,24.850000000000023,11,false,100,100,0,0,0,0,0,4297,4302,4300,4312,4316,4308,0.0,0.0,0.0,Started waypoint mission,
20.745468815995277,-103.51431870913189,0,-0.1,0.1,15,5,-2.6,-3.0,-36.6,2019-10-25 16:08:38.7880+0000,-0.11044502258300781,0.0,0.0,0.1,false,97,-1236,4335,25838,24.850000000000023,11,false,100,100,0,0,0,0,0,4297,4302,4300,4312,4316,4308,0.0,0.0,0.0,Started waypoint mission,
20.745468800560126,-103.51431867586801,0,-0.1,0.2,15,5,-2.5,-3.0,-36.7,2019-10-25 16:08:38.8830+0000,-0.09430897235870361,0.0,0.0,0.2,false,97,-1236,4335,25838,24.850000000000023,11,false,100,100,0,0,0,0,0,4297,4302,4300,4312,4316,4308,0.0,0.0,0.0,Started waypoint mission,
20.745468790137835,-103.51431864798711,0,-0.2,0.2,15,5,-2.7,-2.9000000000000004,-36.7,2019-10-25 16:08:38.9840+0000,-0.10046100616455078,0.0,0.0,0.2,false,97,-1236,4335,25838,24.850000000000023,11,false,100,100,0,0,0,0,0,4297,4302,4300,4312,4316,4308,0.0,0.0,0.0,Started waypoint mission,
20.745468807966162,-103.51431864025054,0,-0.2,0.2,15,5,-3.0,-2.1,-36.800000000000004,2019-10-25 16:08:39.0800+0000,-0.09598195552825928,0.0,0.0,0.2,false,97,-1236,4335,25838,24.850000000000023,11,false,100,100,0,0,0,0,0,4297,4302,4300,4312,4316,4308,0.0,0.0,0.0,Started waypoint mission,
20.7454688481374,-103.51431862501076,0,-0.2,0.1,15,5,-2.7,-1.0,-37.0,2019-10-25 16:08:39.1830+0000,-0.10167098045349121,0.0,0.0,0.1,false,97,-4083,4335,25708,24.850000000000023,11,false,100,100,0,0,0,0,0,4255,4290,4295,4250,4291,4300,0.0,0.0,0.0,Started waypoint mission,
20.745468912374434,-103.51431858311716,0,-0.30000000000000004,0.0,15,5,-2.3000000000000003,0.30000000000000004,-37.1,2019-10-25 16:08:39.2810+0000,-0.09734094142913818,0.0,0.0,0.0,false,97,-4083,4335,25708,24.850000000000023,11,false,100,100,0,0,0,0,0,4255,4290,4295,4250,4291,4300,0.0,0.0,0.0,Started waypoint mission,
20.745469007152376,-103.51431849740189,0,-0.30000000000000004,0.17320508,15,5,-1.7000000000000002,1.1,-37.5,2019-10-25 16:08:39.3900+0000,-0.1085129976272583,0.1,0.1,-0.1,true,97,-4083,4335,25708,24.850000000000023,11,false,100,100,0,0,0,0,0,4255,4290,4295,4250,4291,4300,0.0,0.0,0.0,Started waypoint mission,
20.745469145165437,-103.5143183362117,3000,-0.30000000000000004,0.33166248,15,5,-1.0,0.0,-38.0,2019-10-25 16:08:39.4910+0000,-0.10020792484283447,0.1,0.1,-0.3,true,97,-4083,4335,25708,24.850000000000023,11,false,100,100,0,0,0,0,0,4255,4290,4295,4250,4291,4300,0.0,0.0,0.0,Started waypoint mission,
20.7454692955171,-103.51431811944478,3000,-0.2,0.5477226,15,5,-0.5,-1.0,-38.400000000000006,2019-10-25 16:08:39.6160+0000,-0.12469696998596191,0.1,0.2,-0.5,true,97,-4083,4335,25708,24.850000000000023,11,false,100,100,0,0,0,0,0,4255,4290,4295,4250,4291,4300,0.0,0.0,0.0,Started waypoint mission,
20.745469429950646,-103.51431784246812,3000,-0.2,0.4582576,15,5,-0.4,-1.9000000000000001,-38.800000000000004,2019-10-25 16:08:39.7240+0000,-0.10730099678039551,0.1,0.2,-0.4,true,97,-4083,4335,25708,24.850000000000023,11,false,100,100,0,0,0,0,0,4255,4290,4295,4250,4291,4300,0.0,0.0,0.0,Started waypoint mission,
20.745469549380363,-103.51431752572255,3000,-0.1,0.509902,15,5,-0.9,-2.9000000000000004,-39.0,2019-10-25 16:08:39.8210+0000,-0.0968559980392456,0.1,0.3,-0.4,true,97,-4083,4335,25708,24.850000000000023,11,false,100,100,0,0,0,0,0,4255,4290,4295,4250,4291,4300,0.0,0.0,0.0,Started waypoint mission,
20.745469625387646,-103.51431718906618,3000,-0.1,0.509902,15,5,-1.2000000000000002,-3.9000000000000004,-39.0,2019-10-25 16:08:39.8250+0000,-0.0026170015335083008,0.1,0.3,-0.4,true,97,-4083,4335,25708,24.850000000000023,11,false,100,100,0,0,0,0,0,4255,4290,4295,4250,4291,4300,0.0,0.0,0.0,Started waypoint mission,
20.745469695053973,-103.5143168314939,4000,0.0,0.591608,15,5,-1.8,-4.7,-38.900000000000006,2019-10-25 16:08:39.9520+0000,-0.12682604789733887,0.1,0.3,-0.5,true,97,-4083,4335,25708,24.850000000000023,11,false,100,100,0,0,0,0,0,4255,4290,4295,4250,4291,4300,0.0,0.0,0.0,Started waypoint mission,
20.745469796982555,-103.51431644889686,4000,0.0,0.591608,15,5,-1.9000000000000001,-4.5,-38.6,2019-10-25 16:08:40.0500+0000,-0.09784603118896484,0.1,0.3,-0.5,true,97,-4083,4335,25708,24.850000000000023,11,false,100,100,0,0,0,0,0,4255,4290,4295,4250,4291,4300,0.0,0.0,0.0,Started waypoint mission,
20.745469872085707,-103.514316079226,4000,0.0,0.5830952,14,5,-1.9000000000000001,-4.1000000000000005,-38.400000000000006,2019-10-25 16:08:40.1610+0000,-0.10945999622344971,0.0,0.3,-0.5,true,97,-8523,4335,25215,24.850000000000023,11,false,100,100,0,0,0,0,0,0,0,0,0,0,0,0.0,0.0,0.0,Started waypoint mission,
20.745469889105117,-103.51431573373273,4000,0.0,0.5830952,14,5,-2.1,-3.7,-38.1,2019-10-25 16:08:40.2570+0000,-0.09528601169586182,0.0,0.3,-0.5,true,97,-8523,4335,25215,24.850000000000023,11,false,100,100,0,0,0,0,0,4187,4154,4164,4159,4189,4168,0.0,0.0,0.0,Started waypoint mission,
20.745469894059838,-103.5143153873042,4000,0.1,0.5,14,5,-2.2,-3.6,-37.800000000000004,2019-10-25 16:08:40.3520+0000,-0.09391498565673828,0.0,0.3,-0.4,true,97,-8523,4335,25215,24.850000000000023,11,false,100,100,0,0,0,0,0,4187,4154,4164,4159,4189,4168,0.0,0.0,0.0,Started waypoint mission,
20.745469906723525,-103.51431504466153,4000,0.1,0.5830952,14,5,-2.1,-3.5,-37.7,2019-10-25 16:08:40.4520+0000,-0.09971797466278076,0.0,0.3,-0.5,true,97,-8523,4335,25215,24.850000000000023,11,false,100,100,0,0,0,0,0,4187,4154,4164,4159,4189,4168,0.0,0.0,0.0,Started waypoint mission,
20.74546992977803,-103.51431472203387,4000,0.2,0.5830952,15,5,-1.8,-3.8000000000000003,-37.6,2019-10-25 16:08:40.5670+0000,-0.11418402194976807,0.0,0.3,-0.5,true,97,-8523,4335,25215,24.850000000000023,11,false,100,100,0,0,0,0,0,4187,4154,4164,4159,4189,4168,0.0,0.0,0.0,Started waypoint mission,
20.745469981356468,-103.51431446632462,4000,0.30000000000000004,0.5830952,15,5,-1.9000000000000001,-3.9000000000000004,-37.5,2019-10-25 16:08:40.6780+0000,-0.11040592193603516,0.0,0.3,-0.5,true,97,-8523,4335,25215,24.850000000000023,11,false,100,100,0,0,0,0,0,4187,4154,4164,4159,4189,4168,0.0,0.0,0.0,Started waypoint mission,
20.745470030901444,-103.51431420288783,4000,0.30000000000000004,0.44721362,14,5,-2.1,-4.0,-37.5,2019-10-25 16:08:40.7850+0000,-0.1062769889831543,0.0,0.2,-0.4,true,97,-8523,4335,25215,24.850000000000023,11,false,100,100,0,0,0,0,0,4187,4154,4164,4159,4189,4168,0.0,0.0,0.0,Started waypoint mission,
20.74547008637887,-103.51431389218246,4000,0.30000000000000004,0.36055514,14,5,-2.2,-4.1000000000000005,-37.5,2019-10-25 16:08:40.8610+0000,-0.0759589672088623,0.0,0.2,-0.3,true,97,-8523,4335,25215,24.850000000000023,11,false,100,100,0,0,0,0,0,4187,4154,4164,4159,4189,4168,0.0,0.0,0.0,Started waypoint mission,
20.745470141825123,-103.51431360017902,5000,0.30000000000000004,0.28284273,15,5,-2.1,-4.1000000000000005,-37.5,2019-10-25 16:08:40.9600+0000,-0.09862697124481201,0.0,0.2,-0.2,true,97,-8523,4335,25215,24.850000000000023,11,false,100,100,0,0,0,0,0,4187,4154,4164,4159,4189,4168,0.0,0.0,0.0,Started waypoint mission,
20.74547018288548,-103.5143133493159,5000,0.30000000000000004,0.44721362,15,5,-1.9000000000000001,-4.2,-37.6,2019-10-25 16:08:41.1050+0000,-0.14395594596862793,0.0,0.2,-0.4,true,97,-8523,4335,25215,24.850000000000023,11,false,100,100,0,0,0,0,0,4187,4154,4164,4159,4189,4168,0.0,0.0,0.0,Started waypoint mission,
20.745470214617715,-103.5143131069622,5000,0.4,0.53851646,14,5,-1.6,-3.8000000000000003,-37.4,2019-10-25 16:08:41.1810+0000,-0.07531499862670898,0.0,0.2,-0.5,true,97,-16583,4335,24633,24.850000000000023,11,false,100,100,0,0,0,0,0,4069,4094,4101,4106,4117,4092,0.0,0.0,0.0,Started waypoint mission,
20.745470243546453,-103.51431282789741,5000,0.4,0.53851646,14,5,-1.7000000000000002,-3.8000000000000003,-37.300000000000004,2019-10-25 16:08:41.3010+0000,-0.11954605579376221,0.0,0.2,-0.5,true,97,-16583,4335,24633,24.850000000000023,11,false,100,100,0,0,0,0,0,4069,4094,4101,4106,4117,4092,0.0,0.0,0.0,Started waypoint mission,
20.745470254570915,-103.51431254413998,5000,0.5,0.6324555,14,5,-1.8,-3.9000000000000004,-37.2,2019-10-25 16:08:41.4010+0000,-0.09914803504943848,0.0,0.2,-0.6,true,97,-16583,4335,24633,24.850000000000023,11,false,100,100,0,0,0,0,0,4069,4094,4101,4106,4117,4092,0.0,0.0,0.0,Started waypoint mission,
20.745470217461982,-103.51431227130993,5000,0.6000000000000001,0.53851646,14,5,-1.9000000000000001,-3.8000000000000003,-37.1,2019-10-25 16:08:41.5020+0000,-0.10071694850921631,0.0,0.2,-0.5,true,97,-16583,4335,24633,24.850000000000023,11,false,100,100,0,0,0,0,0,4069,4094,4101,4106,4117,4092,0.0,0.0,0.0,Started waypoint mission,
20.745470167186713,-103.514311988892,5000,0.6000000000000001,0.44721362,14,5,-2.0,-3.7,-37.1,2019-10-25 16:08:41.6030+0000,-0.09953594207763672,0.0,0.2,-0.4,true,97,-16583,4335,24633,24.850000000000023,11,false,100,100,0,0,0,0,0,4069,4094,4101,4106,4117,4092,0.0,0.0,0.0,Started waypoint mission,
20.745470114814005,-103.51431166588429,5000,0.7000000000000001,0.53851646,14,5,-2.1,-3.6,-37.0,2019-10-25 16:08:41.7020+0000,-0.09905993938446045,0.0,0.2,-0.5,true,97,-16583,4335,24633,24.850000000000023,11,false,100,100,0,0,0,0,0,4069,4094,4101,4106,4117,4092,0.0,0.0,0.0,Started waypoint mission,
20.745470077295305,-103.51431133993559,5000,0.7000000000000001,0.44721362,14,5,-2.4000000000000004,-3.7,-37.1,2019-10-25 16:08:41.7980+0000,-0.09519696235656738,0.0,0.2,-0.4,true,97,-16583,4335,24633,24.850000000000023,11,false,100,100,0,0,0,0,0,4069,4094,4101,4106,4117,4092,0.0,0.0,0.0,Started waypoint mission,
20.745470100119235,-103.5143110294157,6000,0.7000000000000001,0.44721362,14,5,-2.6,-3.7,-37.1,2019-10-25 16:08:41.9010+0000,-0.10226011276245117,0.0,0.2,-0.4,true,97,-16583,4335,24633,24.850000000000023,11,false,100,100,0,0,0,0,0,4069,4094,4101,4106,4117,4092,0.0,0.0,0.0,Started waypoint mission,
20.745470111776417,-103.51431071799476,6000,0.8,0.44721362,14,5,-2.6,-3.9000000000000004,-37.1,2019-10-25 16:08:42.0120+0000,-0.10964500904083252,0.0,0.2,-0.4,true,97,-16583,4335,24633,24.850000000000023,11,false,100,100,0,0,0,0,0,4069,4094,4101,4106,4117,4092,0.0,0.0,0.0,Started waypoint mission,
20.745470076544382,-103.51431041199919,6000,0.8,0.53851646,14,5,-2.5,-3.9000000000000004,-37.0,2019-10-25 16:08:42.1070+0000,-0.09439504146575928,0.0,0.2,-0.5,true,97,-16583,4335,24633,24.850000000000023,11,false,100,100,0,0,0,0,0,4069,4094,4101,4106,4117,4092,0.0,0.0,0.0,Started waypoint mission,
20.745470046039703,-103.51431011615936,6000,0.9,0.44721362,14,5,-2.5,-3.7,-36.9,2019-10-25 16:08:42.2260+0000,-0.11834895610809326,0.0,0.2,-0.4,true,97,-16928,4335,24448,24.850000000000023,14,false,100,100,0,0,0,0,0,4069,4094,4101,4106,4117,4092,0.0,0.0,0.0,Started waypoint mission,
20.745470035350856,-103.51430983822004,6000,0.9,0.28284273,14,5,-2.5,-3.6,-36.7,2019-10-25 16:08:42.3280+0000,-0.10144209861755371,0.0,0.2,-0.2,true,97,-16928,4335,24448,24.850000000000023,14,false,100,100,0,0,0,0,0,4069,4094,4101,4106,4117,4092,0.0,0.0,0.0,Started waypoint mission,
20.74547003171805,-103.51430956012734,6000,0.9,0.22360681,14,5,-3.0,-3.9000000000000004,-36.6,2019-10-25 16:08:42.3300+0000,-0.0017620325088500977,0.0,0.2,-0.1,true,97,-16928,4335,24448,24.850000000000023,14,false,100,100,0,0,0,0,0,4069,4094,4101,4106,4117,4092,0.0,0.0,0.0,Started waypoint mission,
20.745470039383928,-103.51430930546691,6000,0.9,0.28284273,14,5,-3.3000000000000003,-4.4,-36.6,2019-10-25 16:08:42.5410+0000,-0.21087002754211426,0.0,0.2,-0.2,true,97,-16928,4335,24448,24.850000000000023,14,false,100,100,0,0,0,0,0,4069,4094,4101,4106,4117,4092,0.0,0.0,0.0,Started waypoint mission,
20.745470043006293,-103.51430908002695,6000,0.9,0.28284273,13,4,-3.3000000000000003,-4.3,-36.7,2019-10-25 16:08:42.6510+0000,-0.10934603214263916,0.0,0.2,-0.2,true,97,-16928,4335,24448,24.850000000000023,14,false,100,100,0,0,0,0,0,4069,4094,4101,4106,4117,4092,0.0,0.0,0.0,Started waypoint mission,
20.74547002474083,-103.51430889280586,6000,0.9,0.31622776,13,4,-2.9000000000000004,-3.9000000000000004,-37.0,2019-10-25 16:08:42.6620+0000,-0.010527968406677246,0.0,0.1,-0.3,true,97,-16928,4335,24448,24.850000000000023,14,false,100,100,0,0,0,0,0,0,0,0,0,0,0,0.0,0.0,0.0,Started waypoint mission,
20.745470003806624,-103.5143087493696,6000,1.0,0.50990194,13,4,-2.6,-3.8000000000000003,-37.5,2019-10-25 16:08:42.7410+0000,-0.0776829719543457,0.0,0.1,-0.5,true,97,-16928,4335,24448,24.850000000000023,14,false,100,100,0,0,0,0,0,4051,4064,4047,4076,4077,4070,0.0,0.0,0.0,Started waypoint mission,
20.745469973069227,-103.5143086682439,7000,1.0,0.7,13,4,-2.6,-3.4000000000000004,-38.0,2019-10-25 16:08:42.8650+0000,-0.12338101863861084,0.0,0.0,-0.7,true,97,-16928,4335,24448,24.850000000000023,14,false,100,100,0,0,0,0,0,4051,4064,4047,4076,4077,4070,0.0,0.0,0.0,Started waypoint mission,
20.745469927197856,-103.51430860361731,7000,1.1,1.0,14,4,-2.7,-2.8000000000000003,-38.6,2019-10-25 16:08:42.9590+0000,-0.09337294101715088,0.0,0.0,-1.0,true,97,-16928,4335,24448,24.850000000000023,14,false,100,100,0,0,0,0,0,4051,4064,4047,4076,4077,4070,0.0,0.0,0.0,Started waypoint mission,
20.745469875001117,-103.5143085223134,7000,1.2000000000000002,1.4,14,4,-3.0,-2.3000000000000003,-39.1,2019-10-25 16:08:43.0740+0000,-0.11506402492523193,0.0,0.0,-1.4,true,97,-16928,4335,24448,24.850000000000023,14,false,100,100,0,0,0,0,0,4051,4064,4047,4076,4077,4070,0.0,0.0,0.0,Started waypoint mission,
20.745469824060255,-103.51430844312453,7000,1.4000000000000001,1.6,15,4,-3.3000000000000003,-2.1,-39.6,2019-10-25 16:08:43.1770+0000,-0.10145199298858643,0.0,0.0,-1.6,true,97,-16928,4335,24392,24.950000000000045,14,false,100,100,0,0,0,0,0,4051,4064,4047,4076,4077,4070,0.0,0.0,0.0,Started waypoint mission,
20.7454697924489,-103.51430834192814,7000,1.5,1.7,15,4,-3.4000000000000004,-2.3000000000000003,-40.2,2019-10-25 16:08:43.2690+0000,-0.09118390083312988,0.0,0.0,-1.7,true,97,-16928,4335,24392,24.950000000000045,14,false,100,100,0,0,0,0,0,4051,4064,4047,4076,4077,4070,0.0,0.0,0.0,Started waypoint mission,
20.745469766561758,-103.51430823310777,7000,1.7000000000000002,1.9,15,4,-3.3000000000000003,-2.5,-40.5,2019-10-25 16:08:43.3750+0000,-0.1059579849243164,0.0,0.0,-1.9,true,97,-16928,4335,24392,24.950000000000045,14,false,100,100,0,0,0,0,0,4051,4064,4047,4076,4077,4070,0.0,0.0,0.0,Started waypoint mission,
20.745469720649293,-103.5143080775162,7000,1.9000000000000001,2.0,15,4,-3.5,-2.3000000000000003,-40.5,2019-10-25 16:08:43.4720+0000,-0.09636306762695312,0.0,0.0,-2.0,true,97,-16928,4335,24392,24.950000000000045,14,false,100,100,0,0,0,0,0,4051,4064,4047,4076,4077,4070,0.0,0.0,0.0,Started waypoint mission,
20.74546983188288,-103.51430780629937,7000,2.3000000000000003,2.4,15,4,-3.3000000000000003,-2.3000000000000003,-40.0,2019-10-25 16:08:43.6980+0000,-0.22498595714569092,0.0,0.0,-2.4,true,97,-17303,4335,24392,24.950000000000045,14,false,100,100,0,0,0,0,0,4045,4069,4033,4099,4057,4142,0.0,0.0,0.0,Started waypoint mission,
20.74546994066637,-103.51430706071054,8000,3.2,3.1,15,4,-2.4000000000000004,-3.6,-38.7,2019-10-25 16:08:44.0140+0000,-0.315018892288208,0.0,0.0,-3.1,true,97,-17303,4335,24392,24.950000000000045,14,false,100,100,0,0,0,0,0,4045,4069,4033,4099,4057,4142,0.0,0.0,0.0,Started waypoint mission,
20.745470031663583,-103.51430682467954,8000,3.5,3.2,15,4,-2.6,-4.3,-38.400000000000006,2019-10-25 16:08:44.1220+0000,-0.10723698139190674,0.0,0.0,-3.2,true,97,-17303,4335,24392,24.950000000000045,14,false,100,96,0,0,0,0,0,4045,4069,4033,4099,4057,4142,0.0,0.0,0.0,Started waypoint mission,
20.745470088579793,-103.51430657150252,8000,3.8000000000000003,3.3,15,4,-2.7,-4.7,-38.400000000000006,2019-10-25 16:08:44.2110+0000,-0.08783996105194092,0.0,0.0,-3.3,true,97,-17303,4335,24392,24.950000000000045,14,false,100,96,0,0,0,0,0,4045,4069,4033,4099,4057,4142,0.0,0.0,0.0,Started waypoint mission,
20.74547002594165,-103.51430625797163,8000,4.1000000000000005,3.1,15,4,-2.6,-5.2,-38.7,2019-10-25 16:08:44.3100+0000,-0.0990610122680664,0.0,0.0,-3.1,true,97,-17303,4335,24392,24.950000000000045,14,false,100,96,0,0,0,0,0,4045,4069,4033,4099,4057,4142,0.0,0.0,0.0,Started waypoint mission,
20.745469983486263,-103.5143059806292,8000,4.4,3.2,16,4,-3.3000000000000003,-5.300000000000001,-39.0,2019-10-25 16:08:44.4270+0000,-0.1162109375,0.0,0.0,-3.2,true,97,-17303,4335,24392,24.950000000000045,14,false,100,96,0,0,0,0,0,4045,4069,4033,4099,4057,4142,0.0,0.0,0.0,Started waypoint mission,
20.745470063098196,-103.51430584131644,8000,4.7,3.1,16,4,-3.6,-5.1000000000000005,-39.300000000000004,2019-10-25 16:08:44.4280+0000,-0.00045800209045410156,0.0,0.0,-3.1,true,97,-17303,4335,24392,24.950000000000045,14,false,100,96,0,0,0,0,0,4045,4069,4033,4099,4057,4142,0.0,0.0,0.0,Started waypoint mission,
20.745470132611985,-103.51430573710627,8000,5.0,3.3,16,4,-3.4000000000000004,-5.0,-39.5,2019-10-25 16:08:44.6220+0000,-0.19298601150512695,0.0,0.0,-3.3,true,97,-17303,4335,24392,24.950000000000045,14,false,100,93,0,0,0,0,0,4045,4069,4033,4099,4057,4142,0.0,0.0,0.0,Started waypoint mission,
20.745470153750436,-103.51430566227111,8000,5.4,3.5,16,4,-2.8000000000000003,-4.6000000000000005,-39.6,2019-10-25 16:08:44.7410+0000,-0.11889898777008057,0.0,0.0,-3.5,true,97,-24397,4335,24107,24.950000000000045,14,false,100,93,0,0,0,0,0,3958,3992,3999,4002,4017,4001,0.0,0.0,0.0,Started waypoint mission,
20.745470162043734,-103.51430563004111,8000,5.7,3.4014704,16,4,-2.3000000000000003,-4.2,-39.7,2019-10-25 16:08:44.7430+0000,-0.0010360479354858398,0.0,-0.1,-3.4,true,97,-24397,4335,24107,24.950000000000045,14,false,100,93,0,0,0,0,0,3958,3992,3999,4002,4017,4001,0.0,0.0,0.0,Started waypoint mission,
20.745470152988148,-103.51430565773234,9000,6.0,3.4014704,16,4,-2.6,-3.8000000000000003,-39.800000000000004,2019-10-25 16:08:44.8720+0000,-0.12898004055023193,0.0,-0.1,-3.4,true,97,-24397,4335,24107,24.950000000000045,14,false,100,93,0,0,0,0,0,3958,3992,3999,4002,4017,4001,0.0,0.0,0.0,Started waypoint mission,
20.745470131924208,-103.51430570813106,9000,6.4,3.5014284,16,4,-3.0,-3.5,-40.0,2019-10-25 16:08:44.9760+0000,-0.10292303562164307,0.0,-0.1,-3.5,true,97,-24397,4335,24107,24.950000000000045,14,false,100,93,0,0,0,0,0,3958,3992,3999,4002,4017,4001,0.0,0.0,0.0,Started waypoint mission,
20.745470101490547,-103.51430581439146,9000,6.800000000000001,3.4014704,16,4,-3.1,-3.3000000000000003,-40.1,2019-10-25 16:08:45.0650+0000,-0.08887004852294922,0.0,-0.1,-3.4,true,97,-24397,4335,24107,24.950000000000045,14,false,100,93,0,0,0,0,0,3958,3992,3999,4002,4017,4001,0.0,0.0,0.0,Started waypoint mission,
20.745470055255154,-103.5143059460343,9000,7.1000000000000005,3.3015149,16,4,-3.2,-3.1,-40.1,2019-10-25 16:08:45.1660+0000,-0.0997849702835083,0.0,-0.1,-3.3,true,97,-24397,4335,24107,24.950000000000045,14,false,100,93,0,0,0,0,0,3958,3992,3999,4002,4017,4001,0.0,0.0,0.0,Started waypoint mission,
20.74546996300366,-103.5143061217265,9000,7.5,3.2015622,16,4,-3.2,-2.9000000000000004,-40.1,2019-10-25 16:08:45.2630+0000,-0.09639501571655273,0.0,-0.1,-3.2,true,97,-24397,4335,24107,24.950000000000045,14,false,100,93,0,0,0,0,0,3958,3992,3999,4002,4017,4001,0.0,0.0,0.0,Started waypoint mission,
20.745469859322903,-103.51430632741821,9000,7.800000000000001,3.206244,16,4,-3.1,-2.4000000000000004,-40.1,2019-10-25 16:08:45.3780+0000,-0.11514103412628174,0.0,-0.2,-3.2,true,97,-24397,4335,24107,24.950000000000045,14,false,100,93,0,0,0,0,0,3958,3992,3999,4002,4017,4001,0.0,0.0,0.0,Started waypoint mission,
20.74546974798658,-103.51430657617414,9000,8.1,3.206244,16,4,-2.9000000000000004,-1.9000000000000001,-40.1,2019-10-25 16:08:45.4930+0000,-0.11377692222595215,0.0,-0.2,-3.2,true,97,-24397,4335,24107,24.950000000000045,14,false,100,93,0,0,0,0,0,3958,3992,3999,4002,4017,4001,0.0,0.0,0.0,Started waypoint mission,
20.745469649128403,-103.51430685323976,9000,8.5,3.206244,16,4,-2.7,-1.4000000000000001,-40.1,2019-10-25 16:08:45.5720+0000,-0.07871294021606445,0.0,-0.2,-3.2,true,97,-24397,4335,24107,24.950000000000045,14,false,100,97,0,0,0,0,0,3958,3992,3999,4002,4017,4001,0.0,0.0,0.0,Started waypoint mission,
20.745469535359664,-103.51430750683028,9000,9.1,3.1064448,17,4,-2.3000000000000003,-1.0,-40.0,2019-10-25 16:08:45.7920+0000,-0.21855390071868896,0.0,-0.2,-3.1,true,97,-20665,4291,23932,25.05000000000001,14,false,100,97,0,0,0,0,0,3988,4017,3997,4013,3973,3982,0.0,0.0,0.0,Started waypoint mission,
20.745469486102643,-103.51430778786151,10000,9.5,3.1064448,17,4,-2.0,-0.9,-40.0,2019-10-25 16:08:45.9230+0000,-0.13133692741394043,0.0,-0.2,-3.1,true,97,-20665,4291,23932,25.05000000000001,14,false,100,97,0,0,0,0,0,3988,4017,3997,4013,3973,3982,0.0,0.0,0.0,Started waypoint mission,
20.745469455522095,-103.51430806452063,10000,9.8,3.1016126,16,4,-1.9000000000000001,-0.8,-40.0,2019-10-25 16:08:46.0120+0000,-0.08835804462432861,0.0,-0.1,-3.1,true,97,-20665,4291,23932,25.05000000000001,14,false,100,97,0,0,0,0,0,3988,4017,3997,4013,3973,3982,0.0,0.0,0.0,Started waypoint mission,
20.74546947541587,-103.51430835978763,10000,10.100000000000001,3.2015622,16,4,-1.8,-0.9,-40.0,2019-10-25 16:08:46.1310+0000,-0.11780309677124023,0.0,-0.1,-3.2,true,97,-20665,4291,23932,25.05000000000001,14,false,100,97,0,0,0,0,0,3988,4017,3997,4013,3973,3982,0.0,0.0,0.0,Started waypoint mission,
20.745469485371032,-103.51430864402658,10000,10.4,3.1016126,17,4,-1.6,-0.9,-40.0,2019-10-25 16:08:46.2230+0000,-0.09176802635192871,0.0,-0.1,-3.1,true,97,-20665,4291,23932,25.05000000000001,14,false,100,97,0,0,0,0,0,3988,4017,3997,4013,3973,3982,0.0,0.0,0.0,Started waypoint mission,
20.74546943485493,-103.51430891424256,10000,10.700000000000001,3.0016663,17,4,-1.7000000000000002,-1.0,-40.0,2019-10-25 16:08:46.3120+0000,-0.08810102939605713,0.0,-0.1,-3.0,true,97,-20665,4291,23932,25.05000000000001,14,false,100,97,0,0,0,0,0,3988,4017,3997,4013,3973,3982,0.0,0.0,0.0,Started waypoint mission,
20.745469387477687,-103.51430917788782,10000,11.0,3.0016663,17,4,-2.0,-1.0,-40.0,2019-10-25 16:08:46.4110+0000,-0.09881293773651123,0.0,-0.1,-3.0,true,97,-20665,4291,23932,25.05000000000001,14,false,100,97,0,0,0,0,0,3988,4017,3997,4013,3973,3982,0.0,0.0,0.0,Started waypoint mission,
20.74546936561622,-103.51430946989485,10000,11.4,3.1016126,17,4,-2.0,-0.8,-40.0,2019-10-25 16:08:46.5220+0000,-0.10956704616546631,0.0,-0.1,-3.1,true,97,-20665,4291,23932,25.05000000000001,14,false,100,97,0,0,0,0,0,3988,4017,3997,4013,3973,3982,0.0,0.0,0.0,Started waypoint mission,
20.745469341335948,-103.51430974722527,10000,11.700000000000001,3.0016663,17,4,-1.8,-0.5,-39.900000000000006,2019-10-25 16:08:46.5240+0000,-0.0011860132217407227,0.0,-0.1,-3.0,true,97,-20665,4291,23932,25.05000000000001,14,false,100,96,0,0,0,0,0,3988,4017,3997,4013,3973,3982,0.0,0.0,0.0,Started waypoint mission,
20.7454692951555,-103.51430997111649,10000,12.0,3.1016126,17,4,-1.4000000000000001,-0.30000000000000004,-39.800000000000004,2019-10-25 16:08:46.6470+0000,-0.12310600280761719,0.0,-0.1,-3.1,true,96,-20334,4291,24013,25.05000000000001,14,false,100,96,0,0,0,0,0,0,0,0,0,0,0,0.0,0.0,0.0,Started waypoint mission,
20.745469260382325,-103.51431017285877,10000,12.3,3.1,17,4,-1.1,-0.4,-39.7,2019-10-25 16:08:46.7460+0000,-0.0984809398651123,0.0,0.0,-3.1,true,96,-20334,4291,24013,25.05000000000001,14,false,100,96,0,0,0,0,0,3977,3998,3981,3997,4008,3995,0.0,0.0,0.0,Started waypoint mission,
20.745469254431192,-103.51431035167714,10000,12.700000000000001,3.0,17,4,-1.0,-0.5,-39.6,2019-10-25 16:08:46.8320+0000,-0.0855790376663208,0.0,0.0,-3.0,true,96,-20334,4291,24013,25.05000000000001,14,false,100,96,0,0,0,0,0,3977,3998,3981,3997,4008,3995,0.0,0.0,0.0,Started waypoint mission,
20.745469236459446,-103.51431050069462,11000,13.0,3.0,17,4,-1.0,-0.7000000000000001,-39.6,2019-10-25 16:08:46.9430+0000,-0.10997092723846436,0.0,0.0,-3.0,true,96,-20334,4291,24013,25.05000000000001,14,false,100,96,0,0,0,0,0,3977,3998,3981,3997,4008,3995,0.0,0.0,0.0,Started waypoint mission,
20.745469177061416,-103.51431060931934,11000,13.3,3.1,17,4,-1.2000000000000002,-0.8,-39.6,2019-10-25 16:08:47.0630+0000,-0.11926102638244629,0.0,0.0,-3.1,true,96,-20334,4291,24013,25.05000000000001,14,false,100,94,0,0,0,0,0,3977,3998,3981,3997,4008,3995,0.0,0.0,0.0,Started waypoint mission,
20.74546912339428,-103.51431071132349,11000,13.700000000000001,3.1,17,4,-1.4000000000000001,-0.9,-39.6,2019-10-25 16:08:47.1900+0000,-0.12676799297332764,0.0,0.0,-3.1,true,96,-20334,4291,24013,25.05000000000001,14,false,100,94,0,0,0,0,0,3977,3998,3981,3997,4008,3995,0.0,0.0,0.0,Started waypoint mission,
20.745469108935737,-103.51431082370661,11000,14.0,3.1,17,4,-1.5,-0.9,-39.6,2019-10-25 16:08:47.2630+0000,-0.07184302806854248,0.0,0.0,-3.1,true,96,-20334,4291,24013,25.05000000000001,14,false,100,94,0,0,0,0,0,3977,3998,3981,3997,4008,3995,0.0,0.0,0.0,Started waypoint mission,
20.745469090810975,-103.51431091257969,11000,14.3,3.0,17,4,-1.6,-1.0,-39.6,2019-10-25 16:08:47.3630+0000,-0.09996199607849121,0.0,0.0,-3.0,true,96,-20334,4291,24013,25.05000000000001,14,false,100,94,0,0,0,0,0,3977,3998,3981,3997,4008,3995,0.0,0.0,0.0,Started waypoint mission,
20.7454690518803,-103.51431094839597,11000,14.600000000000001,3.0,17,4,-1.8,-1.0,-39.6,2019-10-25 16:08:47.4620+0000,-0.0985640287399292,0.0,0.0,-3.0,true,96,-20334,4291,24013,25.05000000000001,14,false,100,94,0,0,0,0,0,3977,3998,3981,3997,4008,3995,0.0,0.0,0.0,Started waypoint mission,
20.74546901005587,-103.51431097196958,11000,14.9,2.9,17,4,-2.0,-1.1,-39.7,2019-10-25 16:08:47.5930+0000,-0.12977397441864014,0.0,0.0,-2.9,true,96,-20334,4291,24013,25.05000000000001,14,false,100,98,0,0,0,0,0,3977,3998,3981,3997,4008,3995,0.0,0.0,0.0,Started waypoint mission,
20.74546895416571,-103.51431099156038,11000,15.200000000000001,2.8,17,4,-2.2,-1.1,-39.900000000000006,2019-10-25 16:08:47.6910+0000,-0.09742796421051025,0.0,0.0,-2.8,true,96,-20639,4291,23860,25.05000000000001,14,false,100,98,0,0,0,0,0,3977,3998,3981,3997,4008,3995,0.0,0.0,0.0,Started waypoint mission,
20.74546890369775,-103.51431099719699,11000,15.5,2.8,17,4,-2.3000000000000003,-1.3,-40.0,2019-10-25 16:08:47.7930+0000,-0.10133898258209229,0.0,0.0,-2.8,true,96,-20639,4291,23860,25.05000000000001,14,false,100,98,0,0,0,0,0,3977,3998,3981,3997,4008,3995,0.0,0.0,0.0,Started waypoint mission,
20.745468868809773,-103.51431098100292,12000,15.8,2.9,17,4,-2.5,-1.3,-40.1,2019-10-25 16:08:47.8920+0000,-0.09854304790496826,0.0,0.0,-2.9,true,96,-20639,4291,23860,25.05000000000001,14,false,100,98,0,0,0,0,0,3977,3998,3981,3997,4008,3995,0.0,0.0,0.0,Started waypoint mission,
20.745468845143677,-103.51431096669326,12000,16.1,2.9,17,5,-2.5,-1.4000000000000001,-40.2,2019-10-25 16:08:47.9910+0000,-0.0986790657043457,0.0,0.0,-2.9,true,96,-20639,4291,23860,25.05000000000001,14,false,100,98,0,0,0,0,0,3977,3998,3981,3997,4008,3995,0.0,0.0,0.0,Started waypoint mission,
20.745468840858088,-103.51431096671439,12000,16.400000000000002,3.1,17,5,-2.4000000000000004,-1.5,-40.1,2019-10-25 16:08:48.0990+0000,-0.1070939302444458,0.0,0.0,-3.1,true,96,-20639,4291,23860,25.05000000000001,14,false,100,100,0,0,0,0,0,3977,3998,3981,3997,4008,3995,0.0,0.0,0.0,Started waypoint mission,
20.745468834250822,-103.51431096638643,12000,16.7,2.9,17,5,-2.2,-1.6,-40.0,2019-10-25 16:08:48.2000+0000,-0.10022401809692383,0.0,0.0,-2.9,true,96,-20639,4291,23860,25.05000000000001,14,false,100,100,0,0,0,0,0,3949,3987,3972,3977,3991,4000,0.0,0.0,0.0,Started waypoint mission,
20.745468807150967,-103.51431095176882,12000,17.0,2.8,17,5,-2.1,-1.5,-40.0,2019-10-25 16:08:48.2920+0000,-0.09148991107940674,0.0,0.0,-2.8,true,96,-20639,4291,23860,25.05000000000001,14,false,100,100,0,0,0,0,0,3949,3987,3972,3977,3991,4000,0.0,0.0,0.0,Started waypoint mission,
20.745468790518682,-103.5143109359331,12000,17.3,2.9,17,5,-2.1,-1.4000000000000001,-39.900000000000006,2019-10-25 16:08:48.4170+0000,-0.12405991554260254,0.0,0.0,-2.9,true,96,-20639,4291,23860,25.05000000000001,14,false,100,100,0,0,0,0,0,3949,3987,3972,3977,3991,4000,0.0,0.0,0.0,Started waypoint mission,
20.74546881131512,-103.51431090796112,12000,17.6,2.9,17,5,-2.1,-1.3,-39.900000000000006,2019-10-25 16:08:48.5170+0000,-0.0994800329208374,0.0,0.0,-2.9,true,96,-20639,4291,23860,25.05000000000001,14,false,100,100,0,0,0,0,0,3949,3987,3972,3977,3991,4000,0.0,0.0,0.0,Started waypoint mission,
20.745468829901903,-103.5143108781471,12000,17.900000000000002,2.9,17,5,-2.0,-1.5,-39.800000000000004,2019-10-25 16:08:48.6160+0000,-0.09855496883392334,0.0,0.0,-2.9,true,96,-20639,4291,23860,25.05000000000001,14,false,100,100,0,0,0,0,0,3949,3987,3972,3977,3991,4000,0.0,0.0,0.0,Started waypoint mission,
20.74546882456135,-103.5143108551426,12000,18.2,2.7,17,5,-2.1,-1.4000000000000001,-39.800000000000004,2019-10-25 16:08:48.7340+0000,-0.1176680326461792,0.0,0.0,-2.7,true,96,-20639,4291,23826,25.05000000000001,14,false,100,100,0,0,0,0,0,3949,3987,3972,3977,3991,4000,0.0,0.0,0.0,Started waypoint mission,
20.745468818812462,-103.51431082028344,12000,18.5,2.8,17,5,-2.2,-1.4000000000000001,-39.900000000000006,2019-10-25 16:08:48.8400+0000,-0.10460400581359863,0.0,0.0,-2.8,true,96,-20639,4291,23826,25.05000000000001,14,false,100,100,0,0,0,0,0,3949,3987,3972,3977,3991,4000,0.0,0.0,0.0,Started waypoint mission,
20.74546882038444,-103.51431075504637,12000,18.8,3.0,17,5,-2.2,-1.4000000000000001,-39.800000000000004,2019-10-25 16:08:48.8420+0000,-0.0011879205703735352,0.0,0.0,-3.0,true,96,-20639,4291,23826,25.05000000000001,14,false,100,100,0,0,0,0,0,3949,3987,3972,3977,3991,4000,0.0,0.0,0.0,Started waypoint mission,
20.74546882789536,-103.51431068855237,13000,19.1,2.9,17,5,-2.3000000000000003,-1.4000000000000001,-39.7,2019-10-25 16:08:48.9590+0000,-0.11699604988098145,0.0,0.0,-2.9,true,96,-20639,4291,23826,25.05000000000001,14,false,100,100,0,0,0,0,0,3949,3987,3972,3977,3991,4000,0.0,0.0,0.0,Started waypoint mission,
20.745468861710737,-103.51431061957526,13000,19.3,2.8,17,5,-2.4000000000000004,-1.4000000000000001,-39.7,2019-10-25 16:08:49.1070+0000,-0.1469590663909912,0.0,0.0,-2.8,true,96,-20639,4291,23826,25.05000000000001,14,false,100,100,0,0,0,0,0,3949,3987,3972,3977,3991,4000,0.0,0.0,0.0,Started waypoint mission,
20.74546890231861,-103.51431054639096,13000,19.6,2.8,17,5,-2.4000000000000004,-1.6,-39.7,2019-10-25 16:08:49.1780+0000,-0.07086598873138428,0.0,0.0,-2.8,true,96,-20856,4291,23826,25.05000000000001,14,false,100,100,0,0,0,0,0,0,0,0,0,0,0,0.0,0.0,0.0,Started waypoint mission,
20.745468952607443,-103.51431047432852,13000,19.900000000000002,3.0,17,5,-2.2,-1.7000000000000002,-39.7,2019-10-25 16:08:49.2620+0000,-0.08275604248046875,0.0,0.0,-3.0,true,96,-20856,4291,23826,25.05000000000001,14,false,100,100,0,0,0,0,0,3949,3979,3970,3975,3981,3986,0.0,0.0,0.0,Started waypoint mission,
20.745469009627886,-103.51431039913726,13000,20.200000000000003,3.1,17,5,-2.0,-1.9000000000000001,-39.7,2019-10-25 16:08:49.3750+0000,-0.11214995384216309,0.0,0.0,-3.1,true,96,-20856,4291,23826,25.05000000000001,14,false,100,100,0,0,0,0,0,3949,3979,3970,3975,3981,3986,0.0,0.0,0.0,Started waypoint mission,
20.745469062256273,-103.51431030616355,13000,20.5,2.9,17,5,-1.9000000000000001,-2.2,-39.7,2019-10-25 16:08:49.4670+0000,-0.09180998802185059,0.0,0.0,-2.9,true,96,-20856,4291,23826,25.05000000000001,14,false,100,100,0,0,0,0,0,3949,3979,3970,3975,3981,3986,0.0,0.0,0.0,Started waypoint mission,
20.745469113288934,-103.5143102021068,13000,20.900000000000002,3.0,17,5,-1.9000000000000001,-2.3000000000000003,-39.7,2019-10-25 16:08:49.5630+0000,-0.09523200988769531,0.0,0.0,-3.0,true,96,-20856,4291,23826,25.05000000000001,14,false,100,100,0,0,0,0,0,3949,3979,3970,3975,3981,3986,0.0,0.0,0.0,Started waypoint mission,
20.74546916316659,-103.51431006941698,13000,21.200000000000003,3.0,17,5,-2.0,-2.4000000000000004,-39.800000000000004,2019-10-25 16:08:49.6640+0000,-0.10025501251220703,0.0,0.0,-3.0,true,96,-20856,4291,23826,25.05000000000001,14,false,100,100,0,0,0,0,0,3949,3979,3970,3975,3981,3986,0.0,0.0,0.0,Started waypoint mission,
20.745469212171844,-103.51430993271693,13000,21.5,2.8,17,5,-2.2,-2.5,-39.800000000000004,2019-10-25 16:08:49.7630+0000,-0.09787201881408691,0.0,0.0,-2.8,true,96,-20856,4291,23826,25.05000000000001,14,false,100,100,0,0,0,0,0,3949,3979,3970,3975,3981,3986,0.0,0.0,0.0,Started waypoint mission,
20.745469267680082,-103.51430979972035,14000,21.700000000000003,2.9,17,5,-2.4000000000000004,-2.7,-39.800000000000004,2019-10-25 16:08:49.8620+0000,-0.09904897212982178,0.0,0.0,-2.9,true,96,-20856,4291,23826,25.05000000000001,14,false,100,100,0,0,0,0,0,3949,3979,3970,3975,3981,3986,0.0,0.0,0.0,Started waypoint mission,
20.745469306952252,-103.51430967009186,14000,22.0,2.8,17,5,-2.4000000000000004,-2.7,-39.800000000000004,2019-10-25 16:08:49.9890+0000,-0.12608802318572998,0.0,0.0,-2.8,true,96,-20856,4291,23826,25.05000000000001,14,false,100,100,0,0,0,0,0,3949,3979,3970,3975,3981,3986,0.0,0.0,0.0,Started waypoint mission,
20.745469299202128,-103.51430953800548,14000,22.3,2.8,17,5,-2.5,-2.8000000000000003,-39.900000000000006,2019-10-25 16:08:50.0780+0000,-0.08895397186279297,0.0,0.0,-2.8,true,96,-20856,4291,23826,25.05000000000001,14,false,100,100,0,0,0,0,0,3949,3979,3970,3975,3981,3986,0.0,0.0,0.0,Started waypoint mission,
20.745469296327624,-103.51430942753557,14000,22.6,2.9,17,5,-2.6,-2.7,-39.900000000000006,2019-10-25 16:08:50.1920+0000,-0.11280691623687744,0.0,0.0,-2.9,true,96,-21087,4291,23845,25.150000000000034,14,false,100,100,0,0,0,0,0,3972,3975,3973,3971,3955,3965,0.0,0.0,0.0,Started waypoint mission,
20.745469337430567,-103.5143093673003,14000,22.900000000000002,3.1,17,5,-2.5,-2.5,-39.900000000000006,2019-10-25 16:08:50.3040+0000,-0.11142396926879883,0.0,0.0,-3.1,true,96,-21087,4291,23845,25.150000000000034,14,false,100,100,0,0,0,0,0,3972,3975,3973,3971,3955,3965,0.0,0.0,0.0,Started waypoint mission,
20.74546937338208,-103.51430931447781,14000,23.200000000000003,3.0,17,5,-2.4000000000000004,-2.4000000000000004,-39.900000000000006,2019-10-25 16:08:50.3930+0000,-0.0885469913482666,0.0,0.0,-3.0,true,96,-21087,4291,23845,25.150000000000034,14,false,100,100,0,0,0,0,0,3972,3975,3973,3971,3955,3965,0.0,0.0,0.0,Started waypoint mission,
20.745469388399133,-103.51430924355917,14000,23.5,2.9,17,5,-2.3000000000000003,-2.3000000000000003,-40.0,2019-10-25 16:08:50.4930+0000,-0.09985601902008057,0.0,0.0,-2.9,true,96,-21087,4291,23845,25.150000000000034,14,false,100,100,0,0,0,0,0,3972,3975,3973,3971,3955,3965,0.0,0.0,0.0,Started waypoint mission,
20.745469413186353,-103.51430917330563,14000,23.8,3.0,17,5,-2.3000000000000003,-2.4000000000000004,-40.0,2019-10-25 16:08:50.5930+0000,-0.0986030101776123,0.0,0.0,-3.0,true,96,-21087,4291,23845,25.150000000000034,14,false,100,100,0,0,0,0,0,3972,3975,3973,3971,3955,3965,0.0,0.0,0.0,Started waypoint mission,
20.745469469745178,-103.51430910966461,14000,24.1,3.0,17,5,-2.3000000000000003,-2.5,-40.0,2019-10-25 16:08:50.7010+0000,-0.10818099975585938,0.0,0.0,-3.0,true,96,-21087,4291,23845,25.150000000000034,14,false,100,100,0,0,0,0,0,3972,3975,3973,3971,3955,3965,0.0,0.0,0.0,Started waypoint mission,
20.7454695509602,-103.51430900164766,15000,24.700000000000003,2.8,17,5,-2.3000000000000003,-2.5,-40.0,2019-10-25 16:08:50.9120+0000,-0.20962297916412354,0.0,0.0,-2.8,true,96,-21087,4291,23845,25.150000000000034,14,false,100,100,0,0,0,0,0,3972,3975,3973,3971,3955,3965,0.0,0.0,0.0,Started waypoint mission,
20.745469582373183,-103.51430895459515,15000,25.0,2.8,17,5,-2.3000000000000003,-2.5,-40.0,2019-10-25 16:08:51.0370+0000,-0.12459492683410645,0.0,0.0,-2.8,true,96,-21087,4291,23845,25.150000000000034,14,false,100,100,0,0,0,0,0,3972,3975,3973,3971,3955,3965,0.0,0.0,0.0,Started waypoint mission,
20.745469622362084,-103.51430890604975,15000,25.3,2.9,17,5,-2.1,-2.4000000000000004,-40.0,2019-10-25 16:08:51.1340+0000,-0.09601998329162598,0.0,0.0,-2.9,true,96,-21087,4291,23845,25.150000000000034,14,false,100,100,0,0,0,0,0,3972,3975,3973,3971,3955,3965,0.0,0.0,0.0,Started waypoint mission,
20.745469659465858,-103.5143088667602,15000,25.6,3.0,17,5,-2.2,-2.4000000000000004,-39.900000000000006,2019-10-25 16:08:51.2350+0000,-0.1002049446105957,0.0,0.0,-3.0,true,96,-20953,4291,23760,25.25,14,false,100,100,0,0,0,0,0,3946,3973,3934,3969,3974,3959,0.0,0.0,0.0,Started waypoint mission,
20.745469682538236,-103.51430884224229,15000,25.900000000000002,3.0,17,5,-2.3000000000000003,-2.4000000000000004,-39.800000000000004,2019-10-25 16:08:51.3270+0000,-0.09176898002624512,0.0,0.0,-3.0,true,96,-20953,4291,23760,25.25,14,false,100,100,0,0,0,0,0,3946,3973,3934,3969,3974,3959,0.0,0.0,0.0,Started waypoint mission,
20.74546970049198,-103.51430882368781,15000,26.1,2.8,17,5,-2.3000000000000003,-2.3000000000000003,-39.800000000000004,2019-10-25 16:08:51.4430+0000,-0.1155099868774414,0.0,0.0,-2.8,true,96,-20953,4291,23760,25.25,14,false,100,100,0,0,0,0,0,3946,3973,3934,3969,3974,3959,0.0,0.0,0.0,Started waypoint mission,
20.745469713633536,-103.51430881289059,15000,26.400000000000002,2.9,17,5,-2.3000000000000003,-2.2,-39.800000000000004,2019-10-25 16:08:51.4450+0000,-0.001448988914489746,0.0,0.0,-2.9,true,96,-20953,4291,23760,25.25,14,false,100,100,0,0,0,0,0,3946,3973,3934,3969,3974,3959,0.0,0.0,0.0,Started waypoint mission,
20.745469734558295,-103.51430880603492,15000,26.8,3.1,17,5,-2.2,-2.2,-39.800000000000004,2019-10-25 16:08:51.5430+0000,-0.09736204147338867,0.0,0.0,-3.1,true,96,-20953,4291,23760,25.25,14,false,100,100,0,0,0,0,0,3946,3973,3934,3969,3974,3959,0.0,0.0,0.0,Started waypoint mission,
20.74546978777843,-103.5143087969102,15000,27.1,3.1,17,5,-2.0,-2.2,-39.7,2019-10-25 16:08:51.6490+0000,-0.10575008392333984,0.0,0.0,-3.1,true,96,-20953,4291,23760,25.25,14,false,100,100,0,0,0,0,0,0,0,0,0,0,0,0.0,0.0,0.0,Started waypoint mission,
20.745469849985735,-103.51430877715886,15000,27.700000000000003,3.0,17,5,-2.0,-2.6,-39.800000000000004,2019-10-25 16:08:51.8430+0000,-0.19344401359558105,0.0,0.0,-3.0,true,96,-20953,4291,23760,25.25,14,false,100,100,0,0,0,0,0,3946,3973,3934,3969,3974,3959,0.0,0.0,0.0,Started waypoint mission,
20.745469868763344,-103.51430876152475,16000,28.0,2.9,17,5,-2.1,-2.6,-39.800000000000004,2019-10-25 16:08:51.9550+0000,-0.11146998405456543,0.0,0.0,-2.9,true,96,-20953,4291,23760,25.25,14,false,100,100,0,0,0,0,0,3946,3973,3934,3969,3974,3959,0.0,0.0,0.0,Started waypoint mission,
20.745469924421283,-103.51430873007557,16000,28.3,2.9,17,5,-2.2,-2.6,-39.900000000000006,2019-10-25 16:08:52.0570+0000,-0.10100996494293213,0.0,0.0,-2.9,true,96,-20953,4291,23760,25.25,14,false,100,100,0,0,0,0,0,3946,3973,3934,3969,3974,3959,0.0,0.0,0.0,Started waypoint mission,
20.74546997574424,-103.51430870949588,16000,28.6,2.9,17,5,-2.1,-2.7,-40.0,2019-10-25 16:08:52.1560+0000,-0.0984729528427124,0.0,0.0,-2.9,true,96,-21215,4291,23662,25.25,14,false,100,100,0,0,0,0,0,3914,3945,3950,3956,3973,3952,0.0,0.0,0.0,Started waypoint mission,
20.74546998498219,-103.51430872711991,16000,28.900000000000002,2.9,17,5,-1.9000000000000001,-2.7,-40.0,2019-10-25 16:08:52.2630+0000,-0.10645198822021484,0.0,0.0,-2.9,true,96,-21215,4291,23662,25.25,14,false,100,100,0,0,0,0,0,3914,3945,3950,3956,3973,3952,0.0,0.0,0.0,Started waypoint mission,
20.74546999547193,-103.51430875150982,16000,29.200000000000003,3.0,17,5,-1.8,-2.7,-40.1,2019-10-25 16:08:52.3630+0000,-0.09912490844726562,0.0,0.0,-3.0,true,96,-21215,4291,23662,25.25,14,false,100,100,0,0,0,0,0,3914,3945,3950,3956,3973,3952,0.0,0.0,0.0,Started waypoint mission,
20.745470025367638,-103.51430877247614,16000,29.5,3.0,17,5,-1.8,-2.4000000000000004,-40.1,2019-10-25 16:08:52.4890+0000,-0.12594902515411377,0.0,0.0,-3.0,true,96,-21215,4291,23662,25.25,14,false,100,100,0,0,0,0,0,3914,3945,3950,3956,3973,3952,0.0,0.0,0.0,Started waypoint mission,
20.74547004135834,-103.51430880285116,16000,29.8,3.0,17,5,-2.0,-2.2,-40.0,2019-10-25 16:08:52.5900+0000,-0.10029292106628418,0.0,0.0,-3.0,true,96,-21215,4291,23662,25.25,14,false,100,100,0,0,0,0,0,3914,3945,3950,3956,3973,3952,0.0,0.0,0.0,Started waypoint mission,
20.745470023413148,-103.51430884905221,16000,30.1,2.8,17,5,-2.1,-2.1,-40.0,2019-10-25 16:08:52.6930+0000,-0.10195493698120117,0.0,0.0,-2.8,true,96,-21215,4291,23662,25.25,14,false,100,100,0,0,0,0,0,3914,3945,3950,3956,3973,3952,0.0,0.0,0.0,Started waypoint mission,
20.745470003724627,-103.51430888638205,16000,30.3,2.8,17,5,-2.2,-2.0,-40.0,2019-10-25 16:08:52.7940+0000,-0.10078001022338867,0.0,0.0,-2.8,true,96,-21215,4291,23662,25.25,14,false,100,100,0,0,0,0,0,3914,3945,3950,3956,3973,3952,0.0,0.0,0.0,Started waypoint mission,
20.74546998997615,-103.51430890148404,17000,30.6,3.0,17,5,-2.2,-2.0,-40.0,2019-10-25 16:08:52.8820+0000,-0.08685100078582764,0.0,0.0,-3.0,true,96,-21215,4291,23662,25.25,14,false,100,100,0,0,0,0,0,3914,3945,3950,3956,3973,3952,0.0,0.0,0.0,Started waypoint mission,
20.745469970440176,-103.51430893039247,17000,31.0,3.2,17,5,-2.2,-1.9000000000000001,-40.0,2019-10-25 16:08:52.9980+0000,-0.11562192440032959,0.0,0.0,-3.2,true,96,-21215,4291,23662,25.25,14,false,100,100,0,0,0,0,0,3914,3945,3950,3956,3973,3952,0.0,0.0,0.0,Started waypoint mission,
20.74546994142867,-103.5143089958894,17000,31.3,3.0,17,5,-2.3000000000000003,-1.9000000000000001,-39.900000000000006,2019-10-25 16:08:53.1170+0000,-0.11829698085784912,0.0,0.0,-3.0,true,96,-21215,4291,23662,25.25,14,false,100,100,0,0,0,0,0,3914,3945,3950,3956,3973,3952,0.0,0.0,0.0,Started waypoint mission,
20.74546990099702,-103.5143090595706,17000,31.6,3.0,17,5,-2.4000000000000004,-1.8,-39.800000000000004,2019-10-25 16:08:53.2070+0000,-0.08998703956604004,0.0,0.0,-3.0,true,96,-21280,4246,23722,25.350000000000023,14,false,100,100,0,0,0,0,0,3914,3945,3950,3956,3973,3952,0.0,0.0,0.0,Started waypoint mission,
20.745469840103144,-103.51430910828788,17000,31.900000000000002,3.0,17,5,-2.5,-1.6,-39.7,2019-10-25 16:08:53.3180+0000,-0.11049795150756836,0.0,0.0,-3.0,true,96,-21280,4246,23722,25.350000000000023,14,false,100,100,0,0,0,0,0,3914,3945,3950,3956,3973,3952,0.0,0.0,0.0,Started waypoint mission,
20.74546979231855,-103.51430916590388,17000,32.2,2.9,17,5,-2.5,-1.4000000000000001,-39.6,2019-10-25 16:08:53.4320+0000,-0.11134898662567139,0.0,0.0,-2.9,true,96,-21280,4246,23722,25.350000000000023,14,false,100,100,0,0,0,0,0,3914,3945,3950,3956,3973,3952,0.0,0.0,0.0,Started waypoint mission,
20.74546979246496,-103.51430925264165,17000,32.5,3.1,17,5,-2.4000000000000004,-1.3,-39.6,2019-10-25 16:08:53.5320+0000,-0.09957504272460938,0.0,0.0,-3.1,true,96,-21280,4246,23722,25.350000000000023,14,false,100,100,0,0,0,0,0,3914,3945,3950,3956,3973,3952,0.0,0.0,0.0,Started waypoint mission,
20.745469801980928,-103.51430934268112,17000,32.9,3.1,17,5,-2.1,-1.3,-39.6,2019-10-25 16:08:53.6270+0000,-0.0948939323425293,0.0,0.0,-3.1,true,96,-21280,4246,23722,25.350000000000023,14,false,100,100,0,0,0,0,0,3914,3945,3950,3956,3973,3952,0.0,0.0,0.0,Started waypoint mission,
20.74546981284056,-103.51430941927356,17000,33.2,3.0,17,5,-2.0,-1.3,-39.6,2019-10-25 16:08:53.7390+0000,-0.11177098751068115,0.0,0.0,-3.0,true,96,-21280,4246,23722,25.350000000000023,14,false,100,100,0,0,0,0,0,3929,3975,3935,3953,3961,3952,0.0,0.0,0.0,Started waypoint mission,
20.745469821928097,-103.51430949528216,17000,33.5,2.9,17,5,-2.0,-1.2000000000000002,-39.6,2019-10-25 16:08:53.7420+0000,-0.0013669729232788086,0.0,0.0,-2.9,true,96,-21280,4246,23722,25.350000000000023,14,false,100,100,0,0,0,0,0,3929,3975,3935,3953,3961,3952,0.0,0.0,0.0,Started waypoint mission,
20.745469813513985,-103.5143095805706,18000,33.800000000000004,3.1,17,5,-1.9000000000000001,-1.1,-39.6,2019-10-25 16:08:53.9320+0000,-0.18953990936279297,0.0,0.0,-3.1,true,96,-21280,4246,23722,25.350000000000023,14,false,100,100,0,0,0,0,0,3929,3975,3935,3953,3961,3952,0.0,0.0,0.0,Started waypoint mission,
20.745469801069177,-103.51430966006514,18000,34.1,2.9,17,5,-1.9000000000000001,-1.1,-39.6,2019-10-25 16:08:53.9330+0000,-0.0008569955825805664,0.0,0.0,-2.9,true,96,-21280,4246,23722,25.350000000000023,14,false,100,100,0,0,0,0,0,3929,3975,3935,3953,3961,3952,0.0,0.0,0.0,Started waypoint mission,
20.74546977687274,-103.51430971570738,18000,34.4,2.9,17,5,-1.8,-1.1,-39.6,2019-10-25 16:08:54.0450+0000,-0.11117696762084961,0.0,0.0,-2.9,true,96,-21280,4246,23722,25.350000000000023,14,false,100,100,0,0,0,0,0,3929,3975,3935,3953,3961,3952,0.0,0.0,0.0,Started waypoint mission,
20.74546976353713,-103.51430977697642,18000,34.7,2.9,17,5,-1.8,-1.0,-39.6,2019-10-25 16:08:54.1670+0000,-0.12118291854858398,0.0,0.0,-2.9,true,96,-21280,4246,23687,25.450000000000045,14,false,100,100,0,0,0,0,0,0,0,0,0,0,0,0.0,0.0,0.0,Started waypoint mission,
20.745469794715927,-103.51430987768555,18000,35.0,2.9,17,5,-1.7000000000000002,-1.1,-39.7,2019-10-25 16:08:54.2600+0000,-0.0924079418182373,0.0,0.0,-2.9,true,96,-21280,4246,23687,25.450000000000045,14,false,100,100,0,0,0,0,0,3929,3975,3935,3953,3961,3952,0.0,0.0,0.0,Started waypoint mission,
20.745469804834855,-103.51430994593629,18000,35.6,2.8,17,5,-1.6,-1.7000000000000002,-39.900000000000006,2019-10-25 16:08:54.4730+0000,-0.21235406398773193,0.0,0.0,-2.8,true,96,-21280,4246,23687,25.450000000000045,14,false,100,100,0,0,0,0,0,3929,3975,3935,3953,3961,3952,0.0,0.0,0.0,Started waypoint mission,
20.745469795176454,-103.51430994462721,18000,35.9,3.0,17,5,-1.6,-1.9000000000000001,-40.1,2019-10-25 16:08:54.5650+0000,-0.09181106090545654,0.0,0.0,-3.0,true,96,-21280,4246,23687,25.450000000000045,14,false,100,100,0,0,0,0,0,3929,3975,3935,3953,3961,3952,0.0,0.0,0.0,Started waypoint mission,
20.745469809594663,-103.51430997953909,18000,36.2,2.9,17,5,-1.8,-2.0,-40.1,2019-10-25 16:08:54.6790+0000,-0.11301100254058838,0.0,0.0,-2.9,true,95,-20798,4246,23687,25.450000000000045,14,false,100,100,0,0,0,0,0,3929,3960,3949,3962,3940,3949,0.0,0.0,0.0,Started waypoint mission,
20.745469806855297,-103.51431000557511,18000,36.5,2.9,17,5,-1.9000000000000001,-1.9000000000000001,-40.2,2019-10-25 16:08:54.7920+0000,-0.11254405975341797,0.0,0.0,-2.9,true,95,-20798,4246,23687,25.450000000000045,14,false,100,100,0,0,0,0,0,3929,3960,3949,3962,3940,3949,0.0,0.0,0.0,Started waypoint mission,
20.74546976445053,-103.51430999371436,19000,36.800000000000004,2.7,17,5,-2.0,-2.1,-40.300000000000004,2019-10-25 16:08:54.8840+0000,-0.09169399738311768,0.0,0.0,-2.7,true,95,-20798,4246,23687,25.450000000000045,14,false,100,100,0,0,0,0,0,3929,3960,3949,3962,3940,3949,0.0,0.0,0.0,Started waypoint mission,
20.7454697225373,-103.51430998043408,19000,37.0,2.6,17,5,-2.2,-2.1,-40.400000000000006,2019-10-25 16:08:54.9740+0000,-0.08890104293823242,0.0,0.0,-2.6,true,95,-20798,4246,23687,25.450000000000045,14,false,100,100,0,0,0,0,0,3929,3960,3949,3962,3940,3949,0.0,0.0,0.0,Started waypoint mission,
20.745469689587264,-103.51430998111243,19000,37.300000000000004,2.9,17,5,-2.4000000000000004,-1.9000000000000001,-40.400000000000006,2019-10-25 16:08:55.0820+0000,-0.10709702968597412,0.0,0.0,-2.9,true,95,-20798,4246,23687,25.450000000000045,14,false,100,98,0,0,0,0,0,3929,3960,3949,3962,3940,3949,0.0,0.0,0.0,Started waypoint mission,
20.745469651473766,-103.51430999853721,19000,37.6,2.9,17,5,-2.4000000000000004,-1.7000000000000002,-40.300000000000004,2019-10-25 16:08:55.2060+0000,-0.12376201152801514,0.0,0.0,-2.9,true,95,-20798,4246,23687,25.450000000000045,14,false,100,98,0,0,0,0,0,3929,3960,3949,3962,3940,3949,0.0,0.0,0.0,Started waypoint mission,
20.7454696133394,-103.51431004737583,19000,37.9,2.8,17,5,-2.4000000000000004,-1.4000000000000001,-40.1,2019-10-25 16:08:55.2830+0000,-0.07530093193054199,0.0,0.0,-2.8,true,95,-20798,4246,23687,25.450000000000045,14,false,100,98,0,0,0,0,0,3929,3960,3949,3962,3940,3949,0.0,0.0,0.0,Started waypoint mission,
20.745469580002084,-103.51431009565917,19000,38.2,2.9,17,5,-2.4000000000000004,-1.3,-40.0,2019-10-25 16:08:55.3920+0000,-0.10929405689239502,0.0,0.0,-2.9,true,95,-20798,4246,23687,25.450000000000045,14,false,100,98,0,0,0,0,0,3929,3960,3949,3962,3940,3949,0.0,0.0,0.0,Started waypoint mission,
20.74546955271216,-103.5143101505681,19000,38.800000000000004,3.1,17,5,-2.0,-1.4000000000000001,-39.6,2019-10-25 16:08:55.6320+0000,-0.23913300037384033,0.0,0.0,-3.1,true,95,-20798,4246,23687,25.450000000000045,14,false,100,98,0,0,0,0,0,3929,3960,3949,3962,3940,3949,0.0,0.0,0.0,Started waypoint mission,
20.745469548891776,-103.51431015300257,19000,39.1,3.1,17,5,-1.9000000000000001,-1.5,-39.5,2019-10-25 16:08:55.7160+0000,-0.08336293697357178,0.0,0.0,-3.1,true,95,-20242,4246,23729,25.450000000000045,14,false,100,98,0,0,0,0,0,3919,3957,3951,3963,3951,3960,0.0,0.0,0.0,Started waypoint mission,
20.745469553143323,-103.51431015473416,19000,39.400000000000006,2.9,17,5,-2.0,-1.6,-39.300000000000004,2019-10-25 16:08:55.8130+0000,-0.09621608257293701,0.0,0.0,-2.9,true,95,-20242,4246,23729,25.450000000000045,14,false,100,98,0,0,0,0,0,3919,3957,3951,3963,3951,3960,0.0,0.0,0.0,Started waypoint mission,
20.745469587886575,-103.51431016850812,20000,39.7,2.9,17,5,-2.0,-1.6,-39.400000000000006,2019-10-25 16:08:55.9230+0000,-0.10946106910705566,0.0,0.0,-2.9,true,95,-20242,4246,23729,25.450000000000045,14,false,100,98,0,0,0,0,0,3919,3957,3951,3963,3951,3960,0.0,0.0,0.0,Started waypoint mission,
20.745469617549993,-103.51431016843775,20000,40.0,3.0,17,5,-2.0,-1.8,-39.5,2019-10-25 16:08:55.9240+0000,-0.001134037971496582,0.0,0.0,-3.0,true,95,-20242,4246,23729,25.450000000000045,14,false,100,98,0,0,0,0,0,3919,3957,3951,3963,3951,3960,0.0,0.0,0.0,Started waypoint mission,
20.745469610717635,-103.51431014598388,20000,40.400000000000006,3.0,17,5,-2.0,-2.0,-39.5,2019-10-25 16:08:56.0240+0000,-0.09874796867370605,0.0,0.0,-3.0,true,95,-20242,4246,23729,25.450000000000045,14,false,100,98,0,0,0,0,0,3919,3957,3951,3963,3951,3960,0.0,0.0,0.0,Started waypoint mission,
20.745469602136744,-103.51431012736293,20000,40.7,3.0,17,5,-2.1,-1.9000000000000001,-39.6,2019-10-25 16:08:56.1790+0000,-0.15451598167419434,0.0,0.0,-3.0,true,95,-20242,4246,23729,25.450000000000045,14,false,100,98,0,0,0,0,0,0,0,0,0,0,0,0.0,0.0,0.0,Started waypoint mission,
20.745469614562776,-103.51431012008709,20000,41.0,2.9,17,5,-2.2,-1.9000000000000001,-39.7,2019-10-25 16:08:56.2480+0000,-0.0681600570678711,0.0,0.0,-2.9,true,95,-20242,4246,23729,25.450000000000045,14,false,100,98,0,0,0,0,0,3919,3957,3951,3963,3951,3960,0.0,0.0,0.0,Started waypoint mission,
20.7454696250568,-103.51431010890056,20000,41.300000000000004,2.9,17,5,-2.2,-2.0,-39.7,2019-10-25 16:08:56.3330+0000,-0.08468997478485107,0.0,0.0,-2.9,true,95,-20242,4246,23729,25.450000000000045,14,false,100,98,0,0,0,0,0,3919,3957,3951,3963,3951,3960,0.0,0.0,0.0,Started waypoint mission,
20.74546961259822,-103.51431007976672,20000,41.6,2.9,17,5,-2.2,-1.9000000000000001,-39.7,2019-10-25 16:08:56.4440+0000,-0.10970401763916016,0.0,0.0,-2.9,true,95,-20242,4246,23729,25.450000000000045,14,false,100,98,0,0,0,0,0,3919,3957,3951,3963,3951,3960,0.0,0.0,0.0,Started waypoint mission,
20.74546960293737,-103.51431005191851,20000,41.900000000000006,3.0,17,5,-2.2,-1.9000000000000001,-39.7,2019-10-25 16:08:56.5720+0000,-0.1280609369277954,0.0,0.0,-3.0,true,95,-20242,4246,23729,25.450000000000045,14,false,100,98,0,0,0,0,0,3919,3957,3951,3963,3951,3960,0.0,0.0,0.0,Started waypoint mission,
20.74546960744231,-103.51431003377155,20000,42.2,2.9,17,5,-2.2,-1.9000000000000001,-39.7,2019-10-25 16:08:56.6850+0000,-0.11172997951507568,0.0,0.0,-2.9,true,95,-21871,4246,23629,25.55000000000001,14,false,100,98,0,0,0,0,0,3912,3937,3934,3950,3942,3942,0.0,0.0,0.0,Started waypoint mission,
