latitude,longitude,flight_time,altitude,speed,satellites,gps_level,pitch,roll,yaw,timestamp,last_updated,velocityX,velocityY,velocityZ,isflying,remainBatteryPercent,currentCurrent,batteryChargeRemaining,batteryVoltage,batteryTemperature,flightMode,istakingphoto,downlinkSignal,uplinkSignal,radioChannel,rc_elevator,rc_aileron,rc_throttle,rc_rudder,Battery_Cell1,Battery_Cell2,Battery_Cell3,Battery_Cell4,Battery_Cell5,Battery_Cell6,gimbalPitch,gimbalYaw,gimbalRoll,app_Tip,app_Warning,appVersion,AircraftComercialName,AircraftSerialNumber,RemoteSerialNumber,BatterySerialNumber,BatteryFullCapacity,dischargeCount,batteryLife,AircraftModel,sonar_altitude,isTakingVideo
20.745501504618822,-103.514306896211,0,0.0,0.0,15,5,-2.7,-4.1000000000000005,-55.1,2019-10-25 16:44:43.4440+0000,-0.08101403713226318,0.0,0.0,0.0,false,98,-889,3864,25676,26.950000000000045,6,false,100,100,0,0,0,0,0,4281,4262,4280,4285,4292,4278,0.0,0.0,0.0,Started waypoint mission,,Flight1_3.1.0_(3),DJI,041DE70691,03LJ7004AS,9971171300860,3943,85,79,Explore1, ,false
20.745501498886306,-103.51430690747864,0,0.0,0.0,15,5,-2.7,-4.1000000000000005,-55.1,2019-10-25 16:44:43.6620+0000,-0.21734201908111572,0.0,0.0,0.0,false,98,-889,3864,25676,26.950000000000045,6,false,100,100,0,0,0,0,0,4281,4262,4280,4285,4292,4278,0.0,0.0,0.0,Started waypoint mission,
20.745501492635622,-103.51430692310721,0,0.0,0.0,15,5,-2.7,-4.1000000000000005,-55.1,2019-10-25 16:44:43.8810+0000,-0.21767807006835938,0.0,0.0,0.0,false,98,-889,3864,25676,26.950000000000045,6,false,100,100,0,0,0,0,0,4281,4262,4280,4285,4292,4278,0.0,0.0,0.0,Started waypoint mission,
20.745501490532433,-103.51430692763441,0,0.0,0.0,15,5,-2.7,-4.1000000000000005,-55.1,2019-10-25 16:44:44.0000+0000,-0.11828398704528809,0.0,0.0,0.0,false,98,-889,3864,25676,26.950000000000045,6,false,100,100,0,0,0,0,0,4281,4262,4280,4285,4292,4278,0.0,0.0,0.0,Started waypoint mission,
20.74550148869904,-103.51430693260954,0,0.0,0.0,15,5,-2.7,-4.1000000000000005,-55.1,2019-10-25 16:44:44.0030+0000,-0.0015240907669067383,0.0,0.0,0.0,false,98,-878,3864,25676,26.950000000000045,6,false,100,99,0,0,0,0,0,0,0,0,0,0,0,0.0,0.0,0.0,Started waypoint mission,
20.74550148713008,-103.51430693805831,0,0.0,0.0,15,5,-2.7,-4.1000000000000005,-55.1,2019-10-25 16:44:44.1290+0000,-0.12485396862030029,0.0,0.0,0.0,false,98,-878,3864,25676,26.950000000000045,6,false,100,99,0,0,0,0,0,0,0,0,0,0,0,0.0,0.0,0.0,Started waypoint mission,
20.74550148522495,-103.51430694394702,0,0.0,0.0,15,5,-2.7,-4.1000000000000005,-55.1,2019-10-25 16:44:44.2420+0000,-0.10412704944610596,0.0,0.0,0.0,false,98,-878,3864,25676,26.950000000000045,6,false,100,99,0,0,0,0,0,0,0,0,0,0,0,0.0,0.0,0.0,Started waypoint mission,
20.74550148293387,-103.51430695044932,0,0.0,0.0,15,5,-2.7,-4.1000000000000005,-55.1,2019-10-25 16:44:44.3870+0000,-0.14399504661560059,0.0,0.0,0.0,false,98,-878,3864,25676,26.950000000000045,6,false,100,99,0,0,0,0,0,4279,4262,4280,4285,4292,4277,0.0,0.0,0.0,Started waypoint mission,
20.745501478557802,-103.51430696190273,0,0.0,0.0,15,5,-2.7,-4.1000000000000005,-55.1,2019-10-25 16:44:44.4910+0000,-0.10341000556945801,0.0,0.0,0.0,false,98,-878,3864,25676,26.950000000000045,6,false,100,98,0,0,0,0,0,4279,4262,4280,4285,4292,4277,0.0,0.0,0.0,Started waypoint mission,
20.74550147688874,-103.51430696786498,0,0.0,0.0,15,5,-2.7,-4.1000000000000005,-55.1,2019-10-25 16:44:44.5920+0000,-0.09905695915222168,0.0,0.0,0.0,false,98,-878,3864,25676,26.950000000000045,6,false,100,98,0,0,0,0,0,4279,4262,4280,4285,4292,4277,0.0,0.0,0.0,Started waypoint mission,
20.745501478182554,-103.51430697486815,0,0.0,0.0,15,5,-2.7,-3.9000000000000004,-55.2,2019-10-25 16:44:44.7560+0000,-0.16379904747009277,0.0,0.0,0.0,false,98,-878,3864,25676,26.950000000000045,6,false,100,98,0,0,0,0,0,4279,4262,4280,4285,4292,4277,0.0,0.0,0.0,Started waypoint mission,
20.745501482725633,-103.51430698393803,0,0.0,0.0,15,5,-2.8000000000000003,-3.9000000000000004,-55.2,2019-10-25 16:44:44.8960+0000,-0.13874495029449463,0.0,0.0,0.0,false,98,-878,3864,25676,26.950000000000045,6,false,100,98,0,0,0,0,0,4279,4262,4280,4285,4292,4277,0.0,0.0,0.0,Started waypoint mission,
20.74550148723659,-103.51430699125976,0,0.0,0.0,15,5,-2.7,-3.9000000000000004,-55.1,2019-10-25 16:44:44.9910+0000,-0.09459507465362549,0.0,0.0,0.0,false,98,-878,3864,25676,26.950000000000045,6,false,100,98,0,0,0,0,0,4279,4262,4280,4285,4292,4277,0.0,0.0,0.0,Started waypoint mission,
20.745501491384616,-103.51430700111155,0,0.0,0.0,15,5,-2.7,-4.0,-55.2,2019-10-25 16:44:45.0570+0000,-0.0650860071182251,0.0,0.0,0.0,false,98,-881,3864,25676,26.950000000000045,6,false,100,98,0,0,0,0,0,0,0,0,0,0,0,0.0,0.0,0.0,Started waypoint mission,
20.745501497152446,-103.51430701380337,0,0.0,0.0,15,5,-2.8000000000000003,-3.9000000000000004,-55.2,2019-10-25 16:44:45.2430+0000,-0.18505394458770752,0.0,0.0,0.0,false,98,-881,3864,25676,26.950000000000045,6,false,100,98,0,0,0,0,0,4281,4262,4280,4284,4292,4277,0.0,0.0,0.0,Started waypoint mission,
20.745501505934545,-103.51430702228194,0,0.0,0.0,15,5,-2.8000000000000003,-3.9000000000000004,-55.2,2019-10-25 16:44:45.2940+0000,-0.0499110221862793,0.0,0.0,0.0,false,98,-881,3864,25676,26.950000000000045,6,false,100,98,0,0,0,0,0,4281,4262,4280,4284,4292,4277,0.0,0.0,0.0,Started waypoint mission,
20.74550151392869,-103.51430702610995,0,0.0,0.0,15,5,-2.8000000000000003,-3.9000000000000004,-55.2,2019-10-25 16:44:45.4470+0000,-0.15161395072937012,0.0,0.0,0.0,false,98,-881,3864,25676,26.950000000000045,6,false,100,98,0,0,0,0,0,4281,4262,4280,4284,4292,4277,0.0,0.0,0.0,Started waypoint mission,
20.7455015171667,-103.51430702942251,0,0.0,0.0,15,5,-2.7,-4.0,-55.2,2019-10-25 16:44:45.5520+0000,-0.10441803932189941,0.0,0.0,0.0,false,98,-881,3864,25676,26.950000000000045,11,false,100,98,0,0,0,0,0,4281,4262,4280,4284,4292,4277,0.0,0.0,0.0,Started waypoint mission,
20.745501513822152,-103.51430702998836,0,0.0,0.0,15,5,-2.7,-4.0,-55.2,2019-10-25 16:44:45.6210+0000,-0.06809103488922119,0.0,0.0,0.0,false,98,-2889,3864,25640,26.950000000000045,11,false,100,100,0,0,0,0,0,4191,4220,4272,4278,4285,4269,0.0,0.0,0.0,Started waypoint mission,
20.745501506571525,-103.51430702527911,0,0.0,0.0,15,5,-2.7,-4.0,-55.2,2019-10-25 16:44:45.6720+0000,-0.05009293556213379,0.0,0.0,0.0,false,98,-2889,3864,25640,26.950000000000045,11,false,100,100,0,0,0,0,0,4191,4220,4272,4278,4285,4269,0.0,0.0,0.0,Started waypoint mission,
20.74550149849226,-103.51430701844738,0,0.0,0.0,15,5,-2.7,-4.0,-55.2,2019-10-25 16:44:45.7290+0000,-0.056236982345581055,0.0,0.0,0.0,false,98,-2889,3864,25640,26.950000000000045,11,false,100,100,0,0,0,0,0,4191,4220,4272,4278,4285,4269,0.0,0.0,0.0,Started waypoint mission,
20.74550152062472,-103.51430704754023,0,0.0,0.0,15,5,-2.7,-3.9000000000000004,-55.2,2019-10-25 16:44:45.7960+0000,-0.06510400772094727,0.0,0.0,0.0,false,98,-2889,3864,25640,26.950000000000045,11,false,100,100,0,0,0,0,0,4191,4220,4272,4278,4285,4269,0.0,0.0,0.0,Started waypoint mission,
20.745501521210876,-103.51430705820141,0,0.0,0.0,15,5,-2.7,-3.8000000000000003,-55.2,2019-10-25 16:44:45.8780+0000,-0.0811389684677124,0.0,0.0,0.0,false,98,-2889,3864,25640,26.950000000000045,11,false,100,100,0,0,0,0,0,4191,4220,4272,4278,4285,4269,0.0,0.0,0.0,Started waypoint mission,
20.745501514682353,-103.51430707933602,0,0.0,0.0,15,5,-2.7,-3.6,-55.2,2019-10-25 16:44:46.0800+0000,-0.20080792903900146,0.0,0.0,0.0,false,98,-2889,3864,25640,26.950000000000045,11,false,100,99,0,0,0,0,0,4191,4220,4272,4278,4285,4269,0.0,0.0,0.0,Started waypoint mission,
20.74550151438739,-103.51430709202727,0,0.0,0.0,15,5,-2.7,-3.5,-55.300000000000004,2019-10-25 16:44:46.0870+0000,-0.006433010101318359,0.0,0.0,0.0,false,98,-2889,3864,25640,26.950000000000045,11,false,100,99,0,0,0,0,0,4191,4220,4272,4278,4285,4269,0.0,0.0,0.0,Started waypoint mission,
20.745501518458855,-103.51430710499957,0,-0.1,0.0,15,5,-2.7,-3.5,-55.300000000000004,2019-10-25 16:44:46.4350+0000,-0.3465700149536133,0.0,0.0,0.0,false,98,-2889,3864,25640,26.950000000000045,11,false,100,99,0,0,0,0,0,4191,4220,4272,4278,4285,4269,0.0,0.0,0.0,Started waypoint mission,
20.745501519091558,-103.51430711667794,0,-0.1,0.0,15,5,-2.7,-3.5,-55.300000000000004,2019-10-25 16:44:46.5240+0000,-0.08798396587371826,0.0,0.0,0.0,false,98,-2889,3864,25640,26.950000000000045,11,false,100,99,0,0,0,0,0,4191,4220,4272,4278,4285,4269,0.0,0.0,0.0,Started waypoint mission,
20.745501515889373,-103.51430712810846,0,-0.1,0.1,15,5,-2.6,-3.7,-55.400000000000006,2019-10-25 16:44:46.6000+0000,-0.07576000690460205,0.0,0.0,0.1,false,98,-3669,3864,25282,26.950000000000045,11,false,100,98,0,0,0,0,0,4191,4220,4272,4278,4285,4269,0.0,0.0,0.0,Started waypoint mission,
20.7455015074814,-103.51430714796089,0,-0.1,0.1,15,5,-2.7,-3.8000000000000003,-55.5,2019-10-25 16:44:46.6030+0000,-0.001685023307800293,0.0,0.0,0.1,false,98,-3669,3864,25282,26.950000000000045,11,false,100,98,0,0,0,0,0,4191,4220,4272,4278,4285,4269,0.0,0.0,0.0,Started waypoint mission,
20.745501497219692,-103.51430717708695,0,-0.2,0.1,15,5,-2.7,-3.4000000000000004,-55.5,2019-10-25 16:44:46.7350+0000,-0.1313420534133911,0.0,0.0,0.1,false,98,-3669,3864,25282,26.950000000000045,11,false,100,98,0,0,0,0,0,4191,4220,4272,4278,4285,4269,0.0,0.0,0.0,Started waypoint mission,
20.74550150169849,-103.51430720727143,0,-0.2,0.2,15,5,-2.7,-1.6,-55.6,2019-10-25 16:44:46.8110+0000,-0.07412099838256836,0.0,0.0,0.2,false,98,-3669,3864,25282,26.950000000000045,11,false,100,98,0,0,0,0,0,4191,4220,4272,4278,4285,4269,0.0,0.0,0.0,Started waypoint mission,
20.745501538954713,-103.51430722975665,0,-0.2,0.0,15,5,-2.5,0.6000000000000001,-56.300000000000004,2019-10-25 16:44:47.0600+0000,-0.2483530044555664,0.0,0.0,0.0,true,98,-3669,3864,25282,26.950000000000045,11,false,100,98,0,0,0,0,0,4191,4220,4272,4278,4285,4269,0.0,0.0,0.0,Started waypoint mission,
20.74550211551379,-103.51430706749838,3000,-0.2,0.44721362,15,5,-0.7000000000000001,-1.4000000000000001,-58.900000000000006,2019-10-25 16:44:47.2690+0000,-0.20744705200195312,0.2,0.0,-0.4,true,98,-3669,3864,25282,26.950000000000045,11,false,100,98,0,0,0,0,0,4191,4220,4272,4278,4285,4269,0.0,0.0,0.0,Started waypoint mission,
20.74550241235894,-103.51430693101264,3000,-0.1,0.591608,15,5,-0.4,-2.3000000000000003,-59.1,2019-10-25 16:44:47.4250+0000,-0.15403401851654053,0.3,0.1,-0.5,true,98,-3669,3864,25282,26.950000000000045,11,false,100,98,0,0,0,0,0,4191,4220,4272,4278,4285,4269,0.0,0.0,0.0,Started waypoint mission,
20.745502720677674,-103.5143067459815,4000,-0.1,0.509902,15,5,-0.2,-3.3000000000000003,-59.0,2019-10-25 16:44:47.4940+0000,-0.06871199607849121,0.3,0.1,-0.4,true,98,-3669,3864,25282,26.950000000000045,11,false,100,98,0,0,0,0,0,4191,4220,4272,4278,4285,4269,0.0,0.0,0.0,Started waypoint mission,
20.745503019771604,-103.51430650090059,4000,-0.1,0.61644137,15,5,-0.4,-4.4,-58.7,2019-10-25 16:44:47.5900+0000,-0.09420192241668701,0.3,0.2,-0.5,true,98,-3669,3864,25282,26.950000000000045,11,false,100,100,0,0,0,0,0,4177,4147,4189,4203,4199,4251,0.0,0.0,0.0,Started waypoint mission,
20.745503424998706,-103.51430592542361,4000,0.0,0.48989797,15,5,-1.0,-4.9,-57.900000000000006,2019-10-25 16:44:47.7210+0000,-0.13090002536773682,0.2,0.2,-0.4,true,98,-3669,3864,25282,26.950000000000045,11,false,100,100,0,0,0,0,0,4177,4147,4189,4203,4199,4251,0.0,0.0,0.0,Started waypoint mission,
20.745503563496037,-103.51430561244348,4000,0.0,0.41231057,14,5,-1.5,-4.7,-57.5,2019-10-25 16:44:47.7910+0000,-0.06883502006530762,0.2,0.2,-0.3,true,98,-3669,3864,25282,26.950000000000045,11,false,100,100,0,0,0,0,0,4177,4147,4189,4203,4199,4251,0.0,0.0,0.0,Started waypoint mission,
20.745503688603943,-103.5143053014413,4000,0.0,0.4582576,14,5,-1.8,-4.3,-57.300000000000004,2019-10-25 16:44:47.9430+0000,-0.15093994140625,0.1,0.2,-0.4,true,98,-3669,3864,25282,26.950000000000045,11,false,100,100,0,0,0,0,0,4177,4147,4189,4203,4199,4251,0.0,0.0,0.0,Started waypoint mission,
20.745503842589073,-103.51430501650648,4000,0.0,0.4582576,14,5,-1.8,-3.9000000000000004,-57.2,2019-10-25 16:44:48.0370+0000,-0.09307205677032471,0.1,0.2,-0.4,true,98,-13205,3864,24162,26.950000000000045,11,false,100,96,0,0,0,0,0,3962,3919,3981,4007,4002,3961,0.0,0.0,0.0,Started waypoint mission,
20.745504069448444,-103.51430477766432,4000,0.1,0.5477226,14,5,-1.5,-3.7,-57.0,2019-10-25 16:44:48.1990+0000,-0.16048896312713623,0.1,0.2,-0.5,true,98,-13205,3864,24162,26.950000000000045,11,false,100,96,0,0,0,0,0,3962,3919,3981,4007,4002,3961,0.0,0.0,0.0,Started waypoint mission,
20.745504384781498,-103.51430430438113,4000,0.2,0.5477226,13,4,-1.5,-3.7,-56.6,2019-10-25 16:44:48.3080+0000,-0.10753393173217773,0.1,0.2,-0.5,true,98,-13205,3864,24162,26.950000000000045,11,false,100,96,0,0,0,0,0,3962,3919,3981,4007,4002,3961,0.0,0.0,0.0,Started waypoint mission,
20.74550450731141,-103.51430404410456,5000,0.30000000000000004,0.5477226,13,4,-1.6,-3.8000000000000003,-56.400000000000006,2019-10-25 16:44:48.4720+0000,-0.16319811344146729,0.1,0.2,-0.5,true,98,-13205,3864,24162,26.950000000000045,11,false,100,96,0,0,0,0,0,3962,3919,3981,4007,4002,3961,0.0,0.0,0.0,Started waypoint mission,
20.745504635441332,-103.51430375493267,5000,0.30000000000000004,0.4582576,13,4,-1.9000000000000001,-3.8000000000000003,-56.300000000000004,2019-10-25 16:44:48.5600+0000,-0.08673596382141113,0.1,0.2,-0.4,true,98,-13205,3864,24162,26.950000000000045,11,false,100,96,0,0,0,0,0,3962,3919,3981,4007,4002,3961,0.0,0.0,0.0,Started waypoint mission,
20.745504780103683,-103.51430346142473,5000,0.4,0.4582576,13,4,-2.1,-3.8000000000000003,-56.300000000000004,2019-10-25 16:44:48.6210+0000,-0.05973100662231445,0.1,0.2,-0.4,true,98,-13205,3864,24162,26.950000000000045,11,false,100,96,0,0,0,0,0,3962,3919,3981,4007,4002,3961,0.0,0.0,0.0,Started waypoint mission,
20.745504950290158,-103.51430317202191,5000,0.4,0.5477226,13,4,-1.8,-4.0,-56.300000000000004,2019-10-25 16:44:48.7580+0000,-0.1357870101928711,0.1,0.2,-0.5,true,98,-13205,3864,24162,26.950000000000045,11,false,100,96,0,0,0,0,0,3962,3919,3981,4007,4002,3961,0.0,0.0,0.0,Started waypoint mission,
20.745505110909498,-103.51430288804464,5000,0.5,0.4582576,12,4,-1.5,-4.2,-56.2,2019-10-25 16:44:48.9600+0000,-0.20005297660827637,0.1,0.2,-0.4,true,98,-13205,3864,24162,26.950000000000045,11,false,100,96,0,0,0,0,0,3962,3919,3981,4007,4002,3961,0.0,0.0,0.0,Started waypoint mission,
20.745505249286104,-103.51430260313045,5000,0.5,0.4582576,12,4,-1.7000000000000002,-4.4,-56.1,2019-10-25 16:44:49.1330+0000,-0.17260193824768066,0.1,0.2,-0.4,true,98,-13205,3864,24162,26.950000000000045,11,false,100,96,0,0,0,0,0,3962,3919,3981,4007,4002,3961,0.0,0.0,0.0,Started waypoint mission,
20.74550549821957,-103.5143020394223,5000,0.6000000000000001,0.4582576,13,4,-2.0,-4.5,-56.0,2019-10-25 16:44:49.2930+0000,-0.1561720371246338,0.1,0.2,-0.4,true,98,-16937,3864,23707,26.950000000000045,11,false,100,97,0,0,0,0,0,3924,3905,3933,3951,3966,3941,0.0,0.0,0.0,Started waypoint mission,
20.745505621663728,-103.5143017762012,5000,0.6000000000000001,0.37416577,14,4,-2.1,-4.5,-55.900000000000006,2019-10-25 16:44:49.2970+0000,-0.0021669864654541016,0.1,0.2,-0.3,true,98,-16937,3864,23707,26.950000000000045,11,false,100,97,0,0,0,0,0,3924,3905,3933,3951,3966,3941,0.0,0.0,0.0,Started waypoint mission,
20.7455057523363,-103.5143015388379,6000,0.7000000000000001,0.4582576,14,4,-2.1,-4.5,-55.900000000000006,2019-10-25 16:44:49.5060+0000,-0.20923089981079102,0.1,0.2,-0.4,true,98,-16937,3864,23707,26.950000000000045,11,false,100,97,0,0,0,0,0,3924,3905,3933,3951,3966,3941,0.0,0.0,0.0,Started waypoint mission,
20.74550588721364,-103.51430128506826,6000,0.7000000000000001,0.37416577,14,4,-2.0,-4.4,-55.800000000000004,2019-10-25 16:44:49.5140+0000,-0.006071925163269043,0.1,0.2,-0.3,true,98,-16937,3864,23707,26.950000000000045,11,false,100,97,0,0,0,0,0,3924,3905,3933,3951,3966,3941,0.0,0.0,0.0,Started waypoint mission,
20.7455060394491,-103.5143009939297,6000,0.7000000000000001,0.37416577,14,4,-1.9000000000000001,-4.4,-55.800000000000004,2019-10-25 16:44:49.5880+0000,-0.07339394092559814,0.1,0.2,-0.3,true,98,-16937,3864,23707,26.950000000000045,11,false,100,100,0,0,0,0,0,0,0,0,0,0,0,0.0,0.0,0.0,Started waypoint mission,
20.745506190404132,-103.51430073867239,6000,0.7000000000000001,0.37416577,14,4,-1.8,-4.5,-55.800000000000004,2019-10-25 16:44:49.6630+0000,-0.07430005073547363,0.1,0.2,-0.3,true,98,-16937,3864,23707,26.950000000000045,11,false,100,100,0,0,0,0,0,3924,3905,3933,3951,3966,3941,0.0,0.0,0.0,Started waypoint mission,
20.74550633865376,-103.51430053819345,6000,0.7000000000000001,0.37416577,14,4,-1.8,-4.5,-55.800000000000004,2019-10-25 16:44:49.7470+0000,-0.08269703388214111,0.1,0.2,-0.3,true,98,-16937,3864,23707,26.950000000000045,11,false,100,100,0,0,0,0,0,3924,3905,3933,3951,3966,3941,0.0,0.0,0.0,Started waypoint mission,
20.745506485535568,-103.51430030693452,6000,0.7000000000000001,0.37416577,14,4,-1.7000000000000002,-4.5,-55.7,2019-10-25 16:44:49.8970+0000,-0.1497570276260376,0.1,0.2,-0.3,true,98,-16937,3864,23707,26.950000000000045,11,false,100,100,0,0,0,0,0,3924,3905,3933,3951,3966,3941,0.0,0.0,0.0,Started waypoint mission,
20.74550663562877,-103.51430000625815,6000,0.7000000000000001,0.4582576,14,4,-1.6,-4.4,-55.800000000000004,2019-10-25 16:44:49.9940+0000,-0.09484505653381348,0.1,0.2,-0.4,true,98,-16937,3864,23707,26.950000000000045,11,false,100,100,0,0,0,0,0,3924,3905,3933,3951,3966,3941,0.0,0.0,0.0,Started waypoint mission,
20.745506766407864,-103.5142997457325,6000,0.8,0.5477226,13,4,-1.7000000000000002,-4.4,-55.800000000000004,2019-10-25 16:44:50.0270+0000,-0.03171396255493164,0.1,0.2,-0.5,true,98,-17325,3824,23551,26.950000000000045,11,false,100,100,0,0,0,0,0,0,0,0,0,0,0,0.0,0.0,0.0,Started waypoint mission,
20.745506866810498,-103.51429955719111,6000,0.8,0.4582576,13,4,-1.8,-4.3,-55.900000000000006,2019-10-25 16:44:50.1950+0000,-0.16772699356079102,0.1,0.2,-0.4,true,98,-17325,3824,23551,26.950000000000045,11,false,100,100,0,0,0,0,0,3914,3880,3909,3923,3935,3921,0.0,0.0,0.0,Started waypoint mission,
20.74550696867155,-103.51429931180633,6000,0.8,0.4582576,13,4,-1.9000000000000001,-4.2,-56.0,2019-10-25 16:44:50.2470+0000,-0.0512080192565918,0.1,0.2,-0.4,true,98,-17325,3824,23551,26.950000000000045,11,false,100,100,0,0,0,0,0,3914,3880,3909,3923,3935,3921,0.0,0.0,0.0,Started waypoint mission,
20.74550708049691,-103.51429896711319,7000,0.8,0.4582576,13,4,-2.0,-4.1000000000000005,-56.1,2019-10-25 16:44:50.4540+0000,-0.20572400093078613,0.1,0.2,-0.4,true,98,-17325,3824,23551,26.950000000000045,11,false,100,100,0,0,0,0,0,3914,3880,3909,3923,3935,3921,0.0,0.0,0.0,Started waypoint mission,
20.74550729263818,-103.5142983568672,7000,0.9,0.37416577,14,4,-2.1,-4.5,-56.300000000000004,2019-10-25 16:44:50.5990+0000,-0.14472508430480957,0.1,0.2,-0.3,true,98,-17325,3824,23551,26.950000000000045,14,false,100,98,0,0,0,0,0,3914,3880,3909,3923,3935,3921,0.0,0.0,0.0,Started waypoint mission,
20.745507513791193,-103.51429767242624,7000,0.8,0.31622776,12,4,-2.8000000000000003,-4.800000000000001,-56.5,2019-10-25 16:44:50.7490+0000,-0.14907193183898926,0.0,0.1,-0.3,true,98,-17325,3824,23551,26.950000000000045,14,false,100,98,0,0,0,0,0,3914,3880,3909,3923,3935,3921,0.0,0.0,0.0,Started waypoint mission,
20.745507677945945,-103.51429746904476,7000,0.8,0.22360681,12,4,-2.7,-4.5,-56.7,2019-10-25 16:44:50.9600+0000,-0.20973598957061768,0.0,0.1,-0.2,true,98,-17325,3824,23551,26.950000000000045,14,false,100,98,0,0,0,0,0,3914,3880,3909,3923,3935,3921,0.0,0.0,0.0,Started waypoint mission,
20.745507796457918,-103.514297304237,7000,0.8,0.41231057,13,4,-2.5,-4.5,-56.900000000000006,2019-10-25 16:44:51.1930+0000,-0.23235702514648438,0.0,0.1,-0.4,true,97,-18783,3824,23317,26.950000000000045,14,false,100,98,0,0,0,0,0,3898,3851,3891,3895,3908,3891,0.0,0.0,0.0,Started waypoint mission,
20.74550782621859,-103.51429718535675,7000,0.9,0.6,13,4,-2.3000000000000003,-4.3,-57.0,2019-10-25 16:44:51.2880+0000,-0.0944439172744751,0.0,0.0,-0.6,true,97,-18783,3824,23317,26.950000000000045,14,false,100,98,0,0,0,0,0,3898,3851,3891,3895,3908,3891,0.0,0.0,0.0,Started waypoint mission,
20.7455079929535,-103.51429709434747,8000,1.1,1.4,14,4,-1.7000000000000002,-3.6,-57.2,2019-10-25 16:44:51.5210+0000,-0.23115599155426025,0.0,0.0,-1.4,true,97,-18783,3824,23317,26.950000000000045,14,false,100,98,0,0,0,0,0,3898,3851,3891,3895,3908,3891,0.0,0.0,0.0,Started waypoint mission,
20.74550819817979,-103.51429703663958,8000,1.6,2.1,14,4,-1.5,-3.7,-57.300000000000004,2019-10-25 16:44:51.7750+0000,-0.2524670362472534,0.0,0.0,-2.1,true,97,-18783,3824,23317,26.950000000000045,14,false,100,98,0,0,0,0,0,3898,3851,3891,3895,3908,3891,0.0,0.0,0.0,Started waypoint mission,
20.74550824160581,-103.51429697899101,8000,1.9000000000000001,2.3,14,4,-1.5,-3.9000000000000004,-57.300000000000004,2019-10-25 16:44:51.9080+0000,-0.1322699785232544,0.0,0.0,-2.3,true,97,-18783,3824,23317,26.950000000000045,14,false,100,98,0,0,0,0,0,3898,3851,3891,3895,3908,3891,0.0,0.0,0.0,Started waypoint mission,
20.745508264178646,-103.5142969132125,8000,2.1,2.6,14,4,-1.6,-3.9000000000000004,-57.2,2019-10-25 16:44:51.9860+0000,-0.07741200923919678,0.0,0.0,-2.6,true,97,-18783,3824,23317,26.950000000000045,14,false,100,98,0,0,0,0,0,3898,3851,3891,3895,3908,3891,0.0,0.0,0.0,Started waypoint mission,
20.745508282249713,-103.51429680373953,8000,2.4000000000000004,2.8,14,4,-1.7000000000000002,-3.7,-57.2,2019-10-25 16:44:52.1710+0000,-0.18358492851257324,0.0,0.0,-2.8,true,97,-19179,3824,23254,26.950000000000045,14,false,100,100,0,0,0,0,0,3898,3851,3891,3895,3908,3891,0.0,0.0,0.0,Started waypoint mission,
20.74550830776599,-103.51429661670359,8000,2.7,2.9,14,4,-1.9000000000000001,-3.4000000000000004,-57.1,2019-10-25 16:44:52.2700+0000,-0.09782302379608154,0.0,0.0,-2.9,true,97,-19179,3824,23254,26.950000000000045,14,false,100,100,0,0,0,0,0,3898,3851,3891,3895,3908,3891,0.0,0.0,0.0,Started waypoint mission,
20.745508342928755,-103.51429641129154,8000,3.0,3.1,14,4,-2.3000000000000003,-3.6,-56.900000000000006,2019-10-25 16:44:52.4160+0000,-0.1452929973602295,0.0,0.0,-3.1,true,97,-19179,3824,23254,26.950000000000045,14,false,100,100,0,0,0,0,0,3898,3851,3891,3895,3908,3891,0.0,0.0,0.0,Started waypoint mission,
20.74550839940517,-103.5142961854387,8000,3.3000000000000003,3.2,14,4,-2.7,-3.9000000000000004,-56.800000000000004,2019-10-25 16:44:52.4200+0000,-0.0022280216217041016,0.0,0.0,-3.2,true,97,-19179,3824,23254,26.950000000000045,14,false,100,100,0,0,0,0,0,3898,3851,3891,3895,3908,3891,0.0,0.0,0.0,Started waypoint mission,
20.745508349182487,-103.51429563774539,9000,4.0,3.4,14,4,-3.2,-4.7,-56.5,2019-10-25 16:44:52.5960+0000,-0.17522001266479492,0.0,0.0,-3.4,true,97,-19179,3824,23254,26.950000000000045,14,false,100,94,0,0,0,0,0,0,0,0,0,0,0,0.0,0.0,0.0,Started waypoint mission,
20.745508258308067,-103.51429500846243,9000,4.800000000000001,3.6,14,4,-3.9000000000000004,-5.1000000000000005,-56.0,2019-10-25 16:44:52.7070+0000,-0.11007094383239746,0.0,0.0,-3.6,true,97,-19179,3824,23254,26.950000000000045,14,false,100,94,0,0,0,0,0,3833,3777,3824,3842,3837,3802,0.0,0.0,0.0,Started waypoint mission,
20.745508282118077,-103.51429474419349,9000,5.1000000000000005,3.4,14,4,-4.3,-5.4,-55.800000000000004,2019-10-25 16:44:52.9100+0000,-0.20191407203674316,0.0,0.0,-3.4,true,97,-19179,3824,23254,26.950000000000045,14,false,100,94,0,0,0,0,0,3833,3777,3824,3842,3837,3802,0.0,0.0,0.0,Started waypoint mission,
20.745508400965797,-103.51429459519629,9000,5.5,3.4,14,4,-4.3,-5.7,-55.7,2019-10-25 16:44:53.0640+0000,-0.15302801132202148,0.0,0.0,-3.4,true,97,-19179,3824,23254,26.950000000000045,14,false,100,94,0,0,0,0,0,3833,3777,3824,3842,3837,3802,0.0,0.0,0.0,Started waypoint mission,
20.745508499243996,-103.514294467352,9000,5.800000000000001,3.4,14,4,-4.0,-5.800000000000001,-55.7,2019-10-25 16:44:53.1920+0000,-0.12681996822357178,0.0,0.0,-3.4,true,97,-19179,3824,23254,26.950000000000045,14,false,100,94,0,0,0,0,0,0,0,0,0,0,0,0.0,0.0,0.0,Started waypoint mission,
20.745508561556175,-103.5142942810575,9000,6.5,3.3,14,4,-3.5,-5.800000000000001,-55.800000000000004,2019-10-25 16:44:53.4280+0000,-0.2352379560470581,0.0,0.0,-3.3,true,97,-19179,3824,23254,26.950000000000045,14,false,100,94,0,0,0,0,0,3833,3777,3824,3842,3837,3802,0.0,0.0,0.0,Started waypoint mission,
20.74550853934834,-103.51429430002479,10000,6.800000000000001,3.3,14,4,-3.4000000000000004,-5.6000000000000005,-55.900000000000006,2019-10-25 16:44:53.5080+0000,-0.07888102531433105,0.0,0.0,-3.3,true,97,-19179,3824,23254,26.950000000000045,14,false,100,94,0,0,0,0,0,3833,3777,3824,3842,3837,3802,0.0,0.0,0.0,Started waypoint mission,
20.74550856821955,-103.51429450918711,10000,7.5,3.3015149,14,4,-2.9000000000000004,-4.9,-56.2,2019-10-25 16:44:53.5870+0000,-0.07871508598327637,0.0,-0.1,-3.3,true,97,-19179,3824,23254,26.950000000000045,14,false,100,94,0,0,0,0,0,3833,3777,3824,3842,3837,3802,0.0,0.0,0.0,Started waypoint mission,
20.745508612292127,-103.51429470284123,10000,7.9,3.3015149,14,4,-2.4000000000000004,-4.800000000000001,-56.2,2019-10-25 16:44:53.6310+0000,-0.042053937911987305,0.0,-0.1,-3.3,true,97,-19179,3824,23254,26.950000000000045,14,false,100,94,0,0,0,0,0,3833,3777,3824,3842,3837,3802,0.0,0.0,0.0,Started waypoint mission,
20.745508667670485,-103.51429496634842,10000,8.200000000000001,3.3015149,14,4,-2.0,-4.5,-56.2,2019-10-25 16:44:53.6650+0000,-0.032325029373168945,0.0,-0.1,-3.3,true,97,-19179,3824,23254,26.950000000000045,14,false,100,94,0,0,0,0,0,3833,3777,3824,3842,3837,3802,0.0,0.0,0.0,Started waypoint mission,
20.74550871858374,-103.51429524148467,10000,8.6,3.2015622,14,4,-1.6,-4.3,-56.1,2019-10-25 16:44:53.8100+0000,-0.14489102363586426,0.0,-0.1,-3.2,true,97,-19179,3824,23254,26.950000000000045,14,false,100,94,0,0,0,0,0,3833,3777,3824,3842,3837,3802,0.0,0.0,0.0,Started waypoint mission,
20.745508763874167,-103.51429551733412,10000,8.9,3.1016126,14,4,-1.2000000000000002,-4.1000000000000005,-56.1,2019-10-25 16:44:53.9550+0000,-0.14330291748046875,0.0,-0.1,-3.1,true,97,-19179,3824,23254,26.950000000000045,14,false,100,94,0,0,0,0,0,3833,3777,3824,3842,3837,3802,0.0,0.0,0.0,Started waypoint mission,
20.745508800772924,-103.51429581493117,10000,9.200000000000001,3.1016126,14,4,-1.0,-4.0,-56.1,2019-10-25 16:44:54.1380+0000,-0.18115496635437012,0.0,-0.1,-3.1,true,97,-27130,3824,22478,26.950000000000045,14,false,100,100,0,0,0,0,0,3747,3696,3749,3764,3769,3759,0.0,0.0,0.0,Started waypoint mission,
20.745508840838202,-103.5142964820635,10000,9.8,3.0016663,14,4,-0.5,-3.5,-56.2,2019-10-25 16:44:54.2430+0000,-0.10060906410217285,0.0,-0.1,-3.0,true,97,-27130,3824,22478,26.950000000000045,14,false,100,100,0,0,0,0,0,3747,3696,3749,3764,3769,3759,0.0,0.0,0.0,Started waypoint mission,
20.745508847395918,-103.51429677318362,10000,10.200000000000001,3.1016126,14,4,-0.5,-3.2,-56.2,2019-10-25 16:44:54.4340+0000,-0.18993890285491943,0.0,-0.1,-3.1,true,97,-27130,3824,22478,26.950000000000045,14,false,100,100,0,0,0,0,0,3747,3696,3749,3764,3769,3759,0.0,0.0,0.0,Started waypoint mission,
20.74550884440245,-103.51429707567635,10000,10.5,3.0016663,14,4,-0.4,-3.2,-56.2,2019-10-25 16:44:54.4400+0000,-0.004742980003356934,0.0,-0.1,-3.0,true,97,-27130,3824,22478,26.950000000000045,14,false,100,100,0,0,0,0,0,3747,3696,3749,3764,3769,3759,0.0,0.0,0.0,Started waypoint mission,
20.745508827549653,-103.51429737724577,11000,10.8,3.0016663,14,4,-0.5,-3.1,-56.2,2019-10-25 16:44:54.5060+0000,-0.06560695171356201,0.0,-0.1,-3.0,true,97,-20694,3824,22933,26.950000000000045,14,false,100,97,0,0,0,0,0,0,0,0,0,0,0,0.0,0.0,0.0,Started waypoint mission,
20.745508816982383,-103.5142976587899,11000,11.100000000000001,3.1016126,14,4,-0.5,-3.1,-56.2,2019-10-25 16:44:54.6010+0000,-0.0937809944152832,0.0,-0.1,-3.1,true,97,-20694,3824,22933,26.950000000000045,14,false,100,97,0,0,0,0,0,3828,3786,3828,3851,3866,3826,0.0,0.0,0.0,Started waypoint mission,
20.745508820151365,-103.5142979168191,11000,11.4,3.1,14,4,-0.4,-3.1,-56.1,2019-10-25 16:44:54.6640+0000,-0.059953927993774414,0.0,0.0,-3.1,true,97,-20694,3824,22933,26.950000000000045,14,false,100,97,0,0,0,0,0,3828,3786,3828,3851,3866,3826,0.0,0.0,0.0,Started waypoint mission,
20.74550875430222,-103.51429844235565,11000,12.100000000000001,3.0,14,4,-0.30000000000000004,-3.2,-56.300000000000004,2019-10-25 16:44:54.9870+0000,-0.3228189945220947,0.0,0.0,-3.0,true,97,-20694,3824,22933,26.950000000000045,14,false,100,97,0,0,0,0,0,3828,3786,3828,3851,3866,3826,0.0,0.0,0.0,Started waypoint mission,
20.74550869258444,-103.51429869005874,11000,12.4,2.9,14,4,-0.4,-3.0,-56.400000000000006,2019-10-25 16:44:55.1480+0000,-0.1592799425125122,0.0,0.0,-2.9,true,97,-20694,3824,22933,26.950000000000045,14,false,100,97,0,0,0,0,0,3828,3786,3828,3851,3866,3826,0.0,0.0,0.0,Started waypoint mission,
20.745508621964678,-103.51429890895523,11000,12.700000000000001,3.0,14,4,-0.6000000000000001,-2.8000000000000003,-56.6,2019-10-25 16:44:55.2940+0000,-0.1450439691543579,0.0,0.0,-3.0,true,97,-20694,3824,22933,26.950000000000045,14,false,100,97,0,0,0,0,0,3828,3786,3828,3851,3866,3826,0.0,0.0,0.0,Started waypoint mission,
20.74550849719623,-103.51429932817395,12000,13.3,2.9,14,4,-0.7000000000000001,-2.6,-56.900000000000006,2019-10-25 16:44:55.5140+0000,-0.20145201683044434,0.0,0.0,-2.9,true,97,-20694,3824,22933,26.950000000000045,14,false,100,97,0,0,0,0,0,3828,3786,3828,3851,3866,3826,0.0,0.0,0.0,Started waypoint mission,
20.74550833688569,-103.51429964770522,12000,13.9,2.9,15,4,-0.7000000000000001,-2.7,-56.900000000000006,2019-10-25 16:44:55.6140+0000,-0.09456098079681396,0.0,0.0,-2.9,true,97,-20694,3824,22933,26.950000000000045,14,false,100,97,0,0,0,0,0,3828,3786,3828,3851,3866,3826,0.0,0.0,0.0,Started waypoint mission,
20.745508198618612,-103.51429987376257,12000,14.600000000000001,3.0,15,4,-0.7000000000000001,-2.9000000000000004,-56.7,2019-10-25 16:44:55.7410+0000,-0.12655699253082275,0.0,0.0,-3.0,true,97,-20694,3824,22933,26.950000000000045,14,false,100,97,0,0,0,0,0,3828,3786,3828,3851,3866,3826,0.0,0.0,0.0,Started waypoint mission,
20.74550812827656,-103.5142999496976,12000,14.9,3.0,14,4,-0.9,-2.9000000000000004,-56.5,2019-10-25 16:44:55.8780+0000,-0.13617098331451416,0.0,0.0,-3.0,true,97,-20694,3824,22933,26.950000000000045,14,false,100,97,0,0,0,0,0,3828,3786,3828,3851,3866,3826,0.0,0.0,0.0,Started waypoint mission,
20.745508046677237,-103.51429998998199,12000,15.200000000000001,2.9017239,14,4,-1.1,-3.0,-56.2,2019-10-25 16:44:55.9950+0000,-0.1136929988861084,0.0,0.1,-2.9,true,97,-20694,3824,22933,26.950000000000045,14,false,100,97,0,0,0,0,0,3828,3786,3828,3851,3866,3826,0.0,0.0,0.0,Started waypoint mission,
20.74550794948293,-103.5142999985714,12000,15.5,2.9017239,14,4,-1.2000000000000002,-3.0,-56.0,2019-10-25 16:44:56.1540+0000,-0.1579359769821167,0.0,0.1,-2.9,true,97,-19491,3824,23033,27.05000000000001,14,false,100,100,0,0,0,0,0,3840,3786,3835,3845,3866,3832,0.0,0.0,0.0,Started waypoint mission,
20.745507823890982,-103.5142999708179,12000,15.8,2.8017852,14,4,-1.5,-3.0,-55.900000000000006,2019-10-25 16:44:56.2390+0000,-0.08290696144104004,0.0,0.1,-2.8,true,97,-19491,3824,23033,27.05000000000001,14,false,100,100,0,0,0,0,0,3840,3786,3835,3845,3866,3832,0.0,0.0,0.0,Started waypoint mission,
20.745507670910314,-103.51429992764108,12000,16.1,2.8017852,14,4,-1.9000000000000001,-3.0,-55.900000000000006,2019-10-25 16:44:56.4120+0000,-0.1720179319381714,0.0,0.1,-2.8,true,97,-19491,3824,23033,27.05000000000001,14,false,100,100,0,0,0,0,0,3840,3786,3835,3845,3866,3832,0.0,0.0,0.0,Started waypoint mission,
20.74550747469664,-103.51429986973238,13000,16.400000000000002,2.9017239,14,4,-2.4000000000000004,-3.0,-56.0,2019-10-25 16:44:56.4860+0000,-0.0732489824295044,0.0,0.1,-2.9,true,97,-19491,3824,23033,27.05000000000001,14,false,100,100,0,0,0,0,0,3840,3786,3835,3845,3866,3832,0.0,0.0,0.0,Started waypoint mission,
20.745507303853476,-103.51429980581626,13000,16.7,2.9017239,14,5,-2.6,-2.9000000000000004,-56.1,2019-10-25 16:44:56.4930+0000,-0.00581204891204834,0.0,0.1,-2.9,true,97,-19491,3824,23033,27.05000000000001,14,false,100,100,0,0,0,0,0,3840,3786,3835,3845,3866,3832,0.0,0.0,0.0,Started waypoint mission,
20.745507182361656,-103.5142997333644,13000,17.0,2.9017239,14,5,-2.9000000000000004,-2.9000000000000004,-56.2,2019-10-25 16:44:56.5780+0000,-0.08412694931030273,0.0,0.1,-2.9,true,97,-19482,3785,22980,27.05000000000001,14,false,100,98,0,0,0,0,0,0,0,0,0,0,0,0.0,0.0,0.0,Started waypoint mission,
20.74550708664829,-103.51429967696316,13000,17.3,2.9017239,14,5,-2.9000000000000004,-2.8000000000000003,-56.300000000000004,2019-10-25 16:44:56.5810+0000,-0.001340031623840332,0.0,0.1,-2.9,true,97,-19482,3785,22980,27.05000000000001,14,false,100,98,0,0,0,0,0,0,0,0,0,0,0,0.0,0.0,0.0,Started waypoint mission,
20.745507031904307,-103.51429964883732,13000,17.6,2.9017239,14,5,-2.7,-2.9000000000000004,-56.5,2019-10-25 16:44:56.6290+0000,-0.04740595817565918,0.0,0.1,-2.9,true,97,-19482,3785,22980,27.05000000000001,14,false,100,98,0,0,0,0,0,3829,3782,3836,3848,3854,3821,0.0,0.0,0.0,Started waypoint mission,
20.745507002339906,-103.51429961779992,13000,17.900000000000002,2.8017852,14,5,-2.3000000000000003,-2.9000000000000004,-56.6,2019-10-25 16:44:56.7840+0000,-0.15342402458190918,0.0,0.1,-2.8,true,97,-19482,3785,22980,27.05000000000001,14,false,100,98,0,0,0,0,0,3829,3782,3836,3848,3854,3821,0.0,0.0,0.0,Started waypoint mission,
20.745506997922433,-103.51429956209076,13000,18.2,2.8017852,14,5,-2.1,-3.0,-56.7,2019-10-25 16:44:56.9030+0000,-0.11857998371124268,0.0,0.1,-2.8,true,97,-19482,3785,22980,27.05000000000001,14,false,100,98,0,0,0,0,0,3829,3782,3836,3848,3854,3821,0.0,0.0,0.0,Started waypoint mission,
20.74550700817532,-103.51429947524305,13000,18.5,2.9017239,14,5,-2.1,-3.2,-56.7,2019-10-25 16:44:57.0420+0000,-0.13763797283172607,0.0,0.1,-2.9,true,97,-19482,3785,22980,27.05000000000001,14,false,100,98,0,0,0,0,0,0,0,0,0,0,0,0.0,0.0,0.0,Started waypoint mission,
20.745507026863283,-103.51429934233232,13000,18.8,2.9017239,14,5,-2.1,-3.5,-56.6,2019-10-25 16:44:57.1820+0000,-0.1393139362335205,0.0,0.1,-2.9,true,97,-19482,3785,22980,27.05000000000001,14,false,100,98,0,0,0,0,0,0,0,0,0,0,0,0.0,0.0,0.0,Started waypoint mission,
20.745507045139732,-103.51429918325157,13000,19.1,2.9017239,14,5,-2.2,-3.8000000000000003,-56.6,2019-10-25 16:44:57.4270+0000,-0.23814606666564941,0.0,0.1,-2.9,true,97,-19482,3785,22980,27.05000000000001,14,false,100,98,0,0,0,0,0,3829,3782,3836,3848,3854,3821,0.0,0.0,0.0,Started waypoint mission,
20.74550705540947,-103.51429899099504,14000,19.3,2.8017852,14,5,-2.5,-4.1000000000000005,-56.5,2019-10-25 16:44:57.4650+0000,-0.037487030029296875,0.0,0.1,-2.8,true,97,-19482,3785,22980,27.05000000000001,14,false,100,98,0,0,0,0,0,3829,3782,3836,3848,3854,3821,0.0,0.0,0.0,Started waypoint mission,
20.745507070861812,-103.51429878590683,14000,19.6,2.8017852,14,5,-3.0,-4.1000000000000005,-56.5,2019-10-25 16:44:57.5110+0000,-0.04457497596740723,0.0,0.1,-2.8,true,97,-19482,3785,22980,27.05000000000001,14,false,100,98,0,0,0,0,0,3829,3782,3836,3848,3854,3821,0.0,0.0,0.0,Started waypoint mission,
20.74550710100687,-103.51429857363402,14000,19.900000000000002,2.8017852,14,5,-3.4000000000000004,-4.1000000000000005,-56.400000000000006,2019-10-25 16:44:57.5930+0000,-0.08082890510559082,0.0,0.1,-2.8,true,96,-19482,3785,22959,27.150000000000034,14,false,100,99,0,0,0,0,0,3829,3782,3836,3848,3854,3821,0.0,0.0,0.0,Started waypoint mission,
20.74550712244371,-103.5142983688209,14000,20.200000000000003,3.0016663,14,5,-3.5,-4.6000000000000005,-56.400000000000006,2019-10-25 16:44:57.6750+0000,-0.08086204528808594,0.0,0.1,-3.0,true,96,-19482,3785,22959,27.150000000000034,14,false,100,99,0,0,0,0,0,3829,3782,3836,3848,3854,3821,0.0,0.0,0.0,Started waypoint mission,
20.74550714574397,-103.51429799833782,14000,20.8,2.8017852,14,5,-3.2,-4.800000000000001,-56.400000000000006,2019-10-25 16:44:57.7960+0000,-0.12052500247955322,0.0,0.1,-2.8,true,96,-19482,3785,22959,27.150000000000034,14,false,100,99,0,0,0,0,0,3829,3782,3836,3848,3854,3821,0.0,0.0,0.0,Started waypoint mission,
20.745507203762198,-103.51429781345067,14000,21.1,3.0016663,14,5,-3.1,-4.7,-56.300000000000004,2019-10-25 16:44:57.9270+0000,-0.13045108318328857,0.0,0.1,-3.0,true,96,-19482,3785,22959,27.150000000000034,14,false,100,99,0,0,0,0,0,3829,3782,3836,3848,3854,3821,0.0,0.0,0.0,Started waypoint mission,
20.74550726019353,-103.51429764008039,14000,21.400000000000002,2.9017239,14,5,-3.0,-4.800000000000001,-56.2,2019-10-25 16:44:58.0580+0000,-0.12875795364379883,0.0,0.1,-2.9,true,96,-19482,3785,22959,27.150000000000034,14,false,100,99,0,0,0,0,0,3834,3788,3819,3824,3842,3826,0.0,0.0,0.0,Started waypoint mission,
20.74550731135365,-103.51429748006161,14000,21.700000000000003,2.8017852,14,5,-3.0,-4.800000000000001,-56.2,2019-10-25 16:44:58.2000+0000,-0.14187002182006836,0.0,0.1,-2.8,true,96,-19482,3785,22959,27.150000000000034,14,false,100,99,0,0,0,0,0,3834,3788,3819,3824,3842,3826,0.0,0.0,0.0,Started waypoint mission,
20.74550737040538,-103.51429732830556,14000,22.0,2.8017852,14,5,-3.0,-4.800000000000001,-56.300000000000004,2019-10-25 16:44:58.2820+0000,-0.08062005043029785,0.0,0.1,-2.8,true,96,-19482,3785,22959,27.150000000000034,14,false,100,99,0,0,0,0,0,3834,3788,3819,3824,3842,3826,0.0,0.0,0.0,Started waypoint mission,
20.745507444038925,-103.5142971818163,14000,22.3,3.0,14,5,-3.1,-4.7,-56.300000000000004,2019-10-25 16:44:58.4150+0000,-0.13026106357574463,0.0,0.0,-3.0,true,96,-19482,3785,22959,27.150000000000034,14,false,100,99,0,0,0,0,0,3834,3788,3819,3824,3842,3826,0.0,0.0,0.0,Started waypoint mission,
20.74550751002294,-103.51429703344552,15000,22.6,2.8,14,5,-3.1,-4.800000000000001,-56.400000000000006,2019-10-25 16:44:58.4910+0000,-0.07274699211120605,0.0,0.0,-2.8,true,96,-19482,3785,22959,27.150000000000034,14,false,100,99,0,0,0,0,0,3834,3788,3819,3824,3842,3826,0.0,0.0,0.0,Started waypoint mission,
20.74550756304065,-103.51429687524535,15000,22.900000000000002,2.9,14,5,-3.2,-4.9,-56.400000000000006,2019-10-25 16:44:58.5590+0000,-0.06732499599456787,0.0,0.0,-2.9,true,96,-19482,3785,22959,27.25,14,false,100,97,0,0,0,0,0,3834,3788,3819,3824,3842,3826,0.0,0.0,0.0,Started waypoint mission,
20.745507636776015,-103.51429672436686,15000,23.200000000000003,2.8,14,5,-3.2,-5.0,-56.400000000000006,2019-10-25 16:44:58.6080+0000,-0.04752802848815918,0.0,0.0,-2.8,true,96,-19482,3785,22959,27.25,14,false,100,97,0,0,0,0,0,3834,3788,3819,3824,3842,3826,0.0,0.0,0.0,Started waypoint mission,
20.745507745144813,-103.51429658582384,15000,23.5,2.9,14,5,-3.2,-5.1000000000000005,-56.400000000000006,2019-10-25 16:44:58.6710+0000,-0.06236600875854492,0.0,0.0,-2.9,true,96,-19482,3785,22959,27.25,14,false,100,97,0,0,0,0,0,3834,3788,3819,3824,3842,3826,0.0,0.0,0.0,Started waypoint mission,
20.74550785251312,-103.51429646992597,15000,23.8,2.9,14,5,-3.2,-5.300000000000001,-56.400000000000006,2019-10-25 16:44:58.7900+0000,-0.1172640323638916,0.0,0.0,-2.9,true,96,-19482,3785,22959,27.25,14,false,100,97,0,0,0,0,0,3834,3788,3819,3824,3842,3826,0.0,0.0,0.0,Started waypoint mission,
20.745507955219225,-103.51429638673156,15000,24.1,2.9,14,5,-3.1,-5.4,-56.400000000000006,2019-10-25 16:44:58.9020+0000,-0.1111990213394165,0.0,0.0,-2.9,true,96,-19482,3785,22959,27.25,14,false,100,97,0,0,0,0,0,3834,3788,3819,3824,3842,3826,0.0,0.0,0.0,Started waypoint mission,
20.7455080573743,-103.51429632345881,15000,24.400000000000002,2.9,14,5,-3.0,-5.5,-56.400000000000006,2019-10-25 16:44:59.0140+0000,-0.11090004444122314,0.0,0.0,-2.9,true,96,-20171,3785,22857,27.25,14,false,100,95,0,0,0,0,0,3795,3754,3804,3813,3817,3812,0.0,0.0,0.0,Started waypoint mission,
20.745508155392923,-103.51429628130738,15000,24.700000000000003,2.9,14,5,-2.8000000000000003,-5.5,-56.300000000000004,2019-10-25 16:44:59.2100+0000,-0.19535696506500244,0.0,0.0,-2.9,true,96,-20171,3785,22857,27.25,14,false,100,95,0,0,0,0,0,3795,3754,3804,3813,3817,3812,0.0,0.0,0.0,Started waypoint mission,
20.745508247732662,-103.51429625062305,15000,24.900000000000002,2.9,14,5,-2.6,-5.300000000000001,-56.300000000000004,2019-10-25 16:44:59.2150+0000,-0.004330039024353027,0.0,0.0,-2.9,true,96,-20171,3785,22857,27.25,14,false,100,95,0,0,0,0,0,3795,3754,3804,3813,3817,3812,0.0,0.0,0.0,Started waypoint mission,
20.74550827904439,-103.51429618408326,16000,26.1,2.9,14,5,-2.7,-4.5,-56.0,2019-10-25 16:44:59.5940+0000,-0.3777559995651245,0.0,0.0,-2.9,true,96,-20171,3785,22857,27.25,14,false,100,95,0,0,0,0,0,3795,3754,3804,3813,3817,3812,0.0,0.0,0.0,Started waypoint mission,
20.745508360925225,-103.51429620206525,16000,26.400000000000002,2.9,14,5,-2.8000000000000003,-4.3,-55.900000000000006,2019-10-25 16:44:59.6320+0000,-0.03701794147491455,0.0,0.0,-2.9,true,96,-20171,3785,22857,27.25,14,false,100,95,0,0,0,0,0,3795,3754,3804,3813,3817,3812,0.0,0.0,0.0,Started waypoint mission,
20.745508441497126,-103.5142962367908,16000,26.700000000000003,3.0,15,5,-2.8000000000000003,-4.5,-56.0,2019-10-25 16:44:59.7550+0000,-0.12148594856262207,0.0,0.0,-3.0,true,96,-20171,3785,22857,27.25,14,false,100,95,0,0,0,0,0,3795,3754,3804,3813,3817,3812,0.0,0.0,0.0,Started waypoint mission,
20.745508513790266,-103.51429629884886,16000,27.0,2.9,15,5,-2.6,-4.6000000000000005,-56.1,2019-10-25 16:44:59.8970+0000,-0.14038896560668945,0.0,0.0,-2.9,true,96,-20171,3785,22857,27.25,14,false,100,95,0,0,0,0,0,3795,3754,3804,3813,3817,3812,0.0,0.0,0.0,Started waypoint mission,
20.745508582189128,-103.51429636926127,16000,27.3,2.9,14,5,-2.3000000000000003,-4.6000000000000005,-56.2,2019-10-25 16:45:00.0450+0000,-0.14735209941864014,0.0,0.0,-2.9,true,96,-20024,3785,22788,27.350000000000023,14,false,100,97,0,0,0,0,0,3788,3757,3780,3819,3828,3800,0.0,0.0,0.0,Started waypoint mission,
20.745508639848953,-103.51429644190033,16000,27.6,2.9,14,5,-2.0,-4.6000000000000005,-56.300000000000004,2019-10-25 16:45:00.1890+0000,-0.14248204231262207,0.0,0.0,-2.9,true,96,-20024,3785,22788,27.350000000000023,14,false,100,97,0,0,0,0,0,3788,3757,3780,3819,3828,3800,0.0,0.0,0.0,Started waypoint mission,
20.745508701192502,-103.51429651189146,16000,27.900000000000002,3.0,14,5,-1.9000000000000001,-4.5,-56.400000000000006,2019-10-25 16:45:00.2740+0000,-0.08376693725585938,0.0,0.0,-3.0,true,96,-20024,3785,22788,27.350000000000023,14,false,100,97,0,0,0,0,0,3788,3757,3780,3819,3828,3800,0.0,0.0,0.0,Started waypoint mission,
20.745508771496496,-103.51429657415044,16000,28.200000000000003,2.9,14,5,-1.9000000000000001,-4.5,-56.400000000000006,2019-10-25 16:45:00.4280+0000,-0.15372204780578613,0.0,0.0,-2.9,true,96,-20024,3785,22788,27.350000000000023,14,false,100,97,0,0,0,0,0,3788,3757,3780,3819,3828,3800,0.0,0.0,0.0,Started waypoint mission,
20.745508836244824,-103.51429665381751,17000,28.5,2.9,14,5,-1.8,-4.4,-56.5,2019-10-25 16:45:00.4910+0000,-0.060632944107055664,0.0,0.0,-2.9,true,96,-20024,3785,22788,27.350000000000023,14,false,100,97,0,0,0,0,0,3788,3757,3780,3819,3828,3800,0.0,0.0,0.0,Started waypoint mission,
20.74550889047822,-103.51429677051496,17000,28.8,2.9,14,5,-1.7000000000000002,-4.4,-56.6,2019-10-25 16:45:00.5670+0000,-0.07502996921539307,0.0,0.0,-2.9,true,96,-20024,3785,22788,27.350000000000023,14,false,100,100,0,0,0,0,0,3788,3757,3780,3819,3828,3800,0.0,0.0,0.0,Started waypoint mission,
20.745508930304545,-103.51429689296221,17000,29.1,2.9,14,5,-1.5,-4.4,-56.6,2019-10-25 16:45:00.6430+0000,-0.07484304904937744,0.0,0.0,-2.9,true,96,-20024,3785,22788,27.350000000000023,14,false,100,100,0,0,0,0,0,3788,3757,3780,3819,3828,3800,0.0,0.0,0.0,Started waypoint mission,
20.745508942843973,-103.51429701527668,17000,29.400000000000002,3.0,14,5,-1.4000000000000001,-4.4,-56.7,2019-10-25 16:45:00.7440+0000,-0.10090100765228271,0.0,0.0,-3.0,true,96,-20024,3785,22788,27.350000000000023,14,false,100,100,0,0,0,0,0,3788,3757,3780,3819,3828,3800,0.0,0.0,0.0,Started waypoint mission,
20.74550895553405,-103.51429713201814,17000,29.700000000000003,3.0,14,5,-1.4000000000000001,-4.3,-56.7,2019-10-25 16:45:00.8730+0000,-0.1282409429550171,0.0,0.0,-3.0,true,96,-20024,3785,22788,27.350000000000023,14,false,100,100,0,0,0,0,0,3788,3757,3780,3819,3828,3800,0.0,0.0,0.0,Started waypoint mission,
20.74550897517318,-103.51429724026619,17000,30.0,3.0,14,5,-1.6,-4.3,-56.6,2019-10-25 16:45:00.9630+0000,-0.08767902851104736,0.0,0.0,-3.0,true,96,-20024,3785,22788,27.350000000000023,14,false,100,100,0,0,0,0,0,3788,3757,3780,3819,3828,3800,0.0,0.0,0.0,Started waypoint mission,
20.745508983164324,-103.51429734302711,17000,30.3,2.9,14,5,-1.7000000000000002,-4.2,-56.5,2019-10-25 16:45:01.0580+0000,-0.09462893009185791,0.0,0.0,-2.9,true,96,-20463,3785,22727,27.450000000000045,14,false,100,100,0,0,0,0,0,3802,3749,3774,3810,3808,3799,0.0,0.0,0.0,Started waypoint mission,
20.745508978880526,-103.51429744448063,17000,30.6,3.0,14,5,-1.8,-4.1000000000000005,-56.400000000000006,2019-10-25 16:45:01.2400+0000,-0.18098104000091553,0.0,0.0,-3.0,true,96,-20463,3785,22727,27.450000000000045,14,false,100,100,0,0,0,0,0,3802,3749,3774,3810,3808,3799,0.0,0.0,0.0,Started waypoint mission,
20.745508978546642,-103.51429754226614,17000,30.900000000000002,3.0,14,5,-1.7000000000000002,-4.0,-56.400000000000006,2019-10-25 16:45:01.4160+0000,-0.17584490776062012,0.0,0.0,-3.0,true,96,-20463,3785,22727,27.450000000000045,14,false,100,100,0,0,0,0,0,3802,3749,3774,3810,3808,3799,0.0,0.0,0.0,Started waypoint mission,
20.74550891545306,-103.51429800922396,18000,32.4,3.0,14,5,-1.7000000000000002,-4.4,-56.5,2019-10-25 16:45:01.6350+0000,-0.2174220085144043,0.0,0.0,-3.0,true,96,-20463,3785,22727,27.450000000000045,14,false,100,99,0,0,0,0,0,3802,3749,3774,3810,3808,3799,0.0,0.0,0.0,Started waypoint mission,
20.745508855248236,-103.51429810142584,18000,32.7,2.9,14,5,-1.7000000000000002,-4.1000000000000005,-56.5,2019-10-25 16:45:01.7080+0000,-0.0716630220413208,0.0,0.0,-2.9,true,96,-20463,3785,22727,27.450000000000045,14,false,100,99,0,0,0,0,0,3802,3749,3774,3810,3808,3799,0.0,0.0,0.0,Started waypoint mission,
20.745508774821033,-103.51429818780262,18000,33.0,3.0016663,14,5,-1.8,-3.9000000000000004,-56.5,2019-10-25 16:45:01.8380+0000,-0.12948095798492432,-0.1,0.0,-3.0,true,96,-20463,3785,22727,27.450000000000045,14,false,100,99,0,0,0,0,0,3802,3749,3774,3810,3808,3799,0.0,0.0,0.0,Started waypoint mission,
20.745508687193144,-103.51429828268053,18000,33.300000000000004,3.0016663,14,5,-1.8,-3.8000000000000003,-56.400000000000006,2019-10-25 16:45:01.9560+0000,-0.1168210506439209,-0.1,0.0,-3.0,true,96,-20094,3785,22740,27.450000000000045,14,false,100,97,0,0,0,0,0,0,0,0,0,0,0,0.0,0.0,0.0,Started waypoint mission,
20.745508591302233,-103.51429839638436,18000,33.6,2.9017239,14,5,-1.8,-3.3000000000000003,-56.2,2019-10-25 16:45:02.1410+0000,-0.18448400497436523,-0.1,0.0,-2.9,true,96,-20094,3785,22740,27.450000000000045,14,false,100,97,0,0,0,0,0,3792,3741,3790,3809,3808,3797,0.0,0.0,0.0,Started waypoint mission,
20.745508494293695,-103.51429849047375,18000,33.9,2.9017239,15,5,-2.0,-2.9000000000000004,-56.1,2019-10-25 16:45:02.2200+0000,-0.07796096801757812,-0.1,0.0,-2.9,true,96,-20094,3785,22740,27.450000000000045,14,false,100,97,0,0,0,0,0,3792,3741,3790,3809,3808,3797,0.0,0.0,0.0,Started waypoint mission,
20.74550840434192,-103.51429855234049,19000,34.2,2.9017239,15,5,-2.2,-2.9000000000000004,-56.1,2019-10-25 16:45:02.4520+0000,-0.2306959629058838,-0.1,0.0,-2.9,true,96,-20094,3785,22740,27.450000000000045,14,false,100,97,0,0,0,0,0,3792,3741,3790,3809,3808,3797,0.0,0.0,0.0,Started waypoint mission,
20.745508309163366,-103.51429860655008,19000,34.5,2.9,15,5,-2.2,-3.2,-56.1,2019-10-25 16:45:02.4880+0000,-0.03462803363800049,0.0,0.0,-2.9,true,96,-20094,3785,22740,27.450000000000045,14,false,100,97,0,0,0,0,0,3792,3741,3790,3809,3808,3797,0.0,0.0,0.0,Started waypoint mission,
20.745507883766148,-103.5142987740297,19000,35.800000000000004,3.0,15,5,-2.7,-3.4000000000000004,-56.2,2019-10-25 16:45:02.7770+0000,-0.2888599634170532,0.0,0.0,-3.0,true,96,-20094,3785,22740,27.450000000000045,14,false,100,94,0,0,0,0,0,3792,3741,3790,3809,3808,3797,0.0,0.0,0.0,Started waypoint mission,
20.745507771672983,-103.514298782691,19000,36.1,2.9,15,5,-2.8000000000000003,-3.3000000000000003,-56.2,2019-10-25 16:45:02.8970+0000,-0.11923301219940186,0.0,0.0,-2.9,true,96,-20094,3785,22740,27.450000000000045,14,false,100,94,0,0,0,0,0,3792,3741,3790,3809,3808,3797,0.0,0.0,0.0,Started waypoint mission,
20.745507663834093,-103.51429879218286,19000,36.4,3.0,15,5,-3.0,-3.3000000000000003,-56.2,2019-10-25 16:45:02.9470+0000,-0.04910898208618164,0.0,0.0,-3.0,true,96,-19641,3785,22753,27.650000000000034,14,false,100,86,0,0,0,0,0,3792,3741,3790,3809,3808,3797,0.0,0.0,0.0,Started waypoint mission,
20.74550756509149,-103.51429881017499,19000,36.7,3.0,15,5,-3.0,-3.3000000000000003,-56.2,2019-10-25 16:45:02.9950+0000,-0.046499013900756836,0.0,0.0,-3.0,true,96,-19641,3785,22753,27.650000000000034,14,false,100,86,0,0,0,0,0,3792,3741,3790,3809,3808,3797,0.0,0.0,0.0,Started waypoint mission,
20.74550747422858,-103.5142988261036,19000,37.0,3.0,15,5,-3.0,-3.4000000000000004,-56.2,2019-10-25 16:45:03.0280+0000,-0.032302021980285645,0.0,0.0,-3.0,true,96,-19641,3785,22753,27.650000000000034,14,false,100,86,0,0,0,0,0,3792,3741,3790,3809,3808,3797,0.0,0.0,0.0,Started waypoint mission,
20.74550738989154,-103.51429883648126,19000,37.300000000000004,2.9,15,5,-2.8000000000000003,-3.4000000000000004,-56.2,2019-10-25 16:45:03.1580+0000,-0.12942993640899658,0.0,0.0,-2.9,true,96,-19641,3785,22753,27.650000000000034,14,false,100,86,0,0,0,0,0,3792,3741,3790,3809,3808,3797,0.0,0.0,0.0,Started waypoint mission,
20.74550730915825,-103.51429883425277,19000,37.6,3.0,15,5,-2.7,-3.3000000000000003,-56.2,2019-10-25 16:45:03.2330+0000,-0.07440495491027832,0.0,0.0,-3.0,true,96,-19641,3785,22753,27.650000000000034,14,false,100,86,0,0,0,0,0,3792,3741,3790,3809,3808,3797,0.0,0.0,0.0,Started waypoint mission,
20.745507231678822,-103.51429880956007,19000,37.9,3.0,15,5,-2.9000000000000004,-3.2,-56.2,2019-10-25 16:45:03.4110+0000,-0.17732703685760498,0.0,0.0,-3.0,true,96,-19641,3785,22753,27.650000000000034,14,false,100,89,0,0,0,0,0,3789,3738,3792,3814,3806,3794,0.0,0.0,0.0,Started waypoint mission,
20.74550716250519,-103.51429877195785,19000,38.2,3.0,15,5,-3.1,-3.2,-56.2,2019-10-25 16:45:03.4480+0000,-0.03565788269042969,0.0,0.0,-3.0,true,96,-19641,3785,22753,27.650000000000034,14,false,100,89,0,0,0,0,0,3789,3738,3792,3814,3806,3794,0.0,0.0,0.0,Started waypoint mission,
20.745507102491942,-103.5142987175065,20000,38.5,2.9017239,15,5,-3.3000000000000003,-3.4000000000000004,-56.1,2019-10-25 16:45:03.5240+0000,-0.0746539831161499,0.0,0.1,-2.9,true,96,-19641,3785,22753,27.650000000000034,14,false,100,89,0,0,0,0,0,3789,3738,3792,3814,3806,3794,0.0,0.0,0.0,Started waypoint mission,
20.74550705448697,-103.51429866033105,20000,38.800000000000004,2.9,14,5,-3.7,-3.6,-56.1,2019-10-25 16:45:03.6240+0000,-0.09905898571014404,0.0,0.0,-2.9,true,96,-19641,3785,22753,27.650000000000034,14,false,100,89,0,0,0,0,0,3789,3738,3792,3814,3806,3794,0.0,0.0,0.0,Started waypoint mission,
20.745507027226182,-103.51429861238343,20000,39.1,2.9,14,5,-3.8000000000000003,-3.9000000000000004,-56.0,2019-10-25 16:45:03.7310+0000,-0.10663902759552002,0.0,0.0,-2.9,true,96,-19641,3785,22753,27.650000000000034,14,false,100,89,0,0,0,0,0,3789,3738,3792,3814,3806,3794,0.0,0.0,0.0,Started waypoint mission,
20.745506998733138,-103.5142985631009,20000,39.400000000000006,2.8,14,5,-3.6,-4.0,-56.0,2019-10-25 16:45:03.8480+0000,-0.11552798748016357,0.0,0.0,-2.8,true,96,-19641,3785,22753,27.650000000000034,14,false,100,95,0,0,0,0,0,3789,3738,3792,3814,3806,3794,0.0,0.0,0.0,Started waypoint mission,
20.745506958599034,-103.51429850676148,20000,39.7,2.8,14,5,-3.3000000000000003,-3.9000000000000004,-56.0,2019-10-25 16:45:03.9330+0000,-0.08443307876586914,0.0,0.0,-2.8,true,96,-19641,3785,22753,27.650000000000034,14,false,100,95,0,0,0,0,0,3789,3738,3792,3814,3806,3794,0.0,0.0,0.0,Started waypoint mission,
20.745506924711023,-103.51429845840858,20000,40.0,2.8,14,5,-3.1,-4.0,-56.1,2019-10-25 16:45:03.9380+0000,-0.0020689964294433594,0.0,0.0,-2.8,true,96,-19641,3785,22753,27.650000000000034,14,false,100,95,0,0,0,0,0,3789,3738,3792,3814,3806,3794,0.0,0.0,0.0,Started waypoint mission,
20.74550689519236,-103.51429841637763,20000,40.2,2.8,14,5,-3.0,-4.1000000000000005,-56.2,2019-10-25 16:45:04.1470+0000,-0.20763897895812988,0.0,0.0,-2.8,true,96,-19641,3785,22753,27.650000000000034,14,false,100,95,0,0,0,0,0,3789,3738,3792,3814,3806,3794,0.0,0.0,0.0,Started waypoint mission,
20.745506874340542,-103.51429836812348,20000,40.5,2.9,14,5,-3.1,-4.2,-56.300000000000004,2019-10-25 16:45:04.2420+0000,-0.09422194957733154,0.0,0.0,-2.9,true,96,-19641,3785,22753,27.650000000000034,14,false,100,95,0,0,0,0,0,3789,3738,3792,3814,3806,3794,0.0,0.0,0.0,Started waypoint mission,
20.745506871844746,-103.51429824794728,20000,41.2,3.0,14,5,-3.1,-4.1000000000000005,-56.2,2019-10-25 16:45:04.3890+0000,-0.14594805240631104,0.0,0.0,-3.0,true,96,-19181,3745,22748,27.650000000000034,14,false,100,99,0,0,0,0,0,3799,3753,3791,3811,3825,3794,0.0,0.0,0.0,Started waypoint mission,
20.745506884373942,-103.51429817935863,21000,41.400000000000006,2.9,14,5,-3.1,-4.1000000000000005,-56.2,2019-10-25 16:45:04.4570+0000,-0.06714498996734619,0.0,0.0,-2.9,true,96,-19181,3745,22748,27.650000000000034,14,false,100,99,0,0,0,0,0,3799,3753,3791,3811,3825,3794,0.0,0.0,0.0,Started waypoint mission,
20.745506899100118,-103.51429809871391,21000,41.7,2.9,14,5,-3.3000000000000003,-4.0,-56.2,2019-10-25 16:45:04.5490+0000,-0.09124207496643066,0.0,0.0,-2.9,true,96,-19181,3745,22748,27.650000000000034,14,false,100,99,0,0,0,0,0,3799,3753,3791,3811,3825,3794,0.0,0.0,0.0,Started waypoint mission,
20.745506916702848,-103.51429799845448,21000,42.1,3.0,14,5,-3.4000000000000004,-4.1000000000000005,-56.300000000000004,2019-10-25 16:45:04.6570+0000,-0.10601091384887695,0.0,0.0,-3.0,true,96,-19181,3745,22748,27.650000000000034,14,false,100,99,0,0,0,0,0,3799,3753,3791,3811,3825,3794,0.0,0.0,0.0,Started waypoint mission,
20.745506938438712,-103.51429788723028,21000,42.300000000000004,2.9,14,5,-3.4000000000000004,-4.5,-56.400000000000006,2019-10-25 16:45:04.7570+0000,-0.0980759859085083,0.0,0.0,-2.9,true,96,-19181,3745,22748,27.650000000000034,14,false,100,98,0,0,0,0,0,0,0,0,0,0,0,0.0,0.0,0.0,Started waypoint mission,
20.74550696006711,-103.51429776977716,21000,42.6,2.9,14,5,-3.6,-4.9,-56.5,2019-10-25 16:45:04.8630+0000,-0.10508298873901367,0.0,0.0,-2.9,true,96,-19181,3745,22748,27.650000000000034,14,false,100,98,0,0,0,0,0,3799,3753,3791,3811,3825,3794,0.0,0.0,0.0,Started waypoint mission,
20.745506988205637,-103.51429766054841,21000,42.900000000000006,2.9,15,5,-3.7,-4.9,-56.5,2019-10-25 16:45:04.9570+0000,-0.09305906295776367,0.0,0.0,-2.9,true,96,-19181,3745,22748,27.650000000000034,14,false,100,98,0,0,0,0,0,3799,3753,3791,3811,3825,3794,0.0,0.0,0.0,Started waypoint mission,
20.745507026858697,-103.51429756550908,21000,43.2,2.9,15,5,-3.8000000000000003,-5.0,-56.6,2019-10-25 16:45:05.0630+0000,-0.10461997985839844,0.0,0.0,-2.9,true,96,-19181,3745,22748,27.650000000000034,14,false,100,98,0,0,0,0,0,3799,3753,3791,3811,3825,3794,0.0,0.0,0.0,Started waypoint mission,
20.745507069674343,-103.5142974881014,21000,43.5,2.9,15,5,-3.6,-5.0,-56.6,2019-10-25 16:45:05.1630+0000,-0.09989798069000244,0.0,0.0,-2.9,true,96,-19181,3745,22748,27.650000000000034,14,false,100,98,0,0,0,0,0,3799,3753,3791,3811,3825,3794,0.0,0.0,0.0,Started waypoint mission,
20.745507118558088,-103.51429742924032,21000,43.800000000000004,2.9,15,5,-3.5,-4.9,-56.6,2019-10-25 16:45:05.2790+0000,-0.11481201648712158,0.0,0.0,-2.9,true,95,-19164,3745,22750,27.850000000000023,14,false,100,99,0,0,0,0,0,3785,3726,3787,3800,3809,3800,0.0,0.0,0.0,Started waypoint mission,
20.745507166441897,-103.51429738143585,21000,44.1,2.9,15,5,-3.4000000000000004,-4.9,-56.6,2019-10-25 16:45:05.4180+0000,-0.13781797885894775,0.0,0.0,-2.9,true,95,-19164,3745,22750,27.850000000000023,14,false,100,99,0,0,0,0,0,3785,3726,3787,3800,3809,3800,0.0,0.0,0.0,Started waypoint mission,
20.74550720971935,-103.51429734549056,22000,44.400000000000006,2.9,15,5,-3.4000000000000004,-4.800000000000001,-56.5,2019-10-25 16:45:05.4800+0000,-0.05216503143310547,0.0,0.0,-2.9,true,95,-19164,3745,22750,27.850000000000023,14,false,100,99,0,0,0,0,0,3785,3726,3787,3800,3809,3800,0.0,0.0,0.0,Started waypoint mission,
20.745507259485787,-103.51429732424533,22000,44.7,3.0,15,5,-3.3000000000000003,-4.6000000000000005,-56.5,2019-10-25 16:45:05.5740+0000,-0.09252297878265381,0.0,0.0,-3.0,true,95,-19164,3745,22750,27.850000000000023,14,false,100,99,0,0,0,0,0,3785,3726,3787,3800,3809,3800,0.0,0.0,0.0,Started waypoint mission,
20.745507328414973,-103.51429731761593,22000,45.0,2.9,15,5,-3.2,-4.7,-56.5,2019-10-25 16:45:05.6750+0000,-0.10066306591033936,0.0,0.0,-2.9,true,95,-19164,3745,22750,27.850000000000023,14,false,100,99,0,0,0,0,0,3785,3726,3787,3800,3809,3800,0.0,0.0,0.0,Started waypoint mission,
20.74550738259644,-103.51429731407066,22000,45.300000000000004,2.9,15,5,-3.2,-4.800000000000001,-56.5,2019-10-25 16:45:05.7820+0000,-0.10591399669647217,0.0,0.0,-2.9,true,95,-19164,3745,22750,27.850000000000023,14,false,100,100,0,0,0,0,0,3785,3726,3787,3800,3809,3800,0.0,0.0,0.0,Started waypoint mission,
20.745507404498817,-103.5142973125792,22000,45.6,2.9,15,5,-3.1,-4.7,-56.6,2019-10-25 16:45:05.8950+0000,-0.1116189956665039,0.0,0.0,-2.9,true,95,-19164,3745,22750,27.850000000000023,14,false,100,100,0,0,0,0,0,3785,3726,3787,3800,3809,3800,0.0,0.0,0.0,Started waypoint mission,
20.745507423222882,-103.5142973220757,22000,45.900000000000006,3.0,14,5,-3.1,-4.5,-56.6,2019-10-25 16:45:06.0050+0000,-0.10935103893280029,0.0,0.0,-3.0,true,95,-19164,3745,22750,27.850000000000023,14,false,100,100,0,0,0,0,0,3785,3726,3787,3800,3809,3800,0.0,0.0,0.0,Started waypoint mission,
20.74550744887547,-103.51429734292304,22000,46.2,2.9,14,5,-3.2,-4.4,-56.6,2019-10-25 16:45:06.0840+0000,-0.07752406597137451,0.0,0.0,-2.9,true,95,-19164,3745,22750,27.850000000000023,14,false,100,100,0,0,0,0,0,3785,3726,3787,3800,3809,3800,0.0,0.0,0.0,Started waypoint mission,
20.74550748610507,-103.51429737531242,22000,46.5,3.0,14,5,-3.1,-4.2,-56.6,2019-10-25 16:45:06.1830+0000,-0.09812700748443604,0.0,0.0,-3.0,true,95,-19164,3745,22750,27.850000000000023,14,false,100,100,0,0,0,0,0,3785,3726,3787,3800,3809,3800,0.0,0.0,0.0,Started waypoint mission,
20.74550754263545,-103.51429742098622,22000,46.800000000000004,2.9,14,5,-2.9000000000000004,-4.0,-56.5,2019-10-25 16:45:06.2840+0000,-0.09958100318908691,0.0,0.0,-2.9,true,95,-19649,3745,22706,27.850000000000023,14,false,100,100,0,0,0,0,0,3772,3725,3785,3800,3813,3779,0.0,0.0,0.0,Started waypoint mission,
20.745507602904336,-103.5142974806766,22000,47.1,2.9,14,5,-2.7,-3.9000000000000004,-56.5,2019-10-25 16:45:06.4160+0000,-0.1309889554977417,0.0,0.0,-2.9,true,95,-19649,3745,22706,27.850000000000023,14,false,100,100,0,0,0,0,0,3772,3725,3785,3800,3813,3779,0.0,0.0,0.0,Started waypoint mission,
20.745507668354197,-103.51429755533255,23000,47.400000000000006,2.9,14,5,-2.5,-4.0,-56.5,2019-10-25 16:45:06.5060+0000,-0.088905930519104,0.0,0.0,-2.9,true,95,-19649,3745,22706,27.850000000000023,14,false,100,100,0,0,0,0,0,3772,3725,3785,3800,3813,3779,0.0,0.0,0.0,Started waypoint mission,
20.74550773177656,-103.51429762255749,23000,47.7,2.9,14,5,-2.4000000000000004,-4.1000000000000005,-56.5,2019-10-25 16:45:06.6010+0000,-0.09279394149780273,0.0,0.0,-2.9,true,95,-19649,3745,22706,27.850000000000023,14,false,100,100,0,0,0,0,0,3772,3725,3785,3800,3813,3779,0.0,0.0,0.0,Started waypoint mission,
20.74550778331396,-103.51429767890845,23000,48.0,2.9,14,5,-2.3000000000000003,-4.1000000000000005,-56.5,2019-10-25 16:45:06.7010+0000,-0.099418044090271,0.0,0.0,-2.9,true,95,-19649,3745,22706,27.850000000000023,14,false,100,100,0,0,0,0,0,3772,3725,3785,3800,3813,3779,0.0,0.0,0.0,Started waypoint mission,
