latitude,longitude,flight_time,altitude,speed,satellites,gps_level,pitch,roll,yaw,timestamp,last_updated,velocityX,velocityY,velocityZ,isflying,remainBatteryPercent,currentCurrent,batteryChargeRemaining,batteryVoltage,batteryTemperature,flightMode,istakingphoto,downlinkSignal,uplinkSignal,radioChannel,rc_elevator,rc_aileron,rc_throttle,rc_rudder,Battery_Cell1,Battery_Cell2,Battery_Cell3,Battery_Cell4,Battery_Cell5,Battery_Cell6,gimbalPitch,gimbalYaw,gimbalRoll,app_Tip,app_Warning,appVersion,AircraftComercialName,AircraftSerialNumber,RemoteSerialNumber,BatterySerialNumber,BatteryFullCapacity,dischargeCount,batteryLife,AircraftModel,sonar_altitude,isTakingVideo
20.745489864169514,-103.51431861648052,0,0.0,0.0,15,5,-0.1,-3.9000000000000004,-31.6,2019-10-25 16:24:51.6340+0000,-0.1185770034790039,0.0,0.0,0.0,false,97,-915,3753,25558,25.350000000000023,6,false,100,100,0,0,0,0,0,4260,4262,4263,4246,4264,4264,0.0,0.0,0.0,Started waypoint mission,,Flight1_3.1.0_(3),DJI,041DE70691,03LJ7004AS,9971171300860,3870,98,76,Explore1, ,false
20.745489850093293,-103.5143186156983,0,0.0,0.0,15,5,-0.1,-3.9000000000000004,-31.6,2019-10-25 16:24:51.7170+0000,-0.08312201499938965,0.0,0.0,0.0,false,97,-915,3753,25558,25.350000000000023,6,false,100,100,0,0,0,0,0,4260,4262,4263,4246,4264,4264,0.0,0.0,0.0,Started waypoint mission,
20.745489836224774,-103.51431861318083,0,0.0,0.0,15,5,-0.1,-3.9000000000000004,-31.6,2019-10-25 16:24:51.8410+0000,-0.1227560043334961,0.0,0.0,0.0,false,97,-915,3753,25558,25.350000000000023,6,false,100,100,0,0,0,0,0,4260,4262,4263,4246,4264,4264,0.0,0.0,0.0,Started waypoint mission,
20.74548982258964,-103.51431861030275,0,0.0,0.0,15,5,-0.1,-3.9000000000000004,-31.6,2019-10-25 16:24:51.9460+0000,-0.10447502136230469,0.0,0.0,0.0,false,97,-915,3753,25558,25.350000000000023,6,false,100,100,0,0,0,0,0,4260,4262,4263,4246,4264,4264,0.0,0.0,0.0,Started waypoint mission,
20.745489809950165,-103.51431860816794,0,0.0,0.0,15,5,-0.1,-3.9000000000000004,-31.6,2019-10-25 16:24:52.0450+0000,-0.09853005409240723,0.0,0.0,0.0,false,97,-915,3753,25558,25.350000000000023,6,false,100,100,0,0,0,0,0,4260,4262,4263,4246,4264,4264,0.0,0.0,0.0,Started waypoint mission,
20.74548979762544,-103.51431860617137,0,0.0,0.0,15,5,-0.1,-3.9000000000000004,-31.6,2019-10-25 16:24:52.1490+0000,-0.10395598411560059,0.0,0.0,0.0,false,97,-915,3753,25558,25.350000000000023,6,false,100,100,0,0,0,0,0,4260,4262,4263,4246,4264,4264,0.0,0.0,0.0,Started waypoint mission,
20.745489783878966,-103.51431860397444,0,0.0,0.0,15,5,-0.1,-3.9000000000000004,-31.6,2019-10-25 16:24:52.2550+0000,-0.10551095008850098,0.0,0.0,0.0,false,97,-915,3753,25558,25.350000000000023,6,false,100,100,0,0,0,0,0,4260,4262,4263,4246,4264,4264,0.0,0.0,0.0,Started waypoint mission,
20.74548977026738,-103.51431860178725,0,0.0,0.0,15,5,-0.1,-3.9000000000000004,-31.6,2019-10-25 16:24:52.3540+0000,-0.09820401668548584,0.0,0.0,0.0,false,97,-915,3753,25558,25.350000000000023,6,false,100,100,0,0,0,0,0,4260,4262,4263,4246,4264,4264,0.0,0.0,0.0,Started waypoint mission,
20.74548975774139,-103.51431859983963,0,0.0,0.0,15,5,-0.1,-3.8000000000000003,-31.6,2019-10-25 16:24:52.4730+0000,-0.11830902099609375,0.0,0.0,0.0,false,97,-915,3753,25558,25.350000000000023,6,false,100,100,0,0,0,0,0,4260,4262,4263,4246,4264,4264,0.0,0.0,0.0,Started waypoint mission,
20.74548974528392,-103.51431859770396,0,0.0,0.0,15,5,-0.1,-3.8000000000000003,-31.700000000000003,2019-10-25 16:24:52.5560+0000,-0.08181607723236084,0.0,0.0,0.0,false,97,-915,3753,25558,25.350000000000023,6,false,100,100,0,0,0,0,0,4260,4262,4263,4246,4264,4264,0.0,0.0,0.0,Started waypoint mission,
20.745489731888597,-103.51431859411466,0,0.0,0.0,15,5,-0.1,-3.8000000000000003,-31.700000000000003,2019-10-25 16:24:52.6710+0000,-0.11445307731628418,0.0,0.0,0.0,false,97,-915,3753,25558,25.350000000000023,6,false,100,100,0,0,0,0,0,4260,4262,4263,4246,4264,4264,0.0,0.0,0.0,Started waypoint mission,
20.745489718279156,-103.51431859038823,0,0.0,0.0,15,5,-0.1,-3.8000000000000003,-31.700000000000003,2019-10-25 16:24:52.7830+0000,-0.11201202869415283,0.0,0.0,0.0,false,97,-915,3753,25558,25.350000000000023,6,false,100,100,0,0,0,0,0,4260,4262,4263,4246,4264,4264,0.0,0.0,0.0,Started waypoint mission,
20.745489705950153,-103.5143185879881,0,0.0,0.0,15,5,-0.1,-3.8000000000000003,-31.700000000000003,2019-10-25 16:24:52.8790+0000,-0.09539902210235596,0.0,0.0,0.0,false,97,-915,3753,25558,25.350000000000023,6,false,100,100,0,0,0,0,0,4260,4262,4263,4246,4264,4264,0.0,0.0,0.0,Started waypoint mission,
20.745489694060083,-103.51431858570821,0,0.0,0.0,15,5,-0.2,-3.8000000000000003,-31.700000000000003,2019-10-25 16:24:52.8880+0000,-0.007668972015380859,0.0,0.0,0.0,false,97,-915,3753,25558,25.350000000000023,6,false,100,100,0,0,0,0,0,4260,4262,4263,4246,4264,4264,0.0,0.0,0.0,Started waypoint mission,
20.74548968410565,-103.51431858933816,0,0.0,0.0,15,5,-0.2,-3.8000000000000003,-31.700000000000003,2019-10-25 16:24:52.9890+0000,-0.10024106502532959,0.0,0.0,0.0,false,97,-915,3753,25558,25.350000000000023,6,false,100,100,0,0,0,0,0,4260,4262,4263,4246,4264,4264,0.0,0.0,0.0,Started waypoint mission,
20.745489672770155,-103.51431859416702,0,0.0,0.0,15,5,-0.2,-3.8000000000000003,-31.700000000000003,2019-10-25 16:24:53.1030+0000,-0.11386895179748535,0.0,0.0,0.0,false,97,-1081,3753,25528,25.350000000000023,6,false,100,100,0,0,0,0,0,0,0,0,0,0,0,0.0,0.0,0.0,Started waypoint mission,
20.74548965851407,-103.51431860185309,0,0.0,0.0,15,5,-0.2,-3.8000000000000003,-31.700000000000003,2019-10-25 16:24:53.1870+0000,-0.08300304412841797,0.0,0.0,0.0,false,97,-1081,3753,25528,25.350000000000023,6,false,100,100,0,0,0,0,0,4257,4254,4255,4238,4257,4264,0.0,0.0,0.0,Started waypoint mission,
20.745489643652025,-103.51431861226071,0,0.0,0.0,15,5,-0.2,-3.8000000000000003,-31.8,2019-10-25 16:24:53.3140+0000,-0.12724006175994873,0.0,0.0,0.0,false,97,-1081,3753,25528,25.350000000000023,6,false,100,100,0,0,0,0,0,4257,4254,4255,4238,4257,4264,0.0,0.0,0.0,Started waypoint mission,
20.74548962739605,-103.51431862278137,0,0.0,0.0,15,5,-0.2,-3.8000000000000003,-31.8,2019-10-25 16:24:53.4140+0000,-0.09943604469299316,0.0,0.0,0.0,false,97,-1081,3753,25528,25.350000000000023,6,false,100,100,0,0,0,0,0,4257,4254,4255,4238,4257,4264,0.0,0.0,0.0,Started waypoint mission,
20.745489609544897,-103.5143186342505,0,0.0,0.0,15,5,-0.2,-3.8000000000000003,-31.8,2019-10-25 16:24:53.5140+0000,-0.09941506385803223,0.0,0.0,0.0,false,97,-1081,3753,25528,25.350000000000023,6,false,100,100,0,0,0,0,0,4257,4254,4255,4238,4257,4264,0.0,0.0,0.0,Started waypoint mission,
20.745489595162486,-103.51431864250182,0,0.0,0.0,15,5,-0.2,-3.8000000000000003,-31.8,2019-10-25 16:24:53.6150+0000,-0.10034704208374023,0.0,0.0,0.0,false,97,-1081,3753,25528,25.350000000000023,11,false,100,100,0,0,0,0,0,4257,4254,4255,4238,4257,4264,0.0,0.0,0.0,Started waypoint mission,
20.745489580852883,-103.51431865100214,0,0.0,0.0,15,5,-0.1,-3.8000000000000003,-31.8,2019-10-25 16:24:53.7310+0000,-0.11484003067016602,0.0,0.0,0.0,false,97,-1081,3753,25528,25.350000000000023,11,false,100,100,0,0,0,0,0,4257,4254,4255,4238,4257,4264,0.0,0.0,0.0,Started waypoint mission,
20.74548956404021,-103.5143186530451,0,0.0,0.0,15,5,-0.1,-3.8000000000000003,-31.8,2019-10-25 16:24:53.8400+0000,-0.10901796817779541,0.0,0.0,0.0,false,97,-1081,3753,25528,25.350000000000023,11,false,100,100,0,0,0,0,0,4257,4254,4255,4238,4257,4264,0.0,0.0,0.0,Started waypoint mission,
20.745489545747965,-103.51431865296409,0,0.0,0.0,15,5,-0.1,-3.8000000000000003,-31.8,2019-10-25 16:24:53.9170+0000,-0.0759739875793457,0.0,0.0,0.0,false,97,-1081,3753,25528,25.350000000000023,11,false,100,100,0,0,0,0,0,4257,4254,4255,4238,4257,4264,0.0,0.0,0.0,Started waypoint mission,
20.745489559569386,-103.51431860998107,0,0.0,0.0,15,5,-0.2,-3.8000000000000003,-31.8,2019-10-25 16:24:54.0440+0000,-0.1266568899154663,0.0,0.0,0.0,false,97,-1081,3753,25528,25.350000000000023,11,false,100,100,0,0,0,0,0,4257,4254,4255,4238,4257,4264,0.0,0.0,0.0,Started waypoint mission,
20.745489557246174,-103.51431859910696,0,0.0,0.0,15,5,-0.2,-3.7,-31.8,2019-10-25 16:24:54.1490+0000,-0.10464990139007568,0.0,0.0,0.0,false,97,-2844,3753,25027,25.350000000000023,11,false,100,100,0,0,0,0,0,4201,4108,4180,4151,4218,4206,0.0,0.0,0.0,Started waypoint mission,
20.74548954543747,-103.51431859274432,0,0.0,0.0,15,5,-0.2,-3.6,-31.900000000000002,2019-10-25 16:24:54.2260+0000,-0.07652699947357178,0.0,0.0,0.0,false,97,-2844,3753,25027,25.350000000000023,11,false,100,100,0,0,0,0,0,4201,4108,4180,4151,4218,4206,0.0,0.0,0.0,Started waypoint mission,
20.74548952959045,-103.51431858110433,0,0.0,0.0,15,5,-0.30000000000000004,-3.6,-31.900000000000002,2019-10-25 16:24:54.3560+0000,-0.12888598442077637,0.0,0.0,0.0,false,97,-2844,3753,25027,25.350000000000023,11,false,100,100,0,0,0,0,0,4201,4108,4180,4151,4218,4206,0.0,0.0,0.0,Started waypoint mission,
20.745489514689826,-103.51431856255617,0,0.0,0.0,15,5,-0.30000000000000004,-3.5,-31.900000000000002,2019-10-25 16:24:54.4550+0000,-0.09872603416442871,0.0,0.0,0.0,false,97,-2844,3753,25027,25.350000000000023,11,false,100,100,0,0,0,0,0,4201,4108,4180,4151,4218,4206,0.0,0.0,0.0,Started waypoint mission,
20.7454894981983,-103.51431854325071,0,0.0,0.0,15,5,-0.30000000000000004,-3.5,-31.900000000000002,2019-10-25 16:24:54.5430+0000,-0.08742403984069824,0.0,0.0,0.0,false,97,-2844,3753,25027,25.350000000000023,11,false,100,100,0,0,0,0,0,4201,4108,4180,4151,4218,4206,0.0,0.0,0.0,Started waypoint mission,
20.745489482595357,-103.51431853047104,0,-0.1,0.0,15,5,-0.30000000000000004,-3.4000000000000004,-32.0,2019-10-25 16:24:54.6470+0000,-0.10335302352905273,0.0,0.0,0.0,false,97,-2844,3753,25027,25.350000000000023,11,false,100,100,0,0,0,0,0,4201,4108,4180,4151,4218,4206,0.0,0.0,0.0,Started waypoint mission,
20.745489460902863,-103.51431851977352,0,-0.1,0.0,15,5,-0.1,-3.5,-32.1,2019-10-25 16:24:54.7530+0000,-0.10567498207092285,0.0,0.0,0.0,false,97,-2844,3753,25027,25.350000000000023,11,false,100,100,0,0,0,0,0,4201,4108,4180,4151,4218,4206,0.0,0.0,0.0,Started waypoint mission,
20.74548942950216,-103.51431851359577,0,-0.1,0.1,15,5,-0.2,-3.5,-32.4,2019-10-25 16:24:54.8560+0000,-0.10261392593383789,0.0,0.0,0.1,false,97,-2844,3753,25027,25.350000000000023,11,false,100,100,0,0,0,0,0,4201,4108,4180,4151,4218,4206,0.0,0.0,0.0,Started waypoint mission,
20.74548939319382,-103.51431850518564,0,-0.1,0.1,15,5,-0.30000000000000004,-2.9000000000000004,-33.1,2019-10-25 16:24:54.9560+0000,-0.09953296184539795,0.0,0.0,0.1,false,97,-2844,3753,25027,25.350000000000023,11,false,100,100,0,0,0,0,0,4201,4108,4180,4151,4218,4206,0.0,0.0,0.0,Started waypoint mission,
20.745489357589943,-103.51431848522104,0,-0.2,0.1,15,5,-0.5,-1.3,-34.0,2019-10-25 16:24:55.0830+0000,-0.126662015914917,0.0,0.0,0.1,false,97,-2844,3753,25027,25.350000000000023,11,false,100,100,0,0,0,0,0,4201,4108,4180,4151,4218,4206,0.0,0.0,0.0,Started waypoint mission,
20.745489324675425,-103.5143184320517,0,-0.2,0.0,15,5,-1.0,0.0,-35.2,2019-10-25 16:24:55.1880+0000,-0.10389697551727295,0.0,0.0,0.0,false,97,-4110,3753,25090,25.350000000000023,11,false,100,100,0,0,0,0,0,4135,4117,4146,4128,4146,4162,0.0,0.0,0.0,Started waypoint mission,
20.74548931093107,-103.51431832434429,0,-0.2,0.14142136,15,5,-1.3,0.7000000000000001,-36.7,2019-10-25 16:24:55.3120+0000,-0.12299203872680664,0.0,0.1,-0.1,true,97,-4110,3753,25090,25.350000000000023,11,false,100,100,0,0,0,0,0,4135,4117,4146,4128,4146,4162,0.0,0.0,0.0,Started waypoint mission,
20.745489325970894,-103.5143181610588,3000,-0.2,0.31622776,15,5,-1.3,-0.1,-37.7,2019-10-25 16:24:55.3160+0000,-0.003181934356689453,0.0,0.1,-0.3,true,97,-4110,3753,25090,25.350000000000023,11,false,100,100,0,0,0,0,0,4135,4117,4146,4128,4146,4162,0.0,0.0,0.0,Started waypoint mission,
20.745489354478895,-103.51431795112482,3000,-0.1,0.44721362,15,5,-1.2000000000000002,-1.1,-38.1,2019-10-25 16:24:55.3870+0000,-0.07087397575378418,0.0,0.2,-0.4,true,97,-4110,3753,25090,25.350000000000023,11,false,100,100,0,0,0,0,0,4135,4117,4146,4128,4146,4162,0.0,0.0,0.0,Started waypoint mission,
20.74548939661991,-103.51431770407106,3000,-0.1,0.44721362,15,5,-1.3,-1.8,-38.1,2019-10-25 16:24:55.4860+0000,-0.0981900691986084,0.0,0.2,-0.4,true,97,-4110,3753,25090,25.350000000000023,11,false,100,100,0,0,0,0,0,4135,4117,4146,4128,4146,4162,0.0,0.0,0.0,Started waypoint mission,
20.745489411126652,-103.51431735145589,3000,0.0,0.5,15,5,-1.4000000000000001,-2.9000000000000004,-37.800000000000004,2019-10-25 16:24:55.6180+0000,-0.13109898567199707,0.0,0.3,-0.4,true,97,-4110,3753,25090,25.350000000000023,11,false,100,100,0,0,0,0,0,4135,4117,4146,4128,4146,4162,0.0,0.0,0.0,Started waypoint mission,
20.74548940881428,-103.51431695789407,4000,0.0,0.42426407,15,5,-1.7000000000000002,-3.9000000000000004,-37.4,2019-10-25 16:24:55.7160+0000,-0.09760701656341553,0.0,0.3,-0.3,true,97,-4110,3753,25090,25.350000000000023,11,false,100,100,0,0,0,0,0,4135,4117,4146,4128,4146,4162,0.0,0.0,0.0,Started waypoint mission,
20.745489408514608,-103.51431662830159,4000,0.0,0.42426407,15,5,-2.1,-4.1000000000000005,-36.9,2019-10-25 16:24:55.8310+0000,-0.11452698707580566,0.0,0.3,-0.3,true,97,-4110,3753,25090,25.350000000000023,11,false,100,100,0,0,0,0,0,4135,4117,4146,4128,4146,4162,0.0,0.0,0.0,Started waypoint mission,
20.74548939956236,-103.51431631763568,4000,0.0,0.42426407,15,5,-2.4000000000000004,-3.9000000000000004,-36.4,2019-10-25 16:24:55.9340+0000,-0.10259497165679932,0.0,0.3,-0.3,true,97,-4110,3753,25090,25.350000000000023,11,false,100,100,0,0,0,0,0,4135,4117,4146,4128,4146,4162,0.0,0.0,0.0,Started waypoint mission,
20.74548936836946,-103.51431596327738,4000,0.0,0.36055514,15,5,-2.4000000000000004,-3.8000000000000003,-36.0,2019-10-25 16:24:56.0310+0000,-0.09516298770904541,0.0,0.3,-0.2,true,97,-4110,3753,25090,25.350000000000023,11,false,100,100,0,0,0,0,0,4135,4117,4146,4128,4146,4162,0.0,0.0,0.0,Started waypoint mission,
20.745489330215598,-103.51431561102265,4000,0.0,0.44721362,15,5,-2.2,-3.4000000000000004,-35.7,2019-10-25 16:24:56.1210+0000,-0.08987295627593994,0.0,0.2,-0.4,true,97,-14386,3753,23781,25.350000000000023,11,false,100,100,0,0,0,0,0,3926,3934,3916,3896,3915,3949,0.0,0.0,0.0,Started waypoint mission,
20.745489269180965,-103.51431533483762,4000,0.1,0.53851646,15,5,-2.2,-3.4000000000000004,-35.300000000000004,2019-10-25 16:24:56.2170+0000,-0.09488701820373535,0.0,0.2,-0.5,true,97,-14386,3753,23781,25.350000000000023,11,false,100,100,0,0,0,0,0,3926,3934,3916,3896,3915,3949,0.0,0.0,0.0,Started waypoint mission,
20.745489195639692,-103.51431507559016,4000,0.1,0.6324555,15,5,-2.2,-3.7,-35.2,2019-10-25 16:24:56.3270+0000,-0.11012899875640869,0.0,0.2,-0.6,true,97,-14386,3753,23781,25.350000000000023,11,false,100,100,0,0,0,0,0,3926,3934,3916,3896,3915,3949,0.0,0.0,0.0,Started waypoint mission,
20.745489115814,-103.51431473299172,4000,0.2,0.6324555,15,5,-2.2,-3.3000000000000003,-35.300000000000004,2019-10-25 16:24:56.4560+0000,-0.12781906127929688,0.0,0.2,-0.6,true,97,-14386,3753,23781,25.350000000000023,11,false,100,100,0,0,0,0,0,3926,3934,3916,3896,3915,3949,0.0,0.0,0.0,Started waypoint mission,
20.745489028164343,-103.51431436804558,4000,0.30000000000000004,0.5830952,15,5,-2.5,-3.0,-35.300000000000004,2019-10-25 16:24:56.5520+0000,-0.09539401531219482,0.0,0.3,-0.5,true,97,-14386,3753,23781,25.350000000000023,11,false,100,100,0,0,0,0,0,3926,3934,3916,3896,3915,3949,0.0,0.0,0.0,Started waypoint mission,
20.74548890722121,-103.51431404166878,5000,0.30000000000000004,0.5,15,5,-2.9000000000000004,-3.0,-35.5,2019-10-25 16:24:56.6550+0000,-0.10272395610809326,0.0,0.3,-0.4,true,97,-14386,3753,23781,25.350000000000023,11,false,100,100,0,0,0,0,0,3926,3934,3916,3896,3915,3949,0.0,0.0,0.0,Started waypoint mission,
20.745488781952837,-103.51431371977532,5000,0.30000000000000004,0.5,15,5,-3.0,-3.2,-35.7,2019-10-25 16:24:56.7570+0000,-0.10134601593017578,0.0,0.3,-0.4,true,97,-14386,3753,23781,25.350000000000023,11,false,100,100,0,0,0,0,0,3926,3934,3916,3896,3915,3949,0.0,0.0,0.0,Started waypoint mission,
20.745488705653624,-103.51431338837064,5000,0.4,0.44721362,15,5,-2.7,-3.2,-35.800000000000004,2019-10-25 16:24:56.8460+0000,-0.08842408657073975,0.0,0.2,-0.4,true,97,-14386,3753,23781,25.350000000000023,11,false,100,100,0,0,0,0,0,3926,3934,3916,3896,3915,3949,0.0,0.0,0.0,Started waypoint mission,
20.74548863760872,-103.51431305922743,5000,0.4,0.44721362,15,5,-2.4000000000000004,-3.1,-35.9,2019-10-25 16:24:56.9560+0000,-0.10870301723480225,0.0,0.2,-0.4,true,97,-14386,3753,23781,25.350000000000023,11,false,100,100,0,0,0,0,0,3926,3934,3916,3896,3915,3949,0.0,0.0,0.0,Started waypoint mission,
20.745488554753116,-103.51431270089408,5000,0.5,0.42426407,14,5,-2.6,-3.1,-36.0,2019-10-25 16:24:57.0780+0000,-0.12153196334838867,0.0,0.3,-0.3,true,97,-14386,3753,23781,25.350000000000023,11,false,100,100,0,0,0,0,0,3926,3934,3916,3896,3915,3949,0.0,0.0,0.0,Started waypoint mission,
20.745488465923557,-103.51431233198625,5000,0.5,0.42426407,14,5,-2.9000000000000004,-3.2,-36.0,2019-10-25 16:24:57.1800+0000,-0.10112988948822021,0.0,0.3,-0.3,true,97,-17437,3753,23253,25.350000000000023,11,false,100,100,0,0,0,0,0,3926,3934,3916,3896,3915,3949,0.0,0.0,0.0,Started waypoint mission,
20.745488404103092,-103.51431193976177,5000,0.5,0.5,14,5,-3.2,-3.2,-35.9,2019-10-25 16:24:57.2830+0000,-0.10200393199920654,0.0,0.3,-0.4,true,97,-17437,3753,23253,25.350000000000023,11,false,100,100,0,0,0,0,0,3926,3934,3916,3896,3915,3949,0.0,0.0,0.0,Started waypoint mission,
20.74548835016006,-103.51431154103399,5000,0.6000000000000001,0.5,14,5,-3.1,-3.5,-35.800000000000004,2019-10-25 16:24:57.2860+0000,-0.002442002296447754,0.0,0.3,-0.4,true,97,-17437,3753,23253,25.350000000000023,11,false,100,100,0,0,0,0,0,3926,3934,3916,3896,3915,3949,0.0,0.0,0.0,Started waypoint mission,
20.745488252543105,-103.51431119909438,5000,0.6000000000000001,0.5830952,14,5,-3.2,-3.7,-35.6,2019-10-25 16:24:57.4770+0000,-0.18999695777893066,0.0,0.3,-0.5,true,97,-17437,3753,23253,25.350000000000023,11,false,100,100,0,0,0,0,0,3926,3934,3916,3896,3915,3949,0.0,0.0,0.0,Started waypoint mission,
20.745488144757605,-103.51431087559047,5000,0.6000000000000001,0.5,14,5,-3.3000000000000003,-3.7,-35.300000000000004,2019-10-25 16:24:57.4800+0000,-0.0025739669799804688,0.0,0.3,-0.4,true,97,-17437,3753,23253,25.350000000000023,11,false,100,100,0,0,0,0,0,3926,3934,3916,3896,3915,3949,0.0,0.0,0.0,Started waypoint mission,
20.74548802968346,-103.51431053521297,5000,0.7000000000000001,0.44721362,14,5,-3.2,-3.6,-35.2,2019-10-25 16:24:57.5780+0000,-0.09774196147918701,0.0,0.2,-0.4,true,97,-17437,3753,23253,25.350000000000023,11,false,100,100,0,0,0,0,0,0,0,0,0,0,0,0.0,0.0,0.0,Started waypoint mission,
20.745487911703734,-103.51431020212715,6000,0.7000000000000001,0.44721362,14,5,-3.1,-3.4000000000000004,-35.2,2019-10-25 16:24:57.7070+0000,-0.1278139352798462,0.0,0.2,-0.4,true,97,-17437,3753,23253,25.350000000000023,11,false,100,100,0,0,0,0,0,3878,3881,3881,3848,3886,3872,0.0,0.0,0.0,Started waypoint mission,
20.74548783545163,-103.51430982354803,6000,0.7000000000000001,0.53851646,14,5,-3.0,-3.3000000000000003,-35.300000000000004,2019-10-25 16:24:57.8120+0000,-0.1046520471572876,0.0,0.2,-0.5,true,97,-17437,3753,23253,25.350000000000023,11,false,100,100,0,0,0,0,0,3878,3881,3881,3848,3886,3872,0.0,0.0,0.0,Started waypoint mission,
20.745487770635606,-103.51430943550663,6000,0.8,0.44721362,14,5,-3.1,-3.2,-35.4,2019-10-25 16:24:57.9340+0000,-0.12106204032897949,0.0,0.2,-0.4,true,97,-17437,3753,23253,25.350000000000023,11,false,100,100,0,0,0,0,0,3878,3881,3881,3848,3886,3872,0.0,0.0,0.0,Started waypoint mission,
20.74548771227744,-103.51430904961839,6000,0.8,0.44721362,14,5,-3.2,-3.4000000000000004,-35.5,2019-10-25 16:24:58.0080+0000,-0.07328903675079346,0.0,0.2,-0.4,true,97,-17437,3753,23253,25.350000000000023,11,false,100,100,0,0,0,0,0,3878,3881,3881,3848,3886,3872,0.0,0.0,0.0,Started waypoint mission,
20.745487655326016,-103.51430866058587,6000,0.8,0.44721362,14,5,-3.4000000000000004,-3.6,-35.5,2019-10-25 16:24:58.1190+0000,-0.1102149486541748,0.0,0.2,-0.4,true,97,-17437,3753,23253,25.350000000000023,11,false,100,100,0,0,0,0,0,3878,3881,3881,3848,3886,3872,0.0,0.0,0.0,Started waypoint mission,
20.745487570873095,-103.51430839510739,6000,0.9,0.44721362,14,5,-3.3000000000000003,-3.7,-35.5,2019-10-25 16:24:58.2370+0000,-0.11805200576782227,0.0,0.2,-0.4,true,97,-17437,3753,23253,25.350000000000023,11,false,100,100,0,0,0,0,0,3878,3881,3881,3848,3886,3872,0.0,0.0,0.0,Started waypoint mission,
20.74548747945913,-103.51430816390095,6000,0.9,0.44721362,14,5,-3.2,-3.5,-35.5,2019-10-25 16:24:58.3170+0000,-0.07920897006988525,0.0,0.2,-0.4,true,97,-17437,3753,23253,25.350000000000023,14,false,100,100,0,0,0,0,0,3878,3881,3881,3848,3886,3872,0.0,0.0,0.0,Started waypoint mission,
20.74548738440516,-103.51430782307185,6000,0.9,0.36055514,14,5,-3.3000000000000003,-3.6,-35.5,2019-10-25 16:24:58.4180+0000,-0.10055196285247803,0.0,0.2,-0.3,true,97,-17437,3753,23253,25.350000000000023,14,false,100,100,0,0,0,0,0,3878,3881,3881,3848,3886,3872,0.0,0.0,0.0,Started waypoint mission,
20.745487283248732,-103.51430745790778,6000,0.9,0.28284273,14,5,-3.9000000000000004,-4.1000000000000005,-35.5,2019-10-25 16:24:58.5450+0000,-0.1264050006866455,0.0,0.2,-0.2,true,97,-17437,3753,23253,25.350000000000023,14,false,100,100,0,0,0,0,0,3878,3881,3881,3848,3886,3872,0.0,0.0,0.0,Started waypoint mission,
20.7454872087673,-103.51430716364152,7000,0.9,0.28284273,14,5,-4.4,-4.2,-35.6,2019-10-25 16:24:58.6390+0000,-0.09253394603729248,0.0,0.2,-0.2,true,97,-18100,3753,23138,25.350000000000023,14,false,100,100,0,0,0,0,0,3851,3843,3867,3814,3851,3861,0.0,0.0,0.0,Started waypoint mission,
20.745487142996268,-103.51430690436456,7000,0.9,0.36055514,14,5,-4.6000000000000005,-4.2,-35.7,2019-10-25 16:24:58.7380+0000,-0.09830200672149658,0.0,0.2,-0.3,true,97,-18100,3753,23138,25.350000000000023,14,false,100,100,0,0,0,0,0,3851,3843,3867,3814,3851,3861,0.0,0.0,0.0,Started waypoint mission,
20.745487048580383,-103.51430669871577,7000,1.0,0.41231057,14,5,-4.4,-4.0,-35.9,2019-10-25 16:24:58.8370+0000,-0.09889495372772217,0.0,0.1,-0.4,true,97,-18100,3753,23138,25.350000000000023,14,false,100,100,0,0,0,0,0,3851,3843,3867,3814,3851,3861,0.0,0.0,0.0,Started waypoint mission,
20.74548695996076,-103.51430653576895,7000,1.0,0.60827625,14,5,-4.0,-3.7,-36.1,2019-10-25 16:24:58.9490+0000,-0.11170399188995361,0.0,0.1,-0.6,true,97,-18100,3753,23138,25.350000000000023,14,false,100,100,0,0,0,0,0,3851,3843,3867,3814,3851,3861,0.0,0.0,0.0,Started waypoint mission,
20.745486940075676,-103.51430636863381,7000,1.1,0.8,14,5,-3.9000000000000004,-3.3000000000000003,-36.300000000000004,2019-10-25 16:24:59.0480+0000,-0.09785103797912598,0.0,0.0,-0.8,true,97,-18100,3753,23138,25.350000000000023,14,false,100,100,0,0,0,0,0,3851,3843,3867,3814,3851,3861,0.0,0.0,0.0,Started waypoint mission,
20.745486938065373,-103.51430622194356,7000,1.2000000000000002,1.0,14,5,-3.8000000000000003,-3.1,-36.4,2019-10-25 16:24:59.1540+0000,-0.10616207122802734,0.0,0.0,-1.0,true,97,-18100,3753,23138,25.350000000000023,14,false,100,100,0,0,0,0,0,3851,3843,3867,3814,3851,3861,0.0,0.0,0.0,Started waypoint mission,
20.745486883713543,-103.51430615477337,7000,1.2000000000000002,1.1,14,5,-3.6,-2.9000000000000004,-36.5,2019-10-25 16:24:59.2570+0000,-0.10190701484680176,0.0,0.0,-1.1,true,97,-18100,3753,23138,25.350000000000023,14,false,100,100,0,0,0,0,0,3851,3843,3867,3814,3851,3861,0.0,0.0,0.0,Started waypoint mission,
20.745486828768723,-103.51430611731374,7000,1.4000000000000001,1.3,14,5,-3.4000000000000004,-2.8000000000000003,-36.5,2019-10-25 16:24:59.2600+0000,-0.002290964126586914,0.0,0.0,-1.3,true,97,-18100,3753,23138,25.350000000000023,14,false,100,100,0,0,0,0,0,3851,3843,3867,3814,3851,3861,0.0,0.0,0.0,Started waypoint mission,
20.74548690935729,-103.51430597114444,7000,1.5,1.5,15,5,-3.3000000000000003,-2.8000000000000003,-36.6,2019-10-25 16:24:59.4780+0000,-0.21764707565307617,0.0,0.0,-1.5,true,97,-18100,3753,23138,25.350000000000023,14,false,100,100,0,0,0,0,0,3851,3843,3867,3814,3851,3861,0.0,0.0,0.0,Started waypoint mission,
20.74548702624142,-103.51430581420527,7000,1.7000000000000002,1.8,15,5,-3.0,-3.1,-36.6,2019-10-25 16:24:59.5780+0000,-0.09846901893615723,0.0,0.0,-1.8,true,97,-18100,3753,23138,25.350000000000023,14,false,100,100,0,0,0,0,0,3851,3843,3867,3814,3851,3861,0.0,0.0,0.0,Started waypoint mission,
20.745487084281287,-103.51430570981131,8000,1.8,2.1,14,5,-2.8000000000000003,-3.3000000000000003,-36.6,2019-10-25 16:24:59.6770+0000,-0.09882700443267822,0.0,0.0,-2.1,true,97,-18170,3753,23061,25.350000000000023,14,false,100,100,0,0,0,0,0,3914,3837,3856,3806,3839,3847,0.0,0.0,0.0,Started waypoint mission,
20.74548713399413,-103.51430562180667,8000,2.1,2.3,14,5,-2.6,-3.3000000000000003,-36.5,2019-10-25 16:24:59.6810+0000,-0.002877950668334961,0.0,0.0,-2.3,true,97,-18170,3753,23061,25.350000000000023,14,false,100,100,0,0,0,0,0,3914,3837,3856,3806,3839,3847,0.0,0.0,0.0,Started waypoint mission,
20.74548725110327,-103.51430541599109,8000,2.3000000000000003,2.5,15,5,-2.5,-3.4000000000000004,-36.4,2019-10-25 16:24:59.7870+0000,-0.10613703727722168,0.0,0.0,-2.5,true,97,-18170,3753,23061,25.350000000000023,14,false,100,100,0,0,0,0,0,3914,3837,3856,3806,3839,3847,0.0,0.0,0.0,Started waypoint mission,
20.74548738463334,-103.51430519000262,8000,2.6,2.8,15,5,-2.4000000000000004,-3.7,-36.300000000000004,2019-10-25 16:24:59.8870+0000,-0.09945392608642578,0.0,0.0,-2.8,true,97,-18170,3753,23061,25.350000000000023,14,false,100,100,0,0,0,0,0,3914,3837,3856,3806,3839,3847,0.0,0.0,0.0,Started waypoint mission,
20.745487230363413,-103.51430493778513,8000,2.9000000000000004,3.0,15,5,-2.4000000000000004,-4.0,-36.1,2019-10-25 16:25:00.0160+0000,-0.128182053565979,0.0,0.0,-3.0,true,97,-18170,3753,23061,25.350000000000023,14,false,100,100,0,0,0,0,0,3914,3837,3856,3806,3839,3847,0.0,0.0,0.0,Started waypoint mission,
20.74548700399952,-103.51430467817956,8000,3.2,3.1,15,5,-3.2,-4.1000000000000005,-35.9,2019-10-25 16:25:00.1150+0000,-0.09750008583068848,0.0,0.0,-3.1,true,97,-18170,3753,23061,25.350000000000023,14,false,100,100,0,0,0,0,0,3914,3837,3856,3806,3839,3847,0.0,0.0,0.0,Started waypoint mission,
20.7454869654763,-103.51430439353562,8000,3.5,3.3,15,5,-4.0,-4.2,-35.5,2019-10-25 16:25:00.2130+0000,-0.09711301326751709,0.0,0.0,-3.3,true,97,-18170,3753,23061,25.350000000000023,14,false,100,100,0,0,0,0,0,3914,3837,3856,3806,3839,3847,0.0,0.0,0.0,Started waypoint mission,
20.745486955884925,-103.51430410333133,8000,3.9000000000000004,3.3,15,5,-4.4,-4.5,-35.2,2019-10-25 16:25:00.3070+0000,-0.09379196166992188,0.0,0.0,-3.3,true,97,-18170,3753,23061,25.350000000000023,14,false,100,100,0,0,0,0,0,3914,3837,3856,3806,3839,3847,0.0,0.0,0.0,Started waypoint mission,
20.745487026170725,-103.51430392573879,8000,4.2,3.3,15,5,-4.4,-4.9,-34.9,2019-10-25 16:25:00.4150+0000,-0.10670101642608643,0.0,0.0,-3.3,true,97,-18170,3753,23061,25.350000000000023,14,false,100,100,0,0,0,0,0,3914,3837,3856,3806,3839,3847,0.0,0.0,0.0,Started waypoint mission,
20.745487118889912,-103.51430378575262,8000,4.6000000000000005,3.4,15,5,-4.1000000000000005,-5.2,-34.800000000000004,2019-10-25 16:25:00.5210+0000,-0.10412490367889404,0.0,0.0,-3.4,true,97,-18170,3753,23061,25.350000000000023,14,false,100,100,0,0,0,0,0,3914,3837,3856,3806,3839,3847,0.0,0.0,0.0,Started waypoint mission,
20.74548715198544,-103.51430367481181,9000,4.9,3.4,15,5,-3.7,-5.1000000000000005,-34.800000000000004,2019-10-25 16:25:00.6510+0000,-0.12952196598052979,0.0,0.0,-3.4,true,97,-22723,3753,22720,25.350000000000023,14,false,100,100,0,0,0,0,0,3769,3758,3742,3727,3754,3731,0.0,0.0,0.0,Started waypoint mission,
20.74548717460392,-103.51430358370384,9000,5.300000000000001,3.2,15,5,-3.4000000000000004,-5.0,-34.800000000000004,2019-10-25 16:25:00.7360+0000,-0.08511710166931152,0.0,0.0,-3.2,true,97,-22723,3753,22720,25.350000000000023,14,false,100,100,0,0,0,0,0,3769,3758,3742,3727,3754,3731,0.0,0.0,0.0,Started waypoint mission,
20.745487217426753,-103.51430353858234,9000,5.6000000000000005,3.2,15,5,-3.5,-4.800000000000001,-34.9,2019-10-25 16:25:00.8370+0000,-0.09993696212768555,0.0,0.0,-3.2,true,97,-22723,3753,22720,25.350000000000023,14,false,100,100,0,0,0,0,0,3769,3758,3742,3727,3754,3731,0.0,0.0,0.0,Started waypoint mission,
20.745487261985957,-103.51430351112654,9000,5.9,3.1016126,15,5,-3.5,-4.6000000000000005,-35.0,2019-10-25 16:25:00.9490+0000,-0.11140596866607666,0.0,-0.1,-3.1,true,97,-22723,3753,22720,25.350000000000023,14,false,100,100,0,0,0,0,0,3769,3758,3742,3727,3754,3731,0.0,0.0,0.0,Started waypoint mission,
20.745487296083336,-103.5143034736547,9000,6.2,3.2015622,15,5,-3.3000000000000003,-4.3,-35.2,2019-10-25 16:25:01.0480+0000,-0.09839701652526855,0.0,-0.1,-3.2,true,97,-22723,3753,22720,25.350000000000023,14,false,100,100,0,0,0,0,0,3769,3758,3742,3727,3754,3731,0.0,0.0,0.0,Started waypoint mission,
20.745487329328608,-103.5143034414182,9000,6.5,3.3015149,15,5,-3.1,-4.3,-35.300000000000004,2019-10-25 16:25:01.1550+0000,-0.10702395439147949,0.0,-0.1,-3.3,true,97,-22723,3753,22720,25.350000000000023,14,false,100,100,0,0,0,0,0,3769,3758,3742,3727,3754,3731,0.0,0.0,0.0,Started waypoint mission,
20.74548740060791,-103.5143035419801,9000,6.9,3.3015149,15,5,-3.1,-4.5,-35.300000000000004,2019-10-25 16:25:01.2480+0000,-0.09208893775939941,0.0,-0.1,-3.3,true,97,-22723,3753,22720,25.350000000000023,14,false,100,100,0,0,0,0,0,3769,3758,3742,3727,3754,3731,0.0,0.0,0.0,Started waypoint mission,
20.745487479190775,-103.51430367323697,9000,7.2,3.3015149,15,5,-2.9000000000000004,-4.4,-35.300000000000004,2019-10-25 16:25:01.3560+0000,-0.10696601867675781,0.0,-0.1,-3.3,true,97,-22723,3753,22720,25.350000000000023,14,false,100,100,0,0,0,0,0,3769,3758,3742,3727,3754,3731,0.0,0.0,0.0,Started waypoint mission,
20.745487533432602,-103.51430381960435,9000,7.6000000000000005,3.3015149,15,5,-2.5,-4.1000000000000005,-35.300000000000004,2019-10-25 16:25:01.4990+0000,-0.1428380012512207,0.0,-0.1,-3.3,true,97,-22723,3753,22720,25.350000000000023,14,false,100,100,0,0,0,0,0,3769,3758,3742,3727,3754,3731,0.0,0.0,0.0,Started waypoint mission,
20.7454875807968,-103.51430397465971,9000,7.9,3.2015622,15,5,-2.2,-3.9000000000000004,-35.300000000000004,2019-10-25 16:25:01.5780+0000,-0.07841801643371582,0.0,-0.1,-3.2,true,97,-22723,3753,22720,25.350000000000023,14,false,100,100,0,0,0,0,0,3769,3758,3742,3727,3754,3731,0.0,0.0,0.0,Started waypoint mission,
20.745487623364706,-103.51430419270213,10000,8.200000000000001,3.1016126,15,5,-2.0,-3.6,-35.300000000000004,2019-10-25 16:25:01.6770+0000,-0.09784102439880371,0.0,-0.1,-3.1,true,97,-26422,3715,22221,25.350000000000023,14,false,100,100,0,0,0,0,0,3703,3722,3761,3699,3707,3742,0.0,0.0,0.0,Started waypoint mission,
20.745487662855787,-103.51430442310058,10000,8.5,3.2015622,15,5,-1.9000000000000001,-3.4000000000000004,-35.300000000000004,2019-10-25 16:25:01.6780+0000,-0.0008720159530639648,0.0,-0.1,-3.2,true,97,-26422,3715,22221,25.350000000000023,14,false,100,100,0,0,0,0,0,3703,3722,3761,3699,3707,3742,0.0,0.0,0.0,Started waypoint mission,
20.745487676254275,-103.51430466513042,10000,8.8,3.2015622,15,5,-1.9000000000000001,-3.3000000000000003,-35.300000000000004,2019-10-25 16:25:01.7770+0000,-0.09823906421661377,0.0,-0.1,-3.2,true,97,-26422,3715,22221,25.350000000000023,14,false,100,100,0,0,0,0,0,3703,3722,3761,3699,3707,3742,0.0,0.0,0.0,Started waypoint mission,
20.745487680627612,-103.51430490205892,10000,9.200000000000001,3.1016126,15,5,-1.9000000000000001,-3.3000000000000003,-35.300000000000004,2019-10-25 16:25:01.8800+0000,-0.10223901271820068,0.0,-0.1,-3.1,true,97,-26422,3715,22221,25.350000000000023,14,false,100,100,0,0,0,0,0,3703,3722,3761,3699,3707,3742,0.0,0.0,0.0,Started waypoint mission,
20.74548769006491,-103.51430514472926,10000,9.5,3.2015622,15,5,-2.1,-3.2,-35.4,2019-10-25 16:25:02.1070+0000,-0.22668004035949707,0.0,-0.1,-3.2,true,97,-26422,3715,22221,25.350000000000023,14,false,100,100,0,0,0,0,0,3703,3722,3761,3699,3707,3742,0.0,0.0,0.0,Started waypoint mission,
20.74548769751091,-103.5143053885673,10000,9.8,3.2015622,15,5,-2.1,-3.2,-35.5,2019-10-25 16:25:02.1180+0000,-0.009682059288024902,0.0,-0.1,-3.2,true,97,-26422,3715,22221,25.350000000000023,14,false,100,100,0,0,0,0,0,0,0,0,0,0,0,0.0,0.0,0.0,Started waypoint mission,
20.74548768583814,-103.51430563711907,10000,10.100000000000001,3.1016126,15,5,-2.0,-3.0,-35.6,2019-10-25 16:25:02.2360+0000,-0.11797404289245605,0.0,-0.1,-3.1,true,97,-26422,3715,22221,25.350000000000023,14,false,100,100,0,0,0,0,0,3703,3722,3761,3699,3707,3742,0.0,0.0,0.0,Started waypoint mission,
20.74548766722582,-103.51430587875613,10000,10.5,3.1016126,15,5,-2.0,-2.8000000000000003,-35.6,2019-10-25 16:25:02.3180+0000,-0.0808950662612915,0.0,-0.1,-3.1,true,97,-26422,3715,22221,25.350000000000023,14,false,100,100,0,0,0,0,0,3703,3722,3761,3699,3707,3742,0.0,0.0,0.0,Started waypoint mission,
20.74548764992597,-103.51430613144237,10000,10.8,3.1016126,15,5,-2.0,-2.7,-35.6,2019-10-25 16:25:02.4480+0000,-0.12985491752624512,0.0,-0.1,-3.1,true,97,-26422,3715,22221,25.350000000000023,14,false,100,100,0,0,0,0,0,3703,3722,3761,3699,3707,3742,0.0,0.0,0.0,Started waypoint mission,
20.745487630176648,-103.51430637822878,10000,11.100000000000001,3.1016126,15,5,-2.1,-2.4000000000000004,-35.5,2019-10-25 16:25:02.5460+0000,-0.09749794006347656,0.0,-0.1,-3.1,true,97,-26422,3715,22221,25.350000000000023,14,false,100,100,0,0,0,0,0,3703,3722,3761,3699,3707,3742,0.0,0.0,0.0,Started waypoint mission,
20.74548760982562,-103.5143066058016,11000,11.4,3.1016126,15,5,-2.0,-2.4000000000000004,-35.4,2019-10-25 16:25:02.6490+0000,-0.10172498226165771,0.0,-0.1,-3.1,true,96,-22307,3715,22457,25.350000000000023,14,false,100,100,0,0,0,0,0,3703,3722,3761,3699,3707,3742,0.0,0.0,0.0,Started waypoint mission,
20.745487589005624,-103.51430682159585,11000,11.700000000000001,3.0016663,15,5,-2.1,-2.3000000000000003,-35.300000000000004,2019-10-25 16:25:02.7480+0000,-0.09856903553009033,0.0,-0.1,-3.0,true,96,-22307,3715,22457,25.350000000000023,14,false,100,100,0,0,0,0,0,3703,3722,3761,3699,3707,3742,0.0,0.0,0.0,Started waypoint mission,
20.74548756257148,-103.51430700664132,11000,12.0,3.0,15,5,-2.0,-2.2,-35.300000000000004,2019-10-25 16:25:02.8480+0000,-0.0992269515991211,0.0,0.0,-3.0,true,96,-22307,3715,22457,25.350000000000023,14,false,100,100,0,0,0,0,0,3703,3722,3761,3699,3707,3742,0.0,0.0,0.0,Started waypoint mission,
20.74548753838985,-103.51430717525571,11000,12.3,3.1,15,5,-2.0,-2.0,-35.300000000000004,2019-10-25 16:25:02.9480+0000,-0.09995496273040771,0.0,0.0,-3.1,true,96,-22307,3715,22457,25.350000000000023,14,false,100,100,0,0,0,0,0,3703,3722,3761,3699,3707,3742,0.0,0.0,0.0,Started waypoint mission,
20.745487510302794,-103.51430738192343,11000,12.600000000000001,3.2,16,5,-1.9000000000000001,-2.0,-35.4,2019-10-25 16:25:03.0720+0000,-0.12370908260345459,0.0,0.0,-3.2,true,96,-22307,3715,22457,25.350000000000023,14,false,100,100,0,0,0,0,0,3703,3722,3761,3699,3707,3742,0.0,0.0,0.0,Started waypoint mission,
20.745487486294635,-103.51430758363402,11000,12.9,3.1,16,5,-1.8,-2.1,-35.4,2019-10-25 16:25:03.1730+0000,-0.09941303730010986,0.0,0.0,-3.1,true,96,-22307,3715,22457,25.350000000000023,14,false,100,100,0,0,0,0,0,3752,3744,3763,3710,3752,3763,0.0,0.0,0.0,Started waypoint mission,
20.745487483004688,-103.51430773982536,11000,13.3,3.1,16,5,-1.8,-2.1,-35.5,2019-10-25 16:25:03.2810+0000,-0.10768389701843262,0.0,0.0,-3.1,true,96,-22307,3715,22457,25.350000000000023,14,false,100,100,0,0,0,0,0,3752,3744,3763,3710,3752,3763,0.0,0.0,0.0,Started waypoint mission,
20.745487483551692,-103.51430787584601,11000,13.600000000000001,3.0,16,5,-1.8,-2.1,-35.5,2019-10-25 16:25:03.3890+0000,-0.1072089672088623,0.0,0.0,-3.0,true,96,-22307,3715,22457,25.350000000000023,14,false,100,100,0,0,0,0,0,3752,3744,3763,3710,3752,3763,0.0,0.0,0.0,Started waypoint mission,
20.74548745934874,-103.5143079881849,11000,13.9,3.1,16,5,-1.8,-2.4000000000000004,-35.6,2019-10-25 16:25:03.4900+0000,-0.10065007209777832,0.0,0.0,-3.1,true,96,-22307,3715,22457,25.350000000000023,14,false,100,100,0,0,0,0,0,3752,3744,3763,3710,3752,3763,0.0,0.0,0.0,Started waypoint mission,
20.745487429120406,-103.51430808535599,11000,14.200000000000001,3.0,16,5,-1.9000000000000001,-2.6,-35.6,2019-10-25 16:25:03.4930+0000,-0.0027120113372802734,0.0,0.0,-3.0,true,96,-22307,3715,22457,25.350000000000023,14,false,100,100,0,0,0,0,0,3752,3744,3763,3710,3752,3763,0.0,0.0,0.0,Started waypoint mission,
20.745487381240117,-103.51430816593918,11000,14.5,3.0,16,5,-1.8,-2.7,-35.6,2019-10-25 16:25:03.5960+0000,-0.10237205028533936,0.0,0.0,-3.0,true,96,-22307,3715,22457,25.450000000000045,14,false,100,100,0,0,0,0,0,0,0,0,0,0,0,0.0,0.0,0.0,Started waypoint mission,
20.745487323837924,-103.51430823457213,12000,14.8,3.0,16,5,-2.0,-2.6,-35.7,2019-10-25 16:25:03.7010+0000,-0.10381901264190674,0.0,0.0,-3.0,true,96,-22307,3715,22457,25.450000000000045,14,false,100,100,0,0,0,0,0,3752,3744,3763,3710,3752,3763,0.0,0.0,0.0,Started waypoint mission,
20.745487276981173,-103.51430829887937,12000,15.100000000000001,3.1,16,5,-2.4000000000000004,-2.6,-35.800000000000004,2019-10-25 16:25:03.7980+0000,-0.09644198417663574,0.0,0.0,-3.1,true,96,-22307,3715,22457,25.450000000000045,14,false,100,100,0,0,0,0,0,3752,3744,3763,3710,3752,3763,0.0,0.0,0.0,Started waypoint mission,
20.745487232569623,-103.51430835889067,12000,15.4,3.0,16,5,-2.5,-2.6,-35.800000000000004,2019-10-25 16:25:03.8880+0000,-0.08946800231933594,0.0,0.0,-3.0,true,96,-22307,3715,22457,25.450000000000045,14,false,100,100,0,0,0,0,0,3752,3744,3763,3710,3752,3763,0.0,0.0,0.0,Started waypoint mission,
20.745487166735476,-103.51430841256193,12000,15.700000000000001,3.0,16,5,-2.6,-2.4000000000000004,-35.800000000000004,2019-10-25 16:25:04.0010+0000,-0.1126708984375,0.0,0.0,-3.0,true,96,-22307,3715,22457,25.450000000000045,14,false,100,100,0,0,0,0,0,3752,3744,3763,3710,3752,3763,0.0,0.0,0.0,Started waypoint mission,
20.7454871000899,-103.51430846207008,12000,16.1,3.1,16,5,-2.6,-2.4000000000000004,-35.7,2019-10-25 16:25:04.1140+0000,-0.11176395416259766,0.0,0.0,-3.1,true,96,-21108,3715,22487,25.450000000000045,14,false,100,100,0,0,0,0,0,3743,3726,3758,3729,3746,3762,0.0,0.0,0.0,Started waypoint mission,
20.74548703831119,-103.51430846960959,12000,16.400000000000002,3.0,16,5,-2.7,-2.7,-35.6,2019-10-25 16:25:04.2450+0000,-0.13105392456054688,0.0,0.0,-3.0,true,96,-21108,3715,22487,25.450000000000045,14,false,100,100,0,0,0,0,0,3743,3726,3758,3729,3746,3762,0.0,0.0,0.0,Started waypoint mission,
20.745486976708076,-103.51430845974438,12000,16.7,3.0,16,5,-2.9000000000000004,-2.9000000000000004,-35.5,2019-10-25 16:25:04.3260+0000,-0.07968997955322266,0.0,0.0,-3.0,true,96,-21108,3715,22487,25.450000000000045,14,false,100,100,0,0,0,0,0,3743,3726,3758,3729,3746,3762,0.0,0.0,0.0,Started waypoint mission,
20.745486926526073,-103.51430845360386,12000,17.0,3.0,16,5,-3.2,-2.9000000000000004,-35.5,2019-10-25 16:25:04.4170+0000,-0.09080302715301514,0.0,0.0,-3.0,true,96,-21108,3715,22487,25.450000000000045,14,false,100,100,0,0,0,0,0,3743,3726,3758,3729,3746,3762,0.0,0.0,0.0,Started waypoint mission,
20.745486883279337,-103.51430845166024,12000,17.3,3.0,16,5,-3.2,-2.8000000000000003,-35.5,2019-10-25 16:25:04.5310+0000,-0.11331403255462646,0.0,0.0,-3.0,true,96,-21108,3715,22487,25.450000000000045,14,false,100,100,0,0,0,0,0,3743,3726,3758,3729,3746,3762,0.0,0.0,0.0,Started waypoint mission,
20.74548682590504,-103.51430842118138,13000,17.6,2.9,16,5,-3.1,-2.8000000000000003,-35.6,2019-10-25 16:25:04.6420+0000,-0.11042702198028564,0.0,0.0,-2.9,true,96,-21108,3715,22487,25.450000000000045,14,false,100,100,0,0,0,0,0,3743,3726,3758,3729,3746,3762,0.0,0.0,0.0,Started waypoint mission,
20.745486771678213,-103.51430838606996,13000,17.900000000000002,2.8,16,5,-3.1,-2.8000000000000003,-35.6,2019-10-25 16:25:04.7320+0000,-0.08905398845672607,0.0,0.0,-2.8,true,96,-21108,3715,22487,25.450000000000045,14,false,100,100,0,0,0,0,0,3743,3726,3758,3729,3746,3762,0.0,0.0,0.0,Started waypoint mission,
20.745486720207193,-103.51430835124995,13000,18.2,2.9,16,5,-3.0,-2.9000000000000004,-35.7,2019-10-25 16:25:04.8540+0000,-0.12122595310211182,0.0,0.0,-2.9,true,96,-21108,3715,22487,25.450000000000045,14,false,100,100,0,0,0,0,0,3743,3726,3758,3729,3746,3762,0.0,0.0,0.0,Started waypoint mission,
20.745486668584153,-103.51430831665031,13000,18.5,2.9,16,5,-2.9000000000000004,-3.0,-35.7,2019-10-25 16:25:04.9400+0000,-0.08473098278045654,0.0,0.0,-2.9,true,96,-21108,3715,22487,25.450000000000045,14,false,100,100,0,0,0,0,0,3743,3726,3758,3729,3746,3762,0.0,0.0,0.0,Started waypoint mission,
20.745486554646067,-103.51430822922575,13000,18.8,2.9,16,5,-3.0,-3.0,-35.800000000000004,2019-10-25 16:25:05.0380+0000,-0.09806501865386963,0.0,0.0,-2.9,true,96,-21108,3715,22487,25.450000000000045,14,false,100,100,0,0,0,0,0,3743,3726,3758,3729,3746,3762,0.0,0.0,0.0,Started waypoint mission,
20.745486423283,-103.514308133282,13000,19.1,2.9,16,5,-3.3000000000000003,-2.9000000000000004,-35.800000000000004,2019-10-25 16:25:05.1670+0000,-0.12812602519989014,0.0,0.0,-2.9,true,96,-21237,3715,22451,25.55000000000001,14,false,100,100,0,0,0,0,0,3752,3737,3745,3701,3735,3754,0.0,0.0,0.0,Started waypoint mission,
20.7454863785481,-103.51430807088438,13000,19.400000000000002,2.8,16,5,-3.6,-2.8000000000000003,-35.7,2019-10-25 16:25:05.2480+0000,-0.08014094829559326,0.0,0.0,-2.8,true,96,-21237,3715,22451,25.55000000000001,14,false,100,100,0,0,0,0,0,3752,3737,3745,3701,3735,3754,0.0,0.0,0.0,Started waypoint mission,
20.745486356604015,-103.51430801557606,13000,19.700000000000003,2.8,16,5,-3.6,-2.8000000000000003,-35.7,2019-10-25 16:25:05.3470+0000,-0.09850800037384033,0.0,0.0,-2.8,true,96,-21237,3715,22451,25.55000000000001,14,false,100,100,0,0,0,0,0,3752,3737,3745,3701,3735,3754,0.0,0.0,0.0,Started waypoint mission,
20.74548634087368,-103.51430794529523,13000,19.900000000000002,2.8,16,5,-3.6,-2.8000000000000003,-35.7,2019-10-25 16:25:05.4590+0000,-0.11108696460723877,0.0,0.0,-2.8,true,96,-21237,3715,22451,25.55000000000001,14,false,100,100,0,0,0,0,0,3752,3737,3745,3701,3735,3754,0.0,0.0,0.0,Started waypoint mission,
20.745486337650085,-103.51430787524508,13000,20.200000000000003,2.9,16,5,-3.4000000000000004,-3.0,-35.7,2019-10-25 16:25:05.6000+0000,-0.14043593406677246,0.0,0.0,-2.9,true,96,-21237,3715,22451,25.55000000000001,14,false,100,100,0,0,0,0,0,3752,3737,3745,3701,3735,3754,0.0,0.0,0.0,Started waypoint mission,
20.745486328812337,-103.51430775660302,14000,20.5,3.0,16,5,-3.3000000000000003,-3.1,-35.7,2019-10-25 16:25:05.6790+0000,-0.07831406593322754,0.0,0.0,-3.0,true,96,-21237,3715,22451,25.55000000000001,14,false,100,100,0,0,0,0,0,3752,3737,3745,3701,3735,3754,0.0,0.0,0.0,Started waypoint mission,
20.745486321963703,-103.51430762697012,14000,20.8,2.9,16,5,-3.2,-3.4000000000000004,-35.6,2019-10-25 16:25:05.7780+0000,-0.09861898422241211,0.0,0.0,-2.9,true,96,-21237,3715,22451,25.55000000000001,14,false,100,100,0,0,0,0,0,3752,3737,3745,3701,3735,3754,0.0,0.0,0.0,Started waypoint mission,
20.74548633125533,-103.51430752337389,14000,21.1,2.9,16,5,-3.3000000000000003,-3.5,-35.5,2019-10-25 16:25:05.8770+0000,-0.09819602966308594,0.0,0.0,-2.9,true,96,-21237,3715,22451,25.55000000000001,14,false,100,100,0,0,0,0,0,3752,3737,3745,3701,3735,3754,0.0,0.0,0.0,Started waypoint mission,
20.745486344816573,-103.51430742945085,14000,21.5,3.0,16,5,-3.3000000000000003,-3.6,-35.5,2019-10-25 16:25:05.8800+0000,-0.0027550458908081055,0.0,0.0,-3.0,true,96,-21237,3715,22451,25.55000000000001,14,false,100,100,0,0,0,0,0,3752,3737,3745,3701,3735,3754,0.0,0.0,0.0,Started waypoint mission,
20.745486382301284,-103.51430730798572,14000,21.8,3.0,16,5,-3.3000000000000003,-3.8000000000000003,-35.5,2019-10-25 16:25:05.9840+0000,-0.10304498672485352,0.0,0.0,-3.0,true,96,-21237,3715,22451,25.55000000000001,14,false,100,100,0,0,0,0,0,3752,3737,3745,3701,3735,3754,0.0,0.0,0.0,Started waypoint mission,
20.745486425042557,-103.51430718263104,14000,22.1,2.9,16,5,-3.2,-4.0,-35.4,2019-10-25 16:25:06.0840+0000,-0.09916901588439941,0.0,0.0,-2.9,true,96,-21230,3715,22363,25.650000000000034,14,false,100,100,0,0,0,0,0,0,0,0,0,0,0,0.0,0.0,0.0,Started waypoint mission,
20.745486468621056,-103.51430705557978,14000,22.400000000000002,2.9,16,5,-3.2,-4.1000000000000005,-35.4,2019-10-25 16:25:06.1880+0000,-0.10346198081970215,0.0,0.0,-2.9,true,96,-21230,3715,22363,25.650000000000034,14,false,100,100,0,0,0,0,0,3708,3733,3736,3703,3743,3737,0.0,0.0,0.0,Started waypoint mission,
20.74548651306021,-103.51430693207742,14000,22.700000000000003,2.8,16,5,-3.3000000000000003,-4.1000000000000005,-35.4,2019-10-25 16:25:06.2880+0000,-0.09963607788085938,0.0,0.0,-2.8,true,96,-21230,3715,22363,25.650000000000034,14,false,100,100,0,0,0,0,0,3708,3733,3736,3703,3743,3737,0.0,0.0,0.0,Started waypoint mission,
20.745486542419034,-103.51430683475085,14000,22.900000000000002,2.9,16,5,-3.3000000000000003,-4.2,-35.5,2019-10-25 16:25:06.4180+0000,-0.12887799739837646,0.0,0.0,-2.9,true,96,-21230,3715,22363,25.650000000000034,14,false,100,100,0,0,0,0,0,3708,3733,3736,3703,3743,3737,0.0,0.0,0.0,Started waypoint mission,
20.74548656511455,-103.51430675227436,14000,23.3,3.0,16,5,-3.3000000000000003,-4.0,-35.5,2019-10-25 16:25:06.5190+0000,-0.10061800479888916,0.0,0.0,-3.0,true,96,-21230,3715,22363,25.650000000000034,14,false,100,100,0,0,0,0,0,3708,3733,3736,3703,3743,3737,0.0,0.0,0.0,Started waypoint mission,
20.745486624188715,-103.5143066559936,14000,23.5,2.8,16,5,-3.3000000000000003,-4.0,-35.5,2019-10-25 16:25:06.6210+0000,-0.10102903842926025,0.0,0.0,-2.8,true,96,-21230,3715,22363,25.650000000000034,14,false,100,100,0,0,0,0,0,3708,3733,3736,3703,3743,3737,0.0,0.0,0.0,Started waypoint mission,
20.745486689131916,-103.51430656262869,15000,23.8,2.9,16,5,-3.3000000000000003,-4.0,-35.6,2019-10-25 16:25:06.7180+0000,-0.09728395938873291,0.0,0.0,-2.9,true,96,-21230,3715,22363,25.650000000000034,14,false,100,100,0,0,0,0,0,3708,3733,3736,3703,3743,3737,0.0,0.0,0.0,Started waypoint mission,
20.745486733438344,-103.51430649274694,15000,24.1,2.9,16,5,-3.2,-4.0,-35.6,2019-10-25 16:25:06.8240+0000,-0.10481894016265869,0.0,0.0,-2.9,true,96,-21230,3715,22363,25.650000000000034,14,false,100,100,0,0,0,0,0,3708,3733,3736,3703,3743,3737,0.0,0.0,0.0,Started waypoint mission,
20.745486779329323,-103.51430643214228,15000,24.400000000000002,3.0,16,5,-3.1,-4.2,-35.6,2019-10-25 16:25:06.9310+0000,-0.10647702217102051,0.0,0.0,-3.0,true,96,-21230,3715,22363,25.650000000000034,14,false,100,100,0,0,0,0,0,3708,3733,3736,3703,3743,3737,0.0,0.0,0.0,Started waypoint mission,
20.745486854051368,-103.51430637705622,15000,24.700000000000003,3.0,16,5,-3.0,-4.3,-35.6,2019-10-25 16:25:07.0180+0000,-0.08613705635070801,0.0,0.0,-3.0,true,96,-21230,3715,22363,25.650000000000034,14,false,100,100,0,0,0,0,0,3708,3733,3736,3703,3743,3737,0.0,0.0,0.0,Started waypoint mission,
20.745486930612596,-103.51430632447038,15000,25.0,2.9,16,5,-2.9000000000000004,-4.3,-35.6,2019-10-25 16:25:07.1450+0000,-0.12609994411468506,0.0,0.0,-2.9,true,96,-21799,3715,22302,25.75,14,false,100,99,0,0,0,0,0,3706,3724,3725,3670,3724,3730,0.0,0.0,0.0,Started waypoint mission,
20.74548699148973,-103.51430625504146,15000,25.3,3.0,16,5,-3.0,-4.4,-35.6,2019-10-25 16:25:07.2420+0000,-0.09703600406646729,0.0,0.0,-3.0,true,96,-21799,3715,22302,25.75,14,false,100,99,0,0,0,0,0,3706,3724,3725,3670,3724,3730,0.0,0.0,0.0,Started waypoint mission,
20.74548704454507,-103.51430618751179,15000,25.6,3.0,16,5,-3.0,-4.4,-35.6,2019-10-25 16:25:07.3380+0000,-0.09463810920715332,0.0,0.0,-3.0,true,96,-21799,3715,22302,25.75,14,false,100,99,0,0,0,0,0,3706,3724,3725,3670,3724,3730,0.0,0.0,0.0,Started waypoint mission,
20.745487105873952,-103.51430614394893,15000,25.900000000000002,2.9,16,5,-3.1,-4.4,-35.6,2019-10-25 16:25:07.4540+0000,-0.11537802219390869,0.0,0.0,-2.9,true,96,-21799,3715,22302,25.75,14,false,100,99,0,0,0,0,0,3706,3724,3725,3670,3724,3730,0.0,0.0,0.0,Started waypoint mission,
20.74548716463338,-103.51430611085371,15000,26.200000000000003,2.9,16,5,-3.1,-4.3,-35.6,2019-10-25 16:25:07.5670+0000,-0.11329591274261475,0.0,0.0,-2.9,true,96,-21799,3715,22302,25.75,14,false,100,99,0,0,0,0,0,3706,3724,3725,3670,3724,3730,0.0,0.0,0.0,Started waypoint mission,
20.74548720728253,-103.51430609742252,16000,26.5,2.9,16,5,-3.0,-4.2,-35.7,2019-10-25 16:25:07.6790+0000,-0.11104893684387207,0.0,0.0,-2.9,true,96,-21799,3715,22302,25.75,14,false,100,99,0,0,0,0,0,3706,3724,3725,3670,3724,3730,0.0,0.0,0.0,Started waypoint mission,
20.745487245784215,-103.51430609077268,16000,26.900000000000002,3.0,16,5,-3.0,-4.2,-35.7,2019-10-25 16:25:07.7620+0000,-0.08219003677368164,0.0,0.0,-3.0,true,96,-21799,3715,22302,25.75,14,false,100,99,0,0,0,0,0,3706,3724,3725,3670,3724,3730,0.0,0.0,0.0,Started waypoint mission,
20.74548728593035,-103.5143060893186,16000,27.200000000000003,3.0,16,5,-3.0,-4.2,-35.7,2019-10-25 16:25:07.8730+0000,-0.10987496376037598,0.0,0.0,-3.0,true,96,-21799,3715,22302,25.75,14,false,100,99,0,0,0,0,0,3706,3724,3725,3670,3724,3730,0.0,0.0,0.0,Started waypoint mission,
20.745487323399892,-103.51430609409974,16000,27.400000000000002,2.9,16,5,-3.0,-4.1000000000000005,-35.6,2019-10-25 16:25:07.9880+0000,-0.11448502540588379,0.0,0.0,-2.9,true,96,-21799,3715,22302,25.75,14,false,100,99,0,0,0,0,0,3706,3724,3725,3670,3724,3730,0.0,0.0,0.0,Started waypoint mission,
20.745487357927395,-103.5143061125168,16000,27.700000000000003,2.8,16,5,-3.0,-3.9000000000000004,-35.7,2019-10-25 16:25:08.0680+0000,-0.07945096492767334,0.0,0.0,-2.8,true,96,-21799,3715,22302,25.75,14,false,100,99,0,0,0,0,0,3706,3724,3725,3670,3724,3730,0.0,0.0,0.0,Started waypoint mission,
20.745487387292425,-103.51430614032994,16000,28.0,2.7,16,5,-3.0,-3.7,-35.7,2019-10-25 16:25:08.0700+0000,-0.0019849538803100586,0.0,0.0,-2.7,true,96,-22093,3715,22221,25.850000000000023,14,false,100,99,0,0,0,0,0,0,0,0,0,0,0,0.0,0.0,0.0,Started waypoint mission,
20.74548743912288,-103.51430617853637,16000,28.200000000000003,2.8,16,5,-2.8000000000000003,-3.4000000000000004,-35.7,2019-10-25 16:25:08.1790+0000,-0.10866892337799072,0.0,0.0,-2.8,true,96,-22093,3715,22221,25.850000000000023,14,false,100,99,0,0,0,0,0,3706,3724,3725,3670,3724,3730,0.0,0.0,0.0,Started waypoint mission,
20.745487498899234,-103.51430622150293,16000,28.5,2.8,16,5,-2.5,-3.4000000000000004,-35.7,2019-10-25 16:25:08.3000+0000,-0.11996209621429443,0.0,0.0,-2.8,true,96,-22093,3715,22221,25.850000000000023,14,false,100,99,0,0,0,0,0,3706,3724,3725,3670,3724,3730,0.0,0.0,0.0,Started waypoint mission,
20.745487566540206,-103.5143062928622,16000,28.8,2.9,16,5,-2.3000000000000003,-3.5,-35.7,2019-10-25 16:25:08.4050+0000,-0.10440301895141602,0.0,0.0,-2.9,true,96,-22093,3715,22221,25.850000000000023,14,false,100,99,0,0,0,0,0,3706,3724,3725,3670,3724,3730,0.0,0.0,0.0,Started waypoint mission,
20.745487630215806,-103.51430636914766,16000,29.1,3.1,16,5,-2.3000000000000003,-3.7,-35.7,2019-10-25 16:25:08.4980+0000,-0.09217095375061035,0.0,0.0,-3.1,true,96,-22093,3715,22221,25.850000000000023,14,false,100,99,0,0,0,0,0,3706,3724,3725,3670,3724,3730,0.0,0.0,0.0,Started waypoint mission,
20.74548769088528,-103.51430639879376,16000,29.5,3.2,16,5,-2.2,-3.7,-35.6,2019-10-25 16:25:08.5980+0000,-0.10018205642700195,0.0,0.0,-3.2,true,96,-22093,3715,22221,25.850000000000023,14,false,100,99,0,0,0,0,0,3703,3711,3716,3661,3703,3731,0.0,0.0,0.0,Started waypoint mission,
20.745487750344886,-103.5143064143992,17000,29.8,3.1,16,5,-2.2,-3.8000000000000003,-35.5,2019-10-25 16:25:08.7140+0000,-0.11513996124267578,0.0,0.0,-3.1,true,96,-22093,3715,22221,25.850000000000023,14,false,100,99,0,0,0,0,0,3703,3711,3716,3661,3703,3731,0.0,0.0,0.0,Started waypoint mission,
20.745487780322556,-103.51430641931148,17000,30.1,3.1,16,5,-2.2,-3.9000000000000004,-35.4,2019-10-25 16:25:08.8280+0000,-0.11231601238250732,0.0,0.0,-3.1,true,96,-22093,3715,22221,25.850000000000023,14,false,100,99,0,0,0,0,0,3703,3711,3716,3661,3703,3731,0.0,0.0,0.0,Started waypoint mission,
20.74548779891976,-103.51430641304285,17000,30.400000000000002,3.1,16,5,-2.4000000000000004,-4.0,-35.300000000000004,2019-10-25 16:25:08.9380+0000,-0.10999000072479248,0.0,0.0,-3.1,true,96,-22093,3715,22221,25.850000000000023,14,false,100,99,0,0,0,0,0,3703,3711,3716,3661,3703,3731,0.0,0.0,0.0,Started waypoint mission,
20.745487830621027,-103.51430641107703,17000,30.700000000000003,3.0,16,5,-2.6,-4.1000000000000005,-35.2,2019-10-25 16:25:09.0390+0000,-0.0998450517654419,0.0,0.0,-3.0,true,96,-22093,3715,22221,25.850000000000023,14,false,100,99,0,0,0,0,0,3703,3711,3716,3661,3703,3731,0.0,0.0,0.0,Started waypoint mission,
20.74548786396878,-103.51430641100929,17000,31.0,2.9,16,5,-2.7,-4.1000000000000005,-35.300000000000004,2019-10-25 16:25:09.1410+0000,-0.1016850471496582,0.0,0.0,-2.9,true,96,-22093,3715,22221,26.150000000000034,14,false,100,99,0,0,0,0,0,3703,3711,3716,3661,3703,3731,0.0,0.0,0.0,Started waypoint mission,
20.745487888569844,-103.51430642943555,17000,31.3,3.0,16,5,-2.6,-4.0,-35.300000000000004,2019-10-25 16:25:09.2370+0000,-0.09512698650360107,0.0,0.0,-3.0,true,96,-22093,3715,22221,26.150000000000034,14,false,100,99,0,0,0,0,0,3703,3711,3716,3661,3703,3731,0.0,0.0,0.0,Started waypoint mission,
20.74548791176846,-103.51430645433634,17000,31.700000000000003,3.0,16,5,-2.6,-4.0,-35.4,2019-10-25 16:25:09.3380+0000,-0.10049200057983398,0.0,0.0,-3.0,true,96,-22093,3715,22221,26.150000000000034,14,false,100,99,0,0,0,0,0,3703,3711,3716,3661,3703,3731,0.0,0.0,0.0,Started waypoint mission,
20.745487907885376,-103.51430648151931,17000,32.0,3.0,16,5,-2.6,-4.0,-35.5,2019-10-25 16:25:09.4470+0000,-0.10871100425720215,0.0,0.0,-3.0,true,96,-22093,3715,22221,26.150000000000034,14,false,100,99,0,0,0,0,0,3703,3711,3716,3661,3703,3731,0.0,0.0,0.0,Started waypoint mission,
20.745487894992085,-103.51430650866563,17000,32.300000000000004,2.9,16,5,-2.7,-3.9000000000000004,-35.5,2019-10-25 16:25:09.5530+0000,-0.10474598407745361,0.0,0.0,-2.9,true,96,-22093,3715,22221,26.150000000000034,14,false,100,99,0,0,0,0,0,3703,3711,3716,3661,3703,3731,0.0,0.0,0.0,Started waypoint mission,
20.745487929244426,-103.51430661319465,18000,32.9,3.0,16,5,-2.8000000000000003,-3.9000000000000004,-35.6,2019-10-25 16:25:09.7520+0000,-0.1984720230102539,0.0,0.0,-3.0,true,96,-22261,3676,22199,26.150000000000034,14,false,100,99,0,0,0,0,0,3711,3692,3698,3648,3680,3705,0.0,0.0,0.0,Started waypoint mission,
20.745487931502236,-103.51430667377998,18000,33.2,3.0,16,5,-2.7,-3.8000000000000003,-35.6,2019-10-25 16:25:09.8650+0000,-0.11285698413848877,0.0,0.0,-3.0,true,96,-22261,3676,22199,26.150000000000034,14,false,100,99,0,0,0,0,0,3711,3692,3698,3648,3680,3705,0.0,0.0,0.0,Started waypoint mission,
20.74548793234035,-103.51430673750896,18000,33.5,2.8,16,5,-2.5,-3.7,-35.6,2019-10-25 16:25:09.9580+0000,-0.09208500385284424,0.0,0.0,-2.8,true,96,-22261,3676,22199,26.150000000000034,14,false,100,99,0,0,0,0,0,3711,3692,3698,3648,3680,3705,0.0,0.0,0.0,Started waypoint mission,
20.74548793678083,-103.51430684431091,18000,34.0,2.9,16,5,-2.4000000000000004,-3.4000000000000004,-35.7,2019-10-25 16:25:10.1900+0000,-0.2312760353088379,0.0,0.0,-2.9,true,96,-22261,3676,22199,26.150000000000034,14,false,100,99,0,0,0,0,0,3711,3692,3698,3648,3680,3705,0.0,0.0,0.0,Started waypoint mission,
20.74548792705221,-103.51430689092712,18000,34.300000000000004,2.9,16,5,-2.6,-3.3000000000000003,-35.7,2019-10-25 16:25:10.2680+0000,-0.07783901691436768,0.0,0.0,-2.9,true,96,-22261,3676,22199,26.150000000000034,14,false,100,99,0,0,0,0,0,3711,3692,3698,3648,3680,3705,0.0,0.0,0.0,Started waypoint mission,
20.745487896852755,-103.51430698953678,18000,34.9,3.0,16,5,-2.6,-3.2,-35.7,2019-10-25 16:25:10.4950+0000,-0.22592699527740479,0.0,0.0,-3.0,true,96,-22261,3676,22199,26.150000000000034,14,false,100,99,0,0,0,0,0,3711,3692,3698,3648,3680,3705,0.0,0.0,0.0,Started waypoint mission,
20.74548788000052,-103.51430704391717,18000,35.300000000000004,3.0,16,5,-2.5,-3.3000000000000003,-35.6,2019-10-25 16:25:10.4970+0000,-0.0010870695114135742,0.0,0.0,-3.0,true,96,-22261,3676,22199,26.150000000000034,14,false,100,99,0,0,0,0,0,3711,3692,3698,3648,3680,3705,0.0,0.0,0.0,Started waypoint mission,
20.745487877050905,-103.51430709523113,19000,35.6,2.9,16,5,-2.4000000000000004,-3.4000000000000004,-35.5,2019-10-25 16:25:10.6990+0000,-0.20233690738677979,0.0,0.0,-2.9,true,95,-22305,3676,22128,26.150000000000034,14,false,100,97,0,0,0,0,0,3690,3673,3703,3650,3691,3721,0.0,0.0,0.0,Started waypoint mission,
20.745487876649282,-103.51430714286391,19000,35.800000000000004,2.9,16,5,-2.4000000000000004,-3.4000000000000004,-35.5,2019-10-25 16:25:10.7010+0000,-0.0009080171585083008,0.0,0.0,-2.9,true,95,-22305,3676,22128,26.150000000000034,14,false,100,97,0,0,0,0,0,3690,3673,3703,3650,3691,3721,0.0,0.0,0.0,Started waypoint mission,
20.74548788973074,-103.51430717704109,19000,36.1,3.0,16,5,-2.3000000000000003,-3.5,-35.5,2019-10-25 16:25:10.8000+0000,-0.09826898574829102,0.0,0.0,-3.0,true,95,-22305,3676,22128,26.150000000000034,14,false,100,97,0,0,0,0,0,3690,3673,3703,3650,3691,3721,0.0,0.0,0.0,Started waypoint mission,
20.7454879042447,-103.51430720361212,19000,36.5,3.0,16,5,-2.4000000000000004,-3.5,-35.5,2019-10-25 16:25:10.8890+0000,-0.08922302722930908,0.0,0.0,-3.0,true,95,-22305,3676,22128,26.150000000000034,14,false,100,97,0,0,0,0,0,3690,3673,3703,3650,3691,3721,0.0,0.0,0.0,Started waypoint mission,
20.745487872960883,-103.51430721351058,19000,36.800000000000004,3.0,16,5,-2.6,-3.6,-35.5,2019-10-25 16:25:11.0010+0000,-0.11124908924102783,0.0,0.0,-3.0,true,95,-22305,3676,22128,26.150000000000034,14,false,100,97,0,0,0,0,0,3690,3673,3703,3650,3691,3721,0.0,0.0,0.0,Started waypoint mission,
20.74548782983419,-103.51430722095168,19000,37.1,3.0,16,5,-2.7,-3.6,-35.5,2019-10-25 16:25:11.1120+0000,-0.11015200614929199,0.0,0.0,-3.0,true,95,-22305,3676,22128,26.150000000000034,14,false,100,95,0,0,0,0,0,3690,3673,3703,3650,3691,3721,0.0,0.0,0.0,Started waypoint mission,
20.745487805085222,-103.51430722923993,19000,37.4,2.9,16,5,-2.8000000000000003,-3.5,-35.5,2019-10-25 16:25:11.1990+0000,-0.08642899990081787,0.0,0.0,-2.9,true,95,-22305,3676,22128,26.150000000000034,14,false,100,95,0,0,0,0,0,3690,3673,3703,3650,3691,3721,0.0,0.0,0.0,Started waypoint mission,
20.745487782040616,-103.514307236831,19000,37.7,2.9,16,5,-2.9000000000000004,-3.5,-35.5,2019-10-25 16:25:11.3010+0000,-0.1015239953994751,0.0,0.0,-2.9,true,95,-22305,3676,22128,26.150000000000034,14,false,100,95,0,0,0,0,0,3690,3673,3703,3650,3691,3721,0.0,0.0,0.0,Started waypoint mission,
20.745487722167773,-103.51430722084113,19000,38.0,3.0,16,5,-2.9000000000000004,-3.4000000000000004,-35.6,2019-10-25 16:25:11.4160+0000,-0.11395299434661865,0.0,0.0,-3.0,true,95,-22305,3676,22128,26.150000000000034,14,false,100,95,0,0,0,0,0,3690,3673,3703,3650,3691,3721,0.0,0.0,0.0,Started waypoint mission,
20.745487602539686,-103.5143072048985,20000,38.6,2.9,16,5,-3.2,-3.4000000000000004,-35.5,2019-10-25 16:25:11.6380+0000,-0.22138094902038574,0.0,0.0,-2.9,true,95,-22482,3676,22045,26.350000000000023,14,false,100,95,0,0,0,0,0,3676,3672,3694,3639,3673,3685,0.0,0.0,0.0,Started waypoint mission,
20.745487557755602,-103.51430721273967,20000,38.900000000000006,2.8,16,5,-3.3000000000000003,-3.4000000000000004,-35.5,2019-10-25 16:25:11.7300+0000,-0.09220898151397705,0.0,0.0,-2.8,true,95,-22482,3676,22045,26.350000000000023,14,false,100,95,0,0,0,0,0,3676,3672,3694,3639,3673,3685,0.0,0.0,0.0,Started waypoint mission,
20.745487524142117,-103.5143072279878,20000,39.2,2.8,16,5,-3.2,-3.2,-35.6,2019-10-25 16:25:11.8290+0000,-0.09766900539398193,0.0,0.0,-2.8,true,95,-22482,3676,22045,26.350000000000023,14,false,100,95,0,0,0,0,0,3676,3672,3694,3639,3673,3685,0.0,0.0,0.0,Started waypoint mission,
20.745487496431828,-103.51430724761602,20000,39.400000000000006,2.8,16,5,-3.2,-3.1,-35.6,2019-10-25 16:25:11.9320+0000,-0.10226500034332275,0.0,0.0,-2.8,true,95,-22482,3676,22045,26.350000000000023,14,false,100,95,0,0,0,0,0,3676,3672,3694,3639,3673,3685,0.0,0.0,0.0,Started waypoint mission,
